     3.02           OBSERVATION DATA    G                   RINEX VERSION / TYPE
G = GPS  R = GLONASS  E = GALILEO  S = GEO  M = MIXED       COMMENT             
GNSS-SDR            tagsys-g1           20241227 031050 UTC PGM / RUN BY / DATE 
GPS OBSERVATION DATA FILE GENERATED BY GNSS-SDR             COMMENT             
GNSS-SDR VERSION 0.0.19.git-next-dc55847ae                  COMMENT             
See https://gnss-sdr.org                                    COMMENT             
DEFAULT MARKER NAME                                         MARKER NAME         
tagsys-g1           CTTC                                    OBSERVER / AGENCY   
GNSS-SDR            Software Receiver   0.0.19.gi           REC # / TYPE / VERS 
Antenna number      Antenna type                            ANT # / TYPE        
        0.0000        0.0000        0.0000                  APPROX POSITION XYZ 
        0.0000        0.0000        0.0000                  ANTENNA: DELTA H/E/N
G    4 C1C L1C D1C S1C                                      SYS / # / OBS TYPES 
DBHZ                                                        SIGNAL STRENGTH UNIT
  2024    12    27    02    42   42.1400000     GPS         TIME OF FIRST OBS   
                                                            END OF HEADER       
> 2024 12 27 02 42 43.0000000  0  4                                             
G29  27821155.454 6 146201164.043 6       295.097 6        39.126               
G31  25437440.388 7 133674639.569 7       199.994 7        42.169               
G26  24391861.009 6 128180093.571 6      1120.358 6        40.261               
G28  25781201.453 7 135481143.912 7      -613.660 7        42.186               
> 2024 12 27 02 42 44.0000000  0  4                                             
G29  27821100.310 6 146200877.047 6       283.886 6        39.052               
G31  25437398.699 7 133674433.746 7       204.415 7        42.291               
G26  24391651.691 6 128178975.151 6      1118.554 6        40.648               
G28  25781323.802 7 135481762.025 7      -620.054 7        42.324               
> 2024 12 27 02 42 45.0000000  0  4                                             
G29  27821048.829 6 146200590.562 6       281.585 6        39.252               
G31  25437357.958 7 133674228.072 7       206.473 7        42.082               
G26  24391437.942 6 128177857.316 6      1116.818 6        40.264               
G28  25781439.039 6 135482380.193 6      -616.987 6        41.651               
> 2024 12 27 02 42 46.0000000  0  4                                             
G29  27820990.612 6 146200304.563 6       282.146 6        39.178               
G31  25437322.452 7 133674022.537 7       203.014 7        42.311               
G26  24391223.728 6 128176740.082 6      1119.112 6        40.559               
G28  25781556.296 7 135482998.394 7      -614.731 7        42.391               
> 2024 12 27 02 42 47.0000000  0  4                                             
G29  27820939.471 6 146200019.053 6       283.489 6        39.182               
G31  25437284.034 7 133673817.132 7       202.511 7        42.338               
G26  24391009.925 6 128175623.414 6      1111.467 6        40.968               
G28  25781670.425 6 135483616.642 6      -619.307 6        41.801               
> 2024 12 27 02 42 48.0000000  0  4                                             
G29  27820882.826 6 146199734.046 6       289.977 6        39.923               
G31  25437244.758 7 133673611.870 7       208.040 7        42.197               
G26  24390800.536 6 128174507.316 6      1116.783 6        40.992               
G28  25781792.149 6 135484234.918 6      -614.696 6        41.552               
> 2024 12 27 02 42 49.0000000  0  4                                             
G29  27820829.129 6 146199449.500 6       284.756 6        39.961               
G31  25437207.751 7 133673406.732 7       206.660 7        42.293               
G26  24390588.716 6 128173391.794 6      1113.274 6        41.276               
G28  25781908.905 6 135484853.236 6      -619.000 6        41.261               
> 2024 12 27 02 42 50.0000000  0  4                                             
G29  27820771.252 6 146199165.463 6       284.747 6        39.608               
G31  25437166.170 7 133673201.745 7       202.824 7        42.639               
G26  24390378.076 6 128172276.869 6      1111.525 6        41.348               
G28  25782024.286 6 135485471.606 6      -617.864 6        41.308               
> 2024 12 27 02 42 51.0000000  0  4                                             
G29  27820721.469 6 146198881.917 6       287.788 6        39.699               
G31  25437129.574 7 133672996.867 7       204.707 7        42.719               
G26  24390164.059 6 128171162.506 6      1119.136 6        41.531               
G28  25782141.882 6 135486090.001 6      -616.387 6        41.044               
> 2024 12 27 02 42 52.0000000  0  4                                             
G29  27820668.273 6 146198598.850 6       280.913 6        39.191               
G31  25437089.994 7 133672792.125 7       209.620 7        42.726               
G26  24389950.721 6 128170048.712 6      1123.685 6        41.188               
G28  25782259.388 6 135486708.418 6      -617.088 6        41.374               
> 2024 12 27 02 42 53.0000000  0  4                                             
G29  27820616.828 6 146198316.245 6       281.034 6        38.807               
G31  25437054.077 7 133672587.500 7       204.304 7        42.698               
G26  24389740.438 6 128168935.482 6      1107.556 6        41.240               
G28  25782379.218 6 135487326.865 6      -616.991 6        41.379               
> 2024 12 27 02 42 54.0000000  0  4                                             
G29  27820562.434 6 146198034.127 6       281.182 6        38.666               
G31  25437016.695 7 133672383.026 7       202.624 7        42.751               
G26  24389528.654 7 128167822.829 7      1114.782 7        42.162               
G28  25782495.206 6 135487945.354 6      -625.283 6        41.254               
> 2024 12 27 02 42 55.0000000  0  4                                             
G29  27820510.882 6 146197752.526 6       281.653 6        39.448               
G31  25436970.808 7 133672178.689 7       195.565 7        42.571               
G26  24389320.587 6 128166710.724 6      1113.469 6        41.909               
G28  25782614.982 6 135488563.874 6      -617.270 6        41.577               
> 2024 12 27 02 42 56.0000000  0  4                                             
G29  27820453.165 6 146197471.393 6       281.232 6        39.552               
G31  25436932.085 7 133671974.487 7       202.850 7        42.241               
G26  24389104.515 6 128165599.252 6      1113.130 6        41.636               
G28  25782733.507 6 135489182.492 6      -622.494 6        41.717               
> 2024 12 27 02 42 57.0000000  0  4                                             
G29  27820396.038 6 146197190.765 6       279.204 6        39.539               
G31  25436892.220 6 133671770.414 6       198.005 6        41.817               
G26  24388894.322 6 128164488.342 6      1108.932 6        41.517               
G28  25782847.333 6 135489801.089 6      -618.074 6        41.596               
> 2024 12 27 02 42 58.0000000  0  4                                             
G29  27820342.288 6 146196910.637 6       273.982 6        39.162               
G31  25436856.356 7 133671566.504 7       207.912 7        42.614               
G26  24388687.738 6 128163378.044 6      1109.929 6        41.844               
G28  25782970.272 6 135490419.751 6      -620.899 6        41.896               
> 2024 12 27 02 42 59.0000000  0  4                                             
G29  27820301.046 6 146196631.009 6       278.042 6        38.620               
G31  25436810.540 7 133671362.727 7       202.045 7        42.572               
G26  24388478.760 6 128162268.300 6      1106.895 6        41.949               
G28  25783086.617 6 135491038.467 6      -619.102 6        41.953               
> 2024 12 27 02 43 00.0000000  0  4                                             
G29  27820237.290 6 146196351.879 6       281.017 6        38.460               
G31  25436775.481 6 133671159.091 6       204.850 6        41.833               
G26  24388267.995 6 128161159.128 6      1108.121 6        41.692               
G28  25783202.730 6 135491657.203 6      -611.938 6        41.666               
> 2024 12 27 02 43 01.0000000  0  4                                             
G29  27820183.039 6 146196073.216 6       279.392 6        38.658               
G31  25436739.511 6 133670955.571 6       206.041 6        41.791               
G26  24388056.390 6 128160050.562 6      1101.222 6        41.388               
G28  25783318.110 6 135492275.994 6      -618.915 6        41.549               
> 2024 12 27 02 43 02.0000000  0  4                                             
G29  27820118.550 6 146195795.090 6       284.320 6        38.609               
G31  25436698.448 6 133670752.229 6       201.415 6        41.890               
G26  24387842.623 7 128158942.547 7      1112.558 7        42.061               
G28  25783437.046 6 135492894.836 6      -621.787 6        41.683               
> 2024 12 27 02 43 03.0000000  0  4                                             
G29  27820073.556 6 146195517.417 6       279.085 6        38.660               
G31  25436661.941 6 133670548.986 6       204.495 6        41.565               
G26  24387632.018 6 128157835.134 6      1113.305 6        41.409               
G28  25783556.251 6 135493513.696 6      -615.527 6        41.762               
> 2024 12 27 02 43 04.0000000  0  4                                             
G29  27820022.933 6 146195240.238 6       276.936 6        38.664               
G31  25436625.113 6 133670345.900 6       200.419 6        41.454               
G26  24387424.041 6 128156728.277 6      1113.151 6        41.497               
G28  25783671.309 7 135494132.595 7      -618.171 7        42.147               
> 2024 12 27 02 43 05.0000000  0  4                                             
G29  27819968.254 6 146194963.548 6       269.840 6        39.022               
G31  25436577.868 6 133670142.909 6       204.625 6        41.374               
G26  24387213.258 6 128155621.994 6      1112.342 6        40.991               
G28  25783790.496 6 135494751.518 6      -619.147 6        41.994               
> 2024 12 27 02 43 06.0000000  0  5                                             
G29  27819917.541 6 146194687.314 6       268.821 6        38.715               
G32  25064693.766 7 131715857.245 7      -429.968 7        45.344               
G31  25436549.206 6 133669940.081 6       206.574 6        41.233               
G26  24386997.150 6 128154516.316 6      1109.284 6        41.079               
G28  25783909.468 6 135495370.474 6      -621.330 6        41.894               
> 2024 12 27 02 43 07.0000000  0  5                                             
G29  27819867.365 6 146194411.590 6       277.839 6        39.282               
G32  25064775.588 7 131716290.558 7      -434.946 7        44.757               
G31  25436502.532 6 133669737.384 6       203.328 6        41.591               
G26  24386790.941 6 128153411.181 6      1105.299 6        41.464               
G28  25784027.993 6 135495989.478 6      -616.686 6        41.904               
> 2024 12 27 02 43 08.0000000  0  5                                             
G29  27819810.917 6 146194136.374 6       273.377 6        39.007               
G32  25064861.895 7 131716724.323 7      -434.716 7        44.454               
G31  25436463.756 6 133669534.825 6       203.291 6        41.555               
G26  24386579.712 6 128152306.654 6      1107.909 6        41.382               
G28  25784144.552 7 135496608.545 7      -614.305 7        42.814               
> 2024 12 27 02 43 09.0000000  0  5                                             
G29  27819760.508 6 146193861.642 6       273.790 6        38.857               
G32  25064943.825 7 131717158.551 7      -434.414 7        44.942               
G31  25436423.426 6 133669332.403 6       205.336 6        41.286               
G26  24386370.823 6 128151202.687 6      1103.894 6        41.443               
G28  25784261.541 7 135497227.632 7      -619.096 7        42.408               
> 2024 12 27 02 43 10.0000000  0  5                                             
G29  27819714.192 6 146193587.428 6       271.431 6        39.088               
G32  25065026.040 7 131717593.245 7      -435.964 7        45.152               
G31  25436387.616 6 133669130.140 6       197.965 6        41.525               
G26  24386160.701 6 128150099.336 6      1101.970 6        41.371               
G28  25784383.944 7 135497846.781 7      -617.680 7        42.257               
> 2024 12 27 02 43 11.0000000  0  5                                             
G29  27819656.636 6 146193313.687 6       271.055 6        39.045               
G32  25065105.218 7 131718028.371 7      -430.692 7        45.137               
G31  25436349.913 6 133668928.015 6       204.679 6        41.417               
G26  24385952.116 6 128148996.549 6      1100.246 6        41.335               
G28  25784502.129 7 135498465.973 7      -620.333 7        42.991               
> 2024 12 27 02 43 12.0000000  0  5                                             
G29  27819603.833 6 146193040.442 6       272.761 6        39.076               
G32  25065189.220 7 131718463.984 7      -435.105 7        44.946               
G31  25436312.727 6 133668726.020 6       203.474 6        41.443               
G26  24385738.027 6 128147894.335 6      1110.299 6        41.895               
G28  25784622.370 7 135499085.182 7      -615.903 7        42.214               
> 2024 12 27 02 43 13.0000000  0  5                                             
G29  27819544.758 6 146192767.665 6       278.478 6        38.922               
G32  25065273.062 7 131718900.020 7      -435.994 7        45.016               
G31  25436276.346 6 133668524.138 6       207.266 6        41.173               
G26  24385530.979 6 128146792.689 6      1104.147 6        41.313               
G28  25784736.410 7 135499704.443 7      -620.313 7        42.536               
> 2024 12 27 02 43 14.0000000  0  5                                             
G29  27819496.279 6 146192495.401 6       264.942 6        38.556               
G32  25065355.474 7 131719336.517 7      -439.113 7        44.184               
G31  25436238.356 6 133668322.416 6       197.338 6        41.403               
G26  24385325.306 6 128145691.608 6      1103.094 6        41.632               
G28  25784857.330 7 135500323.721 7      -622.164 7        42.485               
> 2024 12 27 02 43 15.0000000  0  5                                             
G29  27819443.208 6 146192223.581 6       264.253 6        38.467               
G32  25065437.242 7 131719773.447 7      -439.277 7        44.281               
G31  25436203.976 6 133668120.814 6       200.272 6        41.592               
G26  24385117.972 7 128144591.089 7      1102.042 7        42.131               
G28  25784976.570 7 135500943.039 7      -620.177 7        42.412               
> 2024 12 27 02 43 16.0000000  0  5                                             
G29  27819393.353 6 146191952.308 6       270.905 6        39.030               
G32  25065517.295 7 131720210.859 7      -440.464 7        44.589               
G31  25436162.592 6 133667919.332 6       202.031 6        41.099               
G26  24384906.992 7 128143491.171 7      1098.862 7        42.848               
G28  25785092.129 7 135501562.416 7      -618.930 7        42.616               
> 2024 12 27 02 43 17.0000000  0  5                                             
G29  27819342.320 6 146191681.481 6       269.876 6        39.520               
G32  25065599.421 7 131720648.705 7      -441.995 7        44.156               
G31  25436127.336 6 133667717.996 6       204.436 6        41.726               
G26  24384697.889 7 128142391.816 7      1106.453 7        42.745               
G28  25785213.567 7 135502181.797 7      -620.029 7        42.748               
> 2024 12 27 02 43 18.0000000  0  5                                             
G29  27819281.618 6 146191411.267 6       269.759 6        38.668               
G32  25065685.389 7 131721087.116 7      -443.637 7        44.141               
G31  25436087.184 6 133667516.899 6       194.665 6        41.923               
G26  24384491.949 7 128141293.165 7      1100.076 7        43.405               
G28  25785332.467 7 135502801.344 7      -620.815 7        42.780               
> 2024 12 27 02 43 19.0000000  0  5                                             
G29  27819237.589 6 146191141.689 6       261.483 6        38.432               
G32  25065763.959 7 131721526.102 7      -442.727 7        43.289               
G31  25436046.407 7 133667316.069 7       205.066 7        42.082               
G26  24384282.148 7 128140195.202 7      1098.240 7        43.113               
G28  25785449.974 7 135503421.050 7      -620.707 7        42.687               
> 2024 12 27 02 43 20.0000000  0  5                                             
G29  27819195.990 6 146190872.592 6       267.437 6        38.860               
G32  25065850.642 7 131721965.569 7      -440.243 7        43.258               
G31  25436010.633 6 133667115.377 6       198.170 6        41.974               
G26  24384075.761 7 128139097.860 7      1097.932 7        43.143               
G28  25785565.140 7 135504040.810 7      -618.507 7        43.015               
> 2024 12 27 02 43 21.0000000  0  5                                             
G29  27819134.664 6 146190604.004 6       270.176 6        39.184               
G32  25065933.286 7 131722405.472 7      -436.655 7        42.672               
G31  25435973.466 7 133666914.818 7       202.002 7        42.314               
G26  24383861.940 7 128138001.045 7      1094.789 7        42.972               
G28  25785685.952 7 135504660.595 7      -620.940 7        42.519               
> 2024 12 27 02 43 22.0000000  0  5                                             
G29  27819093.690 6 146190335.853 6       267.137 6        40.017               
G32  25066015.234 7 131722845.843 7      -444.742 7        42.219               
G31  25435935.405 7 133666714.385 7       198.321 7        42.304               
G26  24383657.715 7 128136904.831 7      1096.825 7        42.518               
G28  25785802.941 7 135505280.428 7      -621.950 7        42.807               
> 2024 12 27 02 43 23.0000000  0  5                                             
G29  27819044.443 6 146190068.219 6       269.575 6        39.690               
G32  25066100.612 6 131723286.646 6      -436.911 6        41.718               
G31  25435894.753 7 133666514.089 7       201.599 7        42.130               
G26  24383444.877 7 128135809.189 7      1093.963 7        42.824               
G28  25785923.253 7 135505900.288 7      -620.178 7        42.892               
> 2024 12 27 02 43 24.0000000  0  5                                             
G29  27818988.084 6 146189801.081 6       263.549 6        40.298               
G32  25066188.938 6 131723727.909 6      -436.674 6        41.905               
G31  25435857.889 7 133666313.932 7       200.934 7        42.734               
G26  24383234.827 7 128134714.117 7      1093.669 7        42.885               
G28  25786038.204 7 135506520.182 7      -618.039 7        42.869               
> 2024 12 27 02 43 25.0000000  0  5                                             
G29  27818940.642 6 146189534.431 6       270.888 6        39.885               
G32  25066267.348 7 131724169.630 7      -441.471 7        42.165               
G31  25435815.450 7 133666113.885 7       201.167 7        43.104               
G26  24383029.137 7 128133619.613 7      1088.659 7        42.780               
G28  25786162.019 7 135507140.112 7      -619.720 7        43.364               
> 2024 12 27 02 43 26.0000000  0  5                                             
G29  27818892.914 6 146189268.273 6       262.447 6        40.548               
G32  25066349.938 7 131724611.809 7      -441.618 7        42.167               
G31  25435778.765 7 133665913.991 7       202.076 7        43.118               
G26  24382814.637 7 128132525.690 7      1096.936 7        42.989               
G28  25786277.613 7 135507760.079 7      -621.869 7        43.571               
> 2024 12 27 02 43 27.0000000  0  5                                             
G29  27818833.839 6 146189002.582 6       272.517 6        39.967               
G32  25066436.442 6 131725054.441 6      -443.855 6        41.871               
G31  25435744.010 7 133665714.223 7       199.901 7        42.731               
G26  24382604.319 7 128131432.353 7      1093.188 7        42.529               
G28  25786395.817 7 135508380.101 7      -619.985 7        43.494               
> 2024 12 27 02 43 29.0000000  0  5                                             
G29  27818739.740 6 146188472.714 6       262.171 6        40.216               
G32  25066598.782 6 131725941.055 6      -446.569 6        41.274               
G31  25435667.298 7 133665315.129 7       193.758 7        42.910               
G26  24382189.203 6 128129247.393 6      1091.107 6        41.988               
G28  25786630.366 7 135509620.242 7      -620.686 7        43.125               
> 2024 12 27 02 43 30.0000000  0  5                                             
G29  27818681.809 6 146188208.546 6       263.668 6        39.911               
G32  25066676.977 6 131726385.096 6      -440.409 6        40.007               
G31  25435629.523 7 133665115.797 7       200.528 7        43.457               
G26  24381980.243 7 128128155.822 7      1092.133 7        42.558               
G28  25786747.283 7 135510240.397 7      -623.278 7        42.726               
> 2024 12 27 02 43 39.0000000  0  5                                             
G29  27818231.116 6 146185852.802 6       261.254 6        39.954               
G32  25067447.007 6 131730401.395 6      -444.095 6        39.497               
G31  25435290.780 7 133663327.465 7       197.329 7        42.951               
G26  24380119.595 7 128118357.225 7      1082.226 7        42.364               
G28  25787810.097 7 135515823.148 7      -617.967 7        42.427               
> 2024 12 27 02 43 40.0000000  0  5                                             
G29  27818175.955 6 146185593.500 6       258.821 6        40.017               
G32  25067534.905 6 131730849.937 6      -455.470 6        39.994               
G31  25435247.662 7 133663129.469 7       200.959 7        43.144               
G26  24379912.654 7 128117271.408 7      1082.946 7        42.297               
G28  25787923.708 7 135516443.644 7      -622.253 7        42.138               
> 2024 12 27 02 43 41.0000000  0  5                                             
G29  27818132.462 6 146185334.697 6       255.782 6        40.160               
G32  25067621.516 6 131731298.917 6      -442.354 6        40.220               
G31  25435208.082 7 133662931.567 7       196.898 7        43.029               
G26  24379706.999 7 128116186.129 7      1085.728 7        42.359               
G28  25788042.072 7 135517064.186 7      -615.591 7        42.203               
> 2024 12 27 02 43 42.0000000  0  5                                             
G29  27818080.713 6 146185076.377 6       259.212 6        40.204               
G32  25067712.773 6 131731748.354 6      -450.697 6        40.878               
G31  25435172.362 7 133662733.791 7       198.653 7        42.801               
G26  24379500.612 7 128115101.427 7      1087.996 7        42.534               
G28  25788165.851 7 135517684.756 7      -620.117 7        42.128               
> 2024 12 27 02 43 43.0000000  0  5                                             
G29  27818035.862 6 146184818.555 6       259.072 6        40.168               
G32  25067797.579 6 131732198.235 6      -444.237 6        40.869               
G31  25435134.801 7 133662536.146 7       192.999 7        42.442               
G26  24379293.349 7 128114017.287 7      1081.376 7        42.329               
G28  25788287.325 7 135518305.345 7      -619.975 7        42.459               
> 2024 12 27 02 43 44.0000000  0  5                                             
G29  27817989.098 6 146184561.223 6       260.839 6        39.436               
G32  25067882.868 6 131732648.609 6      -445.081 6        40.438               
G31  25435093.935 7 133662338.670 7       201.100 7        42.273               
G26  24379084.246 6 128112933.776 6      1084.229 6        41.750               
G28  25788402.258 7 135518926.000 7      -620.586 7        42.207               
> 2024 12 27 02 43 45.0000000  0  5                                             
G29  27817936.510 6 146184304.414 6       261.848 6        39.809               
G32  25067969.015 6 131733099.435 6      -453.645 6        40.735               
G31  25435052.300 6 133662141.347 6       191.855 6        41.488               
G26  24378875.482 6 128111850.829 6      1079.384 6        41.359               
G28  25788519.336 7 135519546.703 7      -621.327 7        42.559               
> 2024 12 27 02 43 46.0000000  0  5                                             
G29  27817892.802 6 146184048.060 6       256.694 6        39.977               
G32  25068053.446 6 131733550.657 6      -444.936 6        40.454               
G31  25435012.345 7 133661944.097 7       201.401 7        42.233               
G26  24378665.986 6 128110768.439 6      1082.840 6        41.447               
G28  25788638.165 7 135520167.419 7      -620.529 7        42.539               
> 2024 12 27 02 43 47.0000000  0  5                                             
G29  27817845.825 6 146183792.195 6       256.279 6        39.962               
G32  25068137.377 6 131734002.378 6      -452.049 6        39.507               
G31  25434973.104 6 133661746.994 6       195.460 6        41.559               
G26  24378460.224 6 128109686.625 6      1084.941 6        41.271               
G28  25788755.832 7 135520788.167 7      -622.763 7        42.651               
> 2024 12 27 02 43 48.0000000  0  5                                             
G29  27817792.182 6 146183536.822 6       249.659 6        40.699               
G32  25068213.606 6 131734454.533 6      -452.284 6        39.410               
G31  25434944.675 6 133661550.032 6       193.146 6        41.475               
G26  24378255.141 6 128108605.382 6      1080.531 6        41.584               
G28  25788873.125 7 135521408.949 7      -618.666 7        42.735               
> 2024 12 27 02 43 49.0000000  0  5                                             
G29  27817753.853 6 146183281.906 6       250.855 6        40.331               
G32  25068302.504 6 131734907.084 6      -452.681 6        38.742               
G31  25434908.079 6 133661353.161 6       198.883 6        41.839               
G26  24378048.754 6 128107524.664 6      1083.734 6        41.155               
G28  25788990.560 7 135522029.744 7      -623.558 7        43.233               
> 2024 12 27 02 43 50.0000000  0  5                                             
G29  27817699.638 6 146183027.507 6       253.364 6        40.770               
G32  25068378.197 6 131735360.155 6      -449.896 6        38.556               
G31  25434874.181 6 133661156.459 6       194.655 6        41.654               
G26  24377843.725 6 128106444.580 6      1073.970 6        40.719               
G28  25789108.138 7 135522650.604 7      -623.177 7        43.210               
> 2024 12 27 02 43 51.0000000  0  5                                             
G29  27817656.735 6 146182773.605 6       251.429 6        41.215               
G32  25068468.936 6 131735813.657 6      -451.193 6        37.980               
G31  25434833.333 6 133660959.897 6       197.894 6        41.612               
G26  24377635.587 6 128105365.066 6      1080.029 6        40.265               
G28  25789225.556 7 135523271.483 7      -615.650 7        43.565               
> 2024 12 27 02 43 52.0000000  0  5                                             
G29  27817610.043 6 146182520.192 6       253.785 6        41.381               
G32  25068554.368 6 131736267.645 6      -451.474 6        38.008               
G31  25434792.073 6 133660763.472 6       196.116 6        41.346               
G26  24377426.698 6 128104286.097 6      1078.234 6        39.780               
G28  25789342.526 7 135523892.424 7      -623.115 7        43.217               
> 2024 12 27 02 43 53.0000000  0  5                                             
G29  27817556.007 6 146182267.238 6       252.167 6        41.617               
G32  25068642.480 6 131736722.012 6      -453.128 6        38.602               
G31  25434757.961 6 133660567.139 6       198.803 6        41.287               
G26  24377224.456 6 128103207.725 6      1084.432 6        39.781               
G28  25789464.268 7 135524513.343 7      -621.614 7        42.450               
> 2024 12 27 02 43 54.0000000  0  5                                             
G29  27817512.639 6 146182014.803 6       248.413 6        41.673               
G32  25068739.295 6 131737176.890 6      -463.702 6        38.650               
G31  25434724.260 6 133660370.985 6       192.157 6        41.311               
G26  24377015.746 6 128102129.948 6      1072.687 6        39.562               
G28  25789580.738 7 135525134.339 7      -618.397 7        42.648               
> 2024 12 27 02 43 56.0000000  0  5                                             
G29  27817410.625 6 146181511.441 6       249.984 6        41.611               
G32  25068902.367 6 131738088.079 6      -456.334 6        39.314               
G31  25434645.512 6 133659979.068 6       191.910 6        41.983               
G26  24376610.655 6 128099976.169 6      1069.499 6        37.954               
G28  25789818.628 7 135526376.499 7      -624.906 7        42.789               
> 2024 12 27 02 43 57.0000000  0  5                                             
G29  27817362.610 6 146181260.510 6       253.175 6        41.539               
G32  25069002.595 6 131738544.350 6      -454.637 6        39.782               
G31  25434604.985 6 133659783.332 6       196.071 6        41.935               
G26  24376401.588 6 128098900.145 6      1068.286 6        38.513               
G28  25789937.189 7 135526997.633 7      -622.900 7        43.174               
> 2024 12 27 02 43 58.0000000  0  5                                             
G29  27817322.459 6 146181010.080 6       249.419 6        40.923               
G32  25069084.721 6 131739001.091 6      -451.976 6        39.792               
G31  25434563.118 6 133659587.730 6       195.007 6        41.728               
G26  24376199.042 6 128097824.670 6      1074.328 6        38.961               
G28  25790051.640 7 135527618.813 7      -622.420 7        42.393               
> 2024 12 27 02 43 59.0000000  0  5                                             
G29  27817264.670 6 146180760.128 6       242.793 6        41.031               
G32  25069175.442 6 131739458.271 6      -457.119 6        40.732               
G31  25434529.613 6 133659392.250 6       200.266 6        41.990               
G26  24375988.134 6 128096749.808 6      1071.136 6        38.658               
G28  25790171.256 7 135528240.027 7      -622.815 7        42.666               
> 2024 12 27 02 44 00.0000000  0  5                                             
G29  27817215.959 6 146180510.665 6       244.212 6        40.789               
G32  25069263.500 6 131739915.910 6      -453.075 6        40.982               
G31  25434494.483 7 133659196.903 7       193.278 7        42.436               
G26  24375789.395 6 128095675.513 6      1073.742 6        38.798               
G28  25790289.763 7 135528861.267 7      -620.035 7        42.786               
> 2024 12 27 02 44 01.0000000  0  5                                             
G29  27817173.413 6 146180261.677 6       248.817 6        41.192               
G32  25069355.597 6 131740373.994 6      -456.324 6        40.483               
G31  25434455.332 7 133659001.688 7       195.555 7        42.352               
G26  24375585.331 6 128094601.788 6      1068.834 6        38.511               
G28  25790401.980 7 135529482.532 7      -623.564 7        42.605               
> 2024 12 27 02 44 02.0000000  0  5                                             
G29  27817118.841 6 146180013.196 6       243.043 6        40.919               
G32  25069445.729 6 131740832.552 6      -453.262 6        40.843               
G31  25434427.241 7 133658806.571 7       193.093 7        42.585               
G26  24375387.217 6 128093528.652 6      1069.829 6        37.949               
G28  25790521.453 7 135530103.849 7      -618.879 7        42.074               
> 2024 12 27 02 44 03.0000000  0  5                                             
G29  27817072.614 6 146179765.200 6       245.254 6        40.891               
G32  25069530.196 6 131741291.536 6      -461.028 6        41.653               
G31  25434391.950 7 133658611.623 7       198.049 7        42.941               
G26  24375180.847 6 128092456.090 6      1070.454 6        38.696               
G28  25790646.786 6 135530725.189 6      -615.800 6        41.871               
> 2024 12 27 02 44 04.0000000  0  5                                             
G29  27817029.532 6 146179517.714 6       244.878 6        40.886               
G32  25069619.684 6 131741750.981 6      -460.297 6        41.841               
G31  25434355.479 7 133658416.807 7       199.126 7        43.424               
G26  24374973.263 6 128091384.079 6      1073.810 6        39.497               
G28  25790761.934 6 135531346.595 6      -623.808 6        41.761               
> 2024 12 27 02 44 05.0000000  0  5                                             
G29  27816978.980 6 146179270.721 6       249.653 6        41.081               
G32  25069706.688 7 131742210.898 7      -460.514 7        42.055               
G31  25434318.544 7 133658222.126 7       194.771 7        43.817               
G26  24374776.686 6 128090312.646 6      1075.674 6        39.792               
G28  25790878.369 6 135531968.010 6      -615.460 6        41.544               
> 2024 12 27 02 44 06.0000000  0  5                                             
G29  27816936.631 6 146179024.216 6       251.059 6        41.876               
G32  25069790.476 6 131742671.279 6      -460.364 6        41.478               
G31  25434279.679 7 133658027.582 7       195.680 7        43.613               
G26  24374568.601 6 128089241.814 6      1078.983 6        39.607               
G28  25790992.552 6 135532589.496 6      -622.418 6        41.925               
> 2024 12 27 02 44 07.0000000  0  5                                             
G29  27816889.725 6 146178778.231 6       244.648 6        41.218               
G32  25069879.839 6 131743132.113 6      -459.475 6        41.557               
G31  25434245.245 7 133657833.185 7       196.827 7        44.007               
G26  24374369.701 6 128088171.592 6      1073.119 6        38.990               
G28  25791111.470 7 135533211.013 7      -622.251 7        42.333               
> 2024 12 27 02 44 08.0000000  0  5                                             
G29  27816841.907 6 146178532.757 6       246.868 6        41.414               
G32  25069964.734 6 131743593.463 6      -460.786 6        41.666               
G31  25434206.291 7 133657638.954 7       195.416 7        44.126               
G26  24374167.263 6 128087101.932 6      1074.625 6        38.465               
G28  25791227.243 6 135533832.607 6      -616.386 6        41.678               
> 2024 12 27 02 44 09.0000000  0  5                                             
G29  27816801.523 6 146178287.810 6       246.509 6        41.720               
G32  25070052.221 6 131744055.255 6      -466.169 6        41.994               
G31  25434167.640 7 133657444.869 7       195.911 7        43.651               
G26  24373962.377 6 128086032.928 6      1063.865 6        39.111               
G28  25791342.570 6 135534454.259 6      -624.335 6        41.653               
> 2024 12 27 02 44 10.0000000  0  5                                             
G29  27816749.256 6 146178043.320 6       246.808 6        41.500               
G32  25070140.744 7 131744517.516 7      -463.252 7        42.568               
G31  25434129.168 7 133657250.907 7       197.480 7        43.792               
G26  24373762.172 6 128084964.467 6      1069.391 6        39.704               
G28  25791468.457 6 135535075.940 6      -621.086 6        41.328               
> 2024 12 27 02 44 11.0000000  0  5                                             
G29  27816709.962 7 146177799.333 7       249.910 7        42.286               
G32  25070231.984 7 131744980.186 7      -460.929 7        43.314               
G31  25434092.608 7 133657057.080 7       193.869 7        43.890               
G26  24373555.856 6 128083896.594 6      1070.638 6        39.579               
G28  25791583.177 6 135535697.648 6      -628.126 6        41.715               
> 2024 12 27 02 44 12.0000000  0  5                                             
G29  27816662.752 7 146177555.814 7       246.207 7        42.956               
G32  25070318.577 7 131745443.364 7      -462.215 7        42.913               
G31  25434057.603 7 133656863.363 7       190.180 7        44.049               
G26  24373358.547 6 128082829.279 6      1062.965 6        39.932               
G28  25791700.254 6 135536319.378 6      -622.796 6        41.780               
> 2024 12 27 02 44 13.0000000  0  5                                             
G29  27816615.971 7 146177312.817 7       242.660 7        42.681               
G32  25070403.276 7 131745906.979 7      -465.163 7        43.401               
G31  25434023.598 7 133656669.812 7       192.039 7        43.869               
G26  24373155.787 6 128081762.526 6      1069.996 6        40.624               
G28  25791818.637 6 135536941.185 6      -618.378 6        41.530               
> 2024 12 27 02 44 14.0000000  0  5                                             
G29  27816576.749 7 146177070.307 7       243.369 7        42.390               
G32  25070494.319 7 131746371.049 7      -461.694 7        42.994               
G31  25433986.967 7 133656476.388 7       190.891 7        43.798               
G26  24372950.239 6 128080696.387 6      1067.912 6        40.429               
G28  25791937.001 6 135537563.029 6      -623.113 6        41.553               
> 2024 12 27 02 44 15.0000000  0  5                                             
G29  27816527.252 7 146176828.297 7       242.999 7        42.579               
G32  25070582.395 7 131746835.586 7      -469.035 7        42.771               
G31  25433944.974 7 133656283.091 7       192.407 7        43.720               
G26  24372748.087 6 128079630.819 6      1063.643 6        40.056               
G28  25792057.242 6 135538184.899 6      -618.863 6        41.471               
> 2024 12 27 02 44 16.0000000  0  5                                             
G29  27816487.368 7 146176586.782 7       241.402 7        43.012               
G32  25070671.972 7 131747300.582 7      -470.091 7        43.161               
G31  25433911.023 7 133656089.947 7       189.785 7        43.855               
G26  24372550.045 6 128078565.816 6      1066.698 6        39.896               
G28  25792174.177 6 135538806.803 6      -618.493 6        41.193               
> 2024 12 27 02 44 17.0000000  0  5                                             
G29  27816432.296 7 146176345.748 7       242.145 7        42.936               
G32  25070759.370 7 131747766.013 7      -460.330 7        43.054               
G31  25433872.694 7 133655896.916 7       194.144 7        43.959               
G26  24372346.677 6 128077501.403 6      1055.126 6        39.544               
G28  25792290.111 6 135539428.745 6      -625.410 6        41.104               
> 2024 12 27 02 44 18.0000000  0  5                                             
G29  27816385.729 7 146176105.213 7       238.487 7        42.848               
G32  25070843.962 7 131748231.912 7      -466.132 7        42.079               
G31  25433837.868 7 133655704.003 7       192.649 7        43.891               
G26  24372144.936 6 128076437.569 6      1053.534 6        39.699               
G28  25792408.976 6 135540050.685 6      -621.732 6        40.935               
> 2024 12 27 02 44 19.0000000  0  5                                             
G29  27816344.380 7 146175865.152 7       237.613 7        42.930               
G32  25070936.416 7 131748698.262 7      -465.722 7        42.430               
G31  25433798.591 7 133655511.222 7       193.701 7        43.772               
G26  24371936.530 6 128075374.262 6      1059.637 6        39.609               
G28  25792532.522 6 135540672.699 6      -625.192 6        40.941               
> 2024 12 27 02 44 20.0000000  0  5                                             
G29  27816291.345 7 146175625.574 7       237.531 7        43.195               
G32  25071020.329 7 131749165.064 7      -467.874 7        42.099               
G31  25433761.871 7 133655318.578 7       194.301 7        43.936               
G26  24371732.305 6 128074311.561 6      1065.648 6        38.906               
G28  25792654.818 6 135541294.750 6      -620.215 6        41.091               
> 2024 12 27 02 44 21.0000000  0  5                                             
G29  27816252.515 7 146175386.501 7       240.896 7        43.178               
G32  25071110.997 7 131749632.339 7      -467.228 7        42.104               
G31  25433725.739 7 133655126.071 7       192.805 7        44.101               
G26  24371530.063 6 128073249.418 6      1054.984 6        38.622               
G28  25792770.126 6 135541916.830 6      -621.280 6        41.412               
> 2024 12 27 02 44 22.0000000  0  5                                             
G29  27816199.998 7 146175147.962 7       235.362 7        42.802               
G32  25071197.268 6 131750100.080 6      -467.791 6        41.832               
G31  25433690.537 7 133654933.705 7       191.374 7        43.377               
G26  24371328.107 6 128072187.922 6      1067.036 6        38.497               
G28  25792890.724 6 135542538.974 6      -620.882 6        40.961               
> 2024 12 27 02 44 23.0000000  0  5                                             
G29  27816152.645 7 146174909.927 7       233.935 7        42.203               
G32  25071288.221 6 131750568.279 6      -463.417 6        41.671               
G31  25433653.030 7 133654741.500 7       195.223 7        43.180               
G26  24371122.739 6 128071126.972 6      1062.363 6        38.524               
G28  25793009.929 6 135543161.154 6      -628.808 6        40.503               
> 2024 12 27 02 44 24.0000000  0  5                                             
G29  27816103.970 6 146174672.366 6       236.201 6        41.827               
G32  25071377.316 6 131751036.954 6      -469.858 6        41.749               
G31  25433616.167 7 133654549.405 7       188.938 7        43.347               
G26  24370922.963 6 128070066.606 6      1060.393 6        38.629               
G28  25793127.400 6 135543783.371 6      -619.228 6        41.141               
> 2024 12 27 02 44 25.0000000  0  5                                             
G29  27816055.885 6 146174435.307 6       243.942 6        41.708               
G32  25071468.681 6 131751506.075 6      -469.149 6        41.896               
G31  25433575.193 7 133654357.439 7       191.354 7        43.100               
G26  24370712.734 6 128069006.799 6      1052.835 6        39.361               
G28  25793246.211 6 135544405.624 6      -625.450 6        41.611               
> 2024 12 27 02 44 26.0000000  0  5                                             
G29  27816012.820 6 146174198.778 6       237.241 6        41.282               
G32  25071559.134 6 131751975.691 6      -468.842 6        41.966               
G31  25433544.190 7 133654165.647 7       187.498 7        42.834               
G26  24370521.250 6 128067947.652 6      1050.663 6        39.222               
G28  25793365.040 7 135545027.932 7      -622.172 7        42.035               
> 2024 12 27 02 44 27.0000000  0  5                                             
G29  27815971.829 6 146173962.727 6       237.168 6        41.156               
G32  25071651.445 7 131752445.724 7      -467.195 7        42.421               
G31  25433508.935 7 133653973.993 7       188.414 7        43.015               
G26  24370322.492 6 128066888.990 6      1057.610 6        38.827               
G28  25793484.208 6 135545650.271 6      -622.168 6        41.726               
> 2024 12 27 02 44 28.0000000  0  5                                             
G29  27815919.508 6 146173727.402 6       234.280 6        40.963               
G32  25071741.005 7 131752916.459 7      -470.111 7        42.903               
G31  25433467.443 7 133653782.681 7       191.044 7        42.611               
G26  24370120.108 6 128065831.185 6      1062.881 6        39.473               
G28  25793603.037 6 135546272.899 6      -623.807 6        41.967               
> 2024 12 27 02 44 29.0000000  0  5                                             
G29  27815882.895 6 146173492.771 6       238.696 6        41.318               
G32  25071826.669 7 131753387.866 7      -471.871 7        43.350               
G31  25433429.274 7 133653591.719 7       188.447 7        42.543               
G26  24369916.562 6 128064774.170 6      1051.488 6        39.385               
G28  25793720.204 7 135546895.765 7      -620.975 7        42.005               
> 2024 12 27 02 44 30.0000000  0  5                                             
G29  27815838.204 6 146173258.646 6       236.576 6        41.878               
G32  25071921.911 7 131753859.733 7      -473.426 7        43.499               
G31  25433400.470 6 133653400.901 6       185.763 6        41.918               
G26  24369719.860 6 128063717.756 6      1058.196 6        38.864               
G28  25793842.214 6 135547518.668 6      -622.781 6        41.431               
> 2024 12 27 02 44 31.0000000  0  5                                             
G29  27815800.572 7 146173025.006 7       234.320 7        42.379               
G32  25072014.704 7 131754332.060 7      -475.599 7        43.784               
G31  25433358.352 7 133653210.213 7       195.971 7        42.498               
G26  24369510.971 6 128062661.908 6      1060.691 6        38.900               
G28  25793960.471 6 135548141.624 6      -623.144 6        41.806               
> 2024 12 27 02 44 32.0000000  0  5                                             
G29  27815758.598 7 146172791.890 7       234.340 7        43.007               
G32  25072105.551 7 131754804.855 7      -474.489 7        43.730               
G31  25433325.527 7 133653019.672 7       182.601 7        42.624               
G26  24369311.963 6 128061606.653 6      1052.545 6        38.774               
G28  25794074.047 7 135548764.630 7      -624.937 7        42.024               
> 2024 12 27 02 44 33.0000000  0  5                                             
G29  27815718.875 7 146172559.240 7       234.590 7        43.257               
G32  25072189.714 7 131755278.118 7      -472.330 7        43.800               
G31  25433284.786 7 133652829.264 7       183.403 7        42.992               
G26  24369108.471 6 128060551.958 6      1057.360 6        38.524               
G28  25794196.968 7 135549387.652 7      -623.299 7        42.465               
> 2024 12 27 02 44 34.0000000  0  5                                             
G29  27815672.916 7 146172327.088 7       231.555 7        43.650               
G32  25072282.257 7 131755751.806 7      -476.349 7        43.687               
G31  25433250.566 7 133652638.972 7       186.265 7        43.304               
G26  24368912.591 6 128059497.832 6      1048.691 6        38.391               
G28  25794311.812 7 135550010.714 7      -621.644 7        43.054               
> 2024 12 27 02 44 35.0000000  0  5                                             
G29  27815628.279 7 146172095.422 7       232.904 7        43.820               
G32  25072374.140 7 131756225.964 7      -470.367 7        44.196               
G31  25433212.416 7 133652448.812 7       189.773 7        43.230               
G26  24368698.681 6 128058444.277 6      1056.571 6        38.202               
G28  25794433.804 7 135550633.808 7      -618.771 7        42.669               
> 2024 12 27 02 44 36.0000000  0  5                                             
G29  27815589.503 7 146171864.271 7       230.616 7        43.580               
G32  25072465.468 7 131756700.582 7      -472.685 7        44.357               
G31  25433177.500 7 133652258.802 7       185.996 7        42.986               
G26  24368499.816 6 128057391.332 6      1060.044 6        38.439               
G28  25794553.187 7 135551256.958 7      -620.576 7        42.103               
> 2024 12 27 02 44 37.0000000  0  5                                             
G29  27815538.987 7 146171633.598 7       228.140 7        43.648               
G32  25072553.598 7 131757175.653 7      -471.594 7        44.158               
G31  25433144.031 7 133652068.902 7       187.232 7        43.293               
G26  24368298.879 6 128056338.950 6      1042.256 6        38.055               
G28  25794672.391 7 135551880.119 7      -621.292 7        42.476               
> 2024 12 27 02 44 38.0000000  0  5                                             
G29  27815494.779 7 146171403.425 7       228.211 7        43.984               
G32  25072648.233 7 131757651.193 7      -475.664 7        44.240               
G31  25433109.419 7 133651879.164 7       188.683 7        43.341               
G26  24368101.534 6 128055287.144 6      1061.569 6        37.893               
G28  25794791.935 7 135552503.342 7      -618.037 7        43.146               
> 2024 12 27 02 44 39.0000000  0  5                                             
G29  27815451.429 7 146171173.773 7       229.372 7        43.420               
G32  25072735.773 7 131758127.186 7      -474.006 7        43.750               
G31  25433074.932 7 133651689.557 7       187.215 7        43.369               
G26  24367897.898 6 128054235.904 6      1048.799 6        37.398               
G28  25794916.107 7 135553126.598 7      -624.281 7        42.753               
> 2024 12 27 02 44 40.0000000  0  5                                             
G29  27815403.361 7 146170944.588 7       233.385 7        43.093               
G32  25072824.600 7 131758603.616 7      -475.944 7        43.748               
G31  25433038.532 7 133651500.074 7       188.291 7        43.571               
G26  24367695.335 6 128053185.275 6      1041.724 6        37.753               
G28  25795029.772 7 135553749.879 7      -621.771 7        42.755               
> 2024 12 27 02 44 41.0000000  0  5                                             
G29  27815360.887 7 146170715.912 7       224.735 7        42.491               
G32  25072915.500 7 131759080.525 7      -482.381 7        43.356               
G31  25433005.296 7 133651310.710 7       191.245 7        43.224               
G26  24367498.204 6 128052135.205 6      1052.265 6        37.964               
G28  25795150.530 7 135554373.196 7      -623.769 7        43.282               
> 2024 12 27 02 44 42.0000000  0  5                                             
G29  27815312.033 6 146170487.718 6       227.006 6        41.654               
G32  25073006.757 7 131759557.869 7      -478.810 7        43.632               
G31  25432968.736 7 133651121.492 7       192.817 7        43.519               
G26  24367297.642 6 128051085.677 6      1057.220 6        37.016               
G28  25795264.177 7 135554996.552 7      -627.015 7        42.807               
> 2024 12 27 02 44 43.0000000  0  5                                             
G29  27815266.252 6 146170259.999 6       230.763 6        41.562               
G32  25073092.707 7 131760035.666 7      -480.229 7        43.517               
G31  25432929.103 7 133650932.382 7       191.526 7        43.643               
G26  24367101.708 6 128050036.784 6      1049.306 6        37.307               
G28  25795385.794 7 135555619.912 7      -622.592 7        42.967               
> 2024 12 27 02 44 44.0000000  0  5                                             
G29  27815222.044 6 146170032.789 6       225.394 6        41.560               
G32  25073184.500 7 131760513.921 7      -476.403 7        42.735               
G31  25432894.901 7 133650743.413 7       191.323 7        43.522               
G26  24366903.791 6 128048988.387 6      1053.345 6        37.712               
G28  25795504.623 7 135556243.335 7      -624.654 7        42.850               
> 2024 12 27 02 44 45.0000000  0  5                                             
G29  27815175.460 6 146169806.055 6       223.485 6        41.124               
G32  25073277.079 7 131760992.617 7      -480.196 7        42.405               
G31  25432854.642 7 133650554.540 7       188.535 7        43.448               
G26  24366697.690 6 128047940.609 6      1040.239 6        37.732               
G28  25795626.436 7 135556866.747 7      -622.437 7        43.328               
> 2024 12 27 02 44 46.0000000  0  5                                             
G29  27815134.468 6 146169579.844 6       229.700 6        40.544               
G32  25073370.070 6 131761471.779 6      -477.087 6        41.838               
G31  25432817.814 7 133650365.833 7       186.260 7        43.685               
G26  24366502.113 6 128046893.382 6      1049.492 6        37.825               
G28  25795743.371 7 135557490.232 7      -629.270 7        43.048               
> 2024 12 27 02 44 47.0000000  0  5                                             
G29  27815090.064 6 146169354.063 6       229.896 6        40.415               
G32  25073462.792 7 131761951.371 7      -481.681 7        42.601               
G31  25432786.633 7 133650177.217 7       192.736 7        43.446               
G26  24366322.744 6 128045846.734 6      1040.941 6        37.717               
G28  25795860.878 7 135558113.718 7      -620.981 7        43.351               
> 2024 12 27 02 44 48.0000000  0  5                                             
G29  27815046.374 6 146169128.803 6       225.160 6        40.452               
G32  25073547.527 7 131762431.395 7      -480.592 7        43.162               
G31  25432747.929 7 133649988.728 7       189.725 7        43.435               
G26  24366111.514 6 128044800.650 6      1048.755 6        38.282               
G28  25795979.403 7 135558737.230 7      -620.692 7        42.874               
> 2024 12 27 02 44 49.0000000  0  5                                             
G29  27815005.543 6 146168904.064 6       223.561 6        40.923               
G32  25073643.359 7 131762911.939 7      -484.220 7        42.741               
G31  25432717.444 7 133649800.424 7       184.723 7        43.333               
G26  24365910.845 6 128043755.166 6      1043.012 6        38.344               
G28  25796101.252 7 135559360.819 7      -624.211 7        43.061               
> 2024 12 27 02 44 50.0000000  0  5                                             
G29  27814970.913 6 146168679.818 6       225.733 6        40.843               
G32  25073739.333 7 131763392.928 7      -481.614 7        42.697               
G31  25432681.152 7 133649612.229 7       186.542 7        43.516               
G26  24365718.056 6 128042710.253 6      1040.051 6        38.194               
G28  25796218.705 7 135559984.452 7      -624.596 7        43.095               
> 2024 12 27 02 44 51.0000000  0  5                                             
G29  27814924.740 6 146168456.082 6       223.356 6        40.898               
G32  25073831.269 7 131763874.370 7      -474.235 7        42.865               
G31  25432643.752 7 133649424.178 7       189.388 7        43.599               
G26  24365509.114 6 128041665.941 6      1042.890 6        38.714               
G28  25796337.141 7 135560608.114 7      -626.873 7        42.783               
> 2024 12 27 02 44 52.0000000  0  5                                             
G29  27814885.732 6 146168232.831 6       224.012 6        41.797               
G32  25073924.385 7 131764356.280 7      -482.239 7        42.353               
G31  25432608.103 7 133649236.247 7       185.983 7        44.114               
G26  24365311.643 6 128040622.162 6      1047.310 6        38.729               
G28  25796453.593 7 135561231.813 7      -625.864 7        42.695               
> 2024 12 27 02 44 53.0000000  0  5                                             
G29  27814847.599 6 146168010.073 6       221.852 6        41.944               
G32  25074010.907 7 131764838.667 7      -481.023 7        42.782               
G31  25432573.759 7 133649048.475 7       185.819 7        44.106               
G26  24365115.674 6 128039579.035 6      1034.434 6        38.629               
G28  25796574.120 7 135561855.564 7      -623.610 7        43.062               
> 2024 12 27 02 44 54.0000000  0  5                                             
G29  27814799.138 6 146167787.828 6       225.652 6        41.831               
G32  25074104.129 7 131765321.518 7      -486.821 7        43.294               
G31  25432537.521 7 133648860.840 7       189.287 7        43.328               
G26  24364917.327 6 128038536.458 6      1048.557 6        37.571               
G28  25796689.089 7 135562479.359 7      -626.628 7        42.616               
> 2024 12 27 02 44 55.0000000  0  5                                             
G29  27814762.650 6 146167566.032 6       222.867 6        41.824               
G32  25074197.227 7 131765804.776 7      -481.046 7        42.260               
G31  25432502.926 7 133648673.295 7       192.803 7        43.809               
G26  24364709.243 6 128037494.430 6      1040.771 6        37.476               
G28  25796807.114 7 135563103.156 7      -623.017 7        42.923               
> 2024 12 27 02 44 56.0000000  0  5                                             
G29  27814719.818 7 146167344.770 7       221.125 7        42.477               
G32  25074286.393 7 131766288.525 7      -481.291 7        42.882               
G31  25432469.279 7 133648485.888 7       185.829 7        43.406               
G26  24364518.258 6 128036452.995 6      1040.108 6        37.391               
G28  25796925.407 7 135563726.996 7      -629.228 7        42.586               
> 2024 12 27 02 44 57.0000000  0  5                                             
G29  27814676.878 7 146167123.995 7       219.393 7        42.099               
G32  25074380.402 7 131766772.718 7      -484.100 7        42.431               
