$GPRMC,024224.19,A,2218.2765758,N,11410.7847237,E,8.69,185.38,271224,0.0,E,A*35
$GPGGA,024224.19,2218.2765758,N,11410.7847237,E,1,04,1.0,36.434,M,0.000,M,0.0,*41
$GPGSA,A,3,26,28,29,31,,,,,,,,,7.5,3.1,6.8,1*26
$GPGSV,1,1,04,26,68,238,41,28,47,010,42,29,22,080,39,31,47,325,42,1*62
$GPRMC,024224.29,A,2218.2735111,N,11410.7888055,E,2.33,134.79,271224,0.0,E,A*37
$GPGGA,024224.29,2218.2735111,N,11410.7888055,E,1,04,1.0,48.352,M,0.000,M,0.0,*47
$GPGSA,A,3,26,28,29,31,,,,,,,,,7.5,3.1,6.8,1*26
$GPGSV,1,1,04,26,68,238,41,28,47,010,42,29,22,080,39,31,47,325,42,1*62
$GPRMC,024224.39,A,2218.2759543,N,11410.7940477,E,3.37,333.31,271224,0.0,E,A*32
$GPGGA,024224.39,2218.2759543,N,11410.7940477,E,1,04,1.0,82.810,M,0.000,M,0.0,*45
$GPGSA,A,3,26,28,29,31,,,,,,,,,7.5,3.1,6.8,1*26
$GPGSV,1,1,04,26,68,238,41,28,47,010,42,29,22,080,39,31,47,325,42,1*62
$GPRMC,024224.49,A,2218.2745671,N,11410.7904043,E,5.23,91.92,271224,0.0,E,A*08
$GPGGA,024224.49,2218.2745671,N,11410.7904043,E,1,04,1.0,66.665,M,0.000,M,0.0,*48
$GPGSA,A,3,26,28,29,31,,,,,,,,,7.5,3.1,6.8,1*26
$GPGSV,1,1,04,26,68,238,41,28,47,010,42,29,22,080,39,31,47,325,42,1*62
$GPRMC,024224.59,A,2218.2758692,N,11410.7882144,E,14.96,52.35,271224,0.0,E,A*3D
$GPGGA,024224.59,2218.2758692,N,11410.7882144,E,1,04,1.0,43.662,M,0.000,M,0.0,*41
$GPGSA,A,3,26,28,29,31,,,,,,,,,7.5,3.1,6.8,1*26
$GPGSV,1,1,04,26,68,238,41,28,47,010,42,29,22,080,39,31,47,325,42,1*62
$GPRMC,024224.69,A,2218.2806078,N,11410.7926815,E,1.59,52.35,271224,0.0,E,A*0D
$GPGGA,024224.69,2218.2806078,N,11410.7926815,E,1,04,1.0,53.525,M,0.000,M,0.0,*47
$GPGSA,A,3,26,28,29,31,,,,,,,,,7.5,3.1,6.8,1*26
$GPGSV,1,1,04,26,68,238,41,28,47,010,42,29,22,080,39,31,47,325,42,1*62
$GPRMC,024224.79,A,2218.2774304,N,11410.7874863,E,3.53,342.33,271224,0.0,E,A*35
$GPGGA,024224.79,2218.2774304,N,11410.7874863,E,1,04,1.0,39.355,M,0.000,M,0.0,*4E
$GPGSA,A,3,26,28,29,31,,,,,,,,,7.5,3.1,6.8,1*26
$GPGSV,1,1,04,26,68,238,41,28,47,010,42,29,22,080,39,31,47,325,42,1*62
$GPRMC,024224.89,A,2218.2754754,N,11410.7812791,E,11.86,13.64,271224,0.0,E,A*35
$GPGGA,024224.89,2218.2754754,N,11410.7812791,E,1,04,1.0,15.612,M,0.000,M,0.0,*48
$GPGSA,A,3,26,28,29,31,,,,,,,,,7.5,3.1,6.8,1*26
$GPGSV,1,1,04,26,68,239,40,28,47,010,42,29,22,080,39,31,47,325,42,1*62
$GPRMC,024224.99,A,2218.2788635,N,11410.7889752,E,14.81,87.40,271224,0.0,E,A*37
$GPGGA,024224.99,2218.2788635,N,11410.7889752,E,1,04,1.0,57.184,M,0.000,M,0.0,*4D
$GPGSA,A,3,26,28,29,31,,,,,,,,,7.5,3.1,6.8,1*26
$GPGSV,1,1,04,26,68,239,40,28,47,010,42,29,22,080,39,31,47,325,42,1*62
$GPRMC,024225.09,A,2218.2753250,N,11410.7878444,E,2.76,41.69,271224,0.0,E,A*0A
$GPGGA,024225.09,2218.2753250,N,11410.7878444,E,1,04,1.0,59.824,M,0.000,M,0.0,*43
$GPGSA,A,3,26,28,29,31,,,,,,,,,7.5,3.1,6.8,1*26
$GPGSV,1,1,04,26,68,239,40,28,47,010,42,29,22,080,39,31,47,325,42,1*62
$GPRMC,024225.19,A,2218.2757012,N,11410.7894850,E,7.62,135.08,271224,0.0,E,A*35
$GPGGA,024225.19,2218.2757012,N,11410.7894850,E,1,04,1.0,59.941,M,0.000,M,0.0,*4B
$GPGSA,A,3,26,28,29,31,,,,,,,,,7.5,3.1,6.8,1*26
$GPGSV,1,1,04,26,68,239,40,28,47,010,42,29,22,080,39,31,47,325,42,1*62
$GPRMC,024225.29,A,2218.2779528,N,11410.7896927,E,4.63,304.93,271224,0.0,E,A*35
$GPGGA,024225.29,2218.2779528,N,11410.7896927,E,1,04,1.0,49.658,M,0.000,M,0.0,*4D
$GPGSA,A,3,26,28,29,31,,,,,,,,,7.5,3.1,6.8,1*26
$GPGSV,1,1,04,26,68,239,40,28,47,010,42,29,22,080,39,31,47,325,42,1*62
$GPRMC,024225.39,A,2218.2769660,N,11410.7887555,E,6.28,22.87,271224,0.0,E,A*0C
$GPGGA,024225.39,2218.2769660,N,11410.7887555,E,1,04,1.0,58.571,M,0.000,M,0.0,*43
$GPGSA,A,3,26,28,29,31,,,,,,,,,7.5,3.1,6.8,1*26
$GPGSV,1,1,04,26,68,239,41,28,47,010,42,29,22,080,39,31,47,325,42,1*63
$GPRMC,024225.49,A,2218.2770926,N,11410.7842519,E,2.26,219.39,271224,0.0,E,A*3A
$GPGGA,024225.49,2218.2770926,N,11410.7842519,E,1,04,1.0,35.046,M,0.000,M,0.0,*4A
$GPGSA,A,3,26,28,29,31,,,,,,,,,7.5,3.1,6.8,1*26
$GPGSV,1,1,04,26,68,239,41,28,47,010,42,29,22,080,39,31,47,325,42,1*63
$GPRMC,024225.59,A,2218.2741513,N,11410.7813977,E,2.06,15.15,271224,0.0,E,A*01
$GPGGA,024225.59,2218.2741513,N,11410.7813977,E,1,04,1.0,22.326,M,0.000,M,0.0,*40
$GPGSA,A,3,26,28,29,31,,,,,,,,,7.5,3.1,6.8,1*26
$GPGSV,1,1,04,26,68,239,41,28,47,010,42,29,22,080,40,31,47,325,42,1*6D
$GPRMC,024225.69,A,2218.2769348,N,11410.7852677,E,12.88,58.81,271224,0.0,E,A*39
$GPGGA,024225.69,2218.2769348,N,11410.7852677,E,1,04,1.0,41.230,M,0.000,M,0.0,*48
$GPGSA,A,3,26,28,29,31,,,,,,,,,7.5,3.1,6.8,1*26
$GPGSV,1,1,04,26,68,239,41,28,47,010,42,29,22,080,39,31,47,325,42,1*63
$GPRMC,024225.79,A,2218.2771786,N,11410.7859183,E,5.01,276.65,271224,0.0,E,A*33
$GPGGA,024225.79,2218.2771786,N,11410.7859183,E,1,04,1.0,43.671,M,0.000,M,0.0,*42
$GPGSA,A,3,26,28,29,31,,,,,,,,,7.5,3.1,6.8,1*26
$GPGSV,1,1,04,26,68,239,41,28,47,010,42,29,22,080,39,31,47,325,42,1*63
$GPRMC,024225.89,A,2218.2754860,N,11410.7823166,E,4.23,92.63,271224,0.0,E,A*05
$GPGGA,024225.89,2218.2754860,N,11410.7823166,E,1,04,1.0,20.323,M,0.000,M,0.0,*4C
$GPGSA,A,3,26,28,29,31,,,,,,,,,7.5,3.1,6.8,1*26
$GPGSV,1,1,04,26,68,239,40,28,47,010,42,29,22,080,39,31,47,325,42,1*62
$GPRMC,024225.99,A,2218.2769086,N,11410.7811274,E,1.35,92.63,271224,0.0,E,A*09
$GPGGA,024225.99,2218.2769086,N,11410.7811274,E,1,04,1.0,17.563,M,0.000,M,0.0,*44
$GPGSA,A,3,26,28,29,31,,,,,,,,,7.5,3.1,6.8,1*26
$GPGSV,1,1,04,26,68,239,41,28,47,010,42,29,22,080,39,31,47,325,42,1*63
$GPRMC,024226.09,A,2218.2788755,N,11410.7856233,E,12.31,260.23,271224,0.0,E,A*08
$GPGGA,024226.09,2218.2788755,N,11410.7856233,E,1,04,1.0,46.180,M,0.000,M,0.0,*45
$GPGSA,A,3,26,28,29,31,,,,,,,,,7.5,3.1,6.8,1*26
$GPGSV,1,1,04,26,68,239,40,28,47,010,42,29,22,080,39,31,47,325,42,1*62
$GPRMC,024226.19,A,2218.2781656,N,11410.7825567,E,1.28,260.23,271224,0.0,E,A*3A
$GPGGA,024226.19,2218.2781656,N,11410.7825567,E,1,04,1.0,41.804,M,0.000,M,0.0,*4F
$GPGSA,A,3,26,28,29,31,,,,,,,,,7.5,3.1,6.8,1*26
$GPGSV,1,1,04,26,68,239,41,28,47,010,42,29,22,080,39,31,47,325,42,1*63
$GPRMC,024226.29,A,2218.2794203,N,11410.7848522,E,6.30,297.37,271224,0.0,E,A*30
$GPGGA,024226.29,2218.2794203,N,11410.7848522,E,1,04,1.0,44.798,M,0.000,M,0.0,*49
$GPGSA,A,3,26,28,29,31,,,,,,,,,7.5,3.1,6.8,1*26
$GPGSV,1,1,04,26,68,239,40,28,47,010,42,29,22,080,39,31,47,325,42,1*62
$GPRMC,024226.39,A,2218.2809711,N,11410.7871492,E,5.16,16.85,271224,0.0,E,A*09
$GPGGA,024226.39,2218.2809711,N,11410.7871492,E,1,04,1.0,53.154,M,0.000,M,0.0,*45
$GPGSA,A,3,26,28,29,31,,,,,,,,,7.5,3.1,6.8,1*26
$GPGSV,1,1,04,26,68,239,40,28,47,010,42,29,22,080,40,31,47,325,42,1*6C
$GPRMC,024226.49,A,2218.2807769,N,11410.7871933,E,22.22,60.59,271224,0.0,E,A*3B
$GPGGA,024226.49,2218.2807769,N,11410.7871933,E,1,04,1.0,47.818,M,0.000,M,0.0,*41
$GPGSA,A,3,26,28,29,31,,,,,,,,,7.5,3.1,6.8,1*26
$GPGSV,1,1,04,26,68,239,40,28,47,010,42,29,22,080,40,31,47,325,42,1*6C
$GPRMC,024226.59,A,2218.2769355,N,11410.7851186,E,12.64,291.49,271224,0.0,E,A*0E
$GPGGA,024226.59,2218.2769355,N,11410.7851186,E,1,04,1.0,39.168,M,0.000,M,0.0,*4F
$GPGSA,A,3,26,28,29,31,,,,,,,,,7.5,3.1,6.8,1*26
$GPGSV,1,1,04,26,68,239,40,28,47,010,42,29,22,080,40,31,47,325,42,1*6C
$GPRMC,024226.69,A,2218.2809092,N,11410.7853170,E,16.63,227.16,271224,0.0,E,A*03
$GPGGA,024226.69,2218.2809092,N,11410.7853170,E,1,04,1.0,36.430,M,0.000,M,0.0,*41
$GPGSA,A,3,26,28,29,31,,,,,,,,,7.5,3.1,6.8,1*26
$GPGSV,1,1,04,26,68,239,40,28,47,010,42,29,22,080,40,31,47,325,42,1*6C
$GPRMC,024226.79,A,2218.2784039,N,11410.7872188,E,16.99,243.00,271224,0.0,E,A*0D
$GPGGA,024226.79,2218.2784039,N,11410.7872188,E,1,04,1.0,45.148,M,0.000,M,0.0,*41
$GPGSA,A,3,26,28,29,31,,,,,,,,,7.5,3.1,6.8,1*26
$GPGSV,1,1,04,26,68,239,40,28,47,010,42,29,22,080,40,31,47,325,42,1*6C
$GPRMC,024226.89,A,2218.2792426,N,11410.7851955,E,7.08,322.66,271224,0.0,E,A*38
$GPGGA,024226.89,2218.2792426,N,11410.7851955,E,1,04,1.0,30.825,M,0.000,M,0.0,*4A
$GPGSA,A,3,26,28,29,31,,,,,,,,,7.5,3.1,6.8,1*26
$GPGSV,1,1,04,26,68,239,40,28,47,010,42,29,22,080,39,31,47,325,42,1*62
$GPRMC,024226.99,A,2218.2789603,N,11410.7815450,E,3.86,356.07,271224,0.0,E,A*38
$GPGGA,024226.99,2218.2789603,N,11410.7815450,E,1,04,1.0,28.961,M,0.000,M,0.0,*44
$GPGSA,A,3,26,28,29,31,,,,,,,,,7.5,3.1,6.8,1*26
$GPGSV,1,1,04,26,68,239,40,28,47,010,42,29,22,080,39,31,47,325,42,1*62
$GPRMC,024227.09,A,2218.2794472,N,11410.7894663,E,5.48,139.39,271224,0.0,E,A*31
$GPGGA,024227.09,2218.2794472,N,11410.7894663,E,1,04,1.0,60.632,M,0.000,M,0.0,*4A
$GPGSA,A,3,26,28,29,31,,,,,,,,,7.5,3.1,6.8,1*26
$GPGSV,1,1,04,26,68,239,40,28,47,010,42,29,22,080,39,31,47,325,42,1*62
$GPRMC,024227.19,A,2218.2811610,N,11410.7901104,E,4.60,45.50,271224,0.0,E,A*01
$GPGGA,024227.19,2218.2811610,N,11410.7901104,E,1,04,1.0,68.197,M,0.000,M,0.0,*44
$GPGSA,A,3,26,28,29,31,,,,,,,,,7.5,3.1,6.8,1*26
$GPGSV,1,1,04,26,68,239,40,28,47,010,42,29,22,080,40,31,47,325,42,1*6C
$GPRMC,024227.29,A,2218.2786093,N,11410.7852704,E,8.38,0.15,271224,0.0,E,A*3E
$GPGGA,024227.29,2218.2786093,N,11410.7852704,E,1,04,1.0,48.105,M,0.000,M,0.0,*43
$GPGSA,A,3,26,28,29,31,,,,,,,,,7.5,3.1,6.8,1*26
$GPGSV,1,1,04,26,68,239,41,28,47,010,42,29,22,080,39,31,47,325,42,1*63
$GPRMC,024227.39,A,2218.2825156,N,11410.7905123,E,4.06,15.97,271224,0.0,E,A*0E
$GPGGA,024227.39,2218.2825156,N,11410.7905123,E,1,04,1.0,66.394,M,0.000,M,0.0,*4A
$GPGSA,A,3,26,28,29,31,,,,,,,,,7.5,3.1,6.8,1*26
$GPGSV,1,1,04,26,68,239,41,28,47,010,42,29,22,080,39,31,47,325,42,1*63
$GPRMC,024227.49,A,2218.2794662,N,11410.7861653,E,1.82,15.97,271224,0.0,E,A*06
$GPGGA,024227.49,2218.2794662,N,11410.7861653,E,1,04,1.0,54.177,M,0.000,M,0.0,*45
$GPGSA,A,3,26,28,29,31,,,,,,,,,7.5,3.1,6.8,1*26
$GPGSV,1,1,04,26,68,239,41,28,47,010,42,29,22,080,39,31,47,325,42,1*63
$GPRMC,024227.59,A,2218.2765370,N,11410.7836482,E,11.33,315.52,271224,0.0,E,A*02
$GPGGA,024227.59,2218.2765370,N,11410.7836482,E,1,04,1.0,34.537,M,0.000,M,0.0,*46
$GPGSA,A,3,26,28,29,31,,,,,,,,,7.5,3.1,6.8,1*26
$GPGSV,1,1,04,26,68,239,41,28,47,010,42,29,22,080,39,31,47,325,42,1*63
$GPRMC,024227.69,A,2218.2766748,N,11410.7856038,E,10.21,280.97,271224,0.0,E,A*08
$GPGGA,024227.69,2218.2766748,N,11410.7856038,E,1,04,1.0,46.748,M,0.000,M,0.0,*45
$GPGSA,A,3,26,28,29,31,,,,,,,,,7.5,3.1,6.8,1*26
$GPGSV,1,1,04,26,68,239,41,28,47,010,42,29,22,080,39,31,47,325,42,1*63
$GPRMC,024227.79,A,2218.2786448,N,11410.7867432,E,9.43,61.99,271224,0.0,E,A*07
$GPGGA,024227.79,2218.2786448,N,11410.7867432,E,1,04,1.0,55.576,M,0.000,M,0.0,*48
$GPGSA,A,3,26,28,29,31,,,,,,,,,7.5,3.1,6.8,1*26
$GPGSV,1,1,04,26,68,239,41,28,47,010,42,29,22,080,39,31,47,325,42,1*63
$GPRMC,024227.89,A,2218.2806414,N,11410.7882310,E,7.30,94.79,271224,0.0,E,A*04
$GPGGA,024227.89,2218.2806414,N,11410.7882310,E,1,04,1.0,53.146,M,0.000,M,0.0,*44
$GPGSA,A,3,26,28,29,31,,,,,,,,,7.5,3.1,6.8,1*26
$GPGSV,1,1,04,26,68,239,41,28,47,010,42,29,22,080,39,31,47,325,42,1*63
$GPRMC,024227.99,A,2218.2775139,N,11410.7864865,E,14.46,66.59,271224,0.0,E,A*39
$GPGGA,024227.99,2218.2775139,N,11410.7864865,E,1,04,1.0,42.161,M,0.000,M,0.0,*40
$GPGSA,A,3,26,28,29,31,,,,,,,,,7.5,3.1,6.8,1*26
$GPGSV,1,1,04,26,68,239,40,28,47,010,42,29,22,080,39,31,47,325,42,1*62
$GPRMC,024228.09,A,2218.2802625,N,11410.7853146,E,15.84,250.24,271224,0.0,E,A*04
$GPGGA,024228.09,2218.2802625,N,11410.7853146,E,1,04,1.0,48.772,M,0.000,M,0.0,*41
$GPGSA,A,3,26,28,29,31,,,,,,,,,7.5,3.1,6.8,1*26
$GPGSV,1,1,04,26,68,239,40,28,47,010,42,29,22,080,39,31,47,325,42,1*62
$GPRMC,024228.19,A,2218.2805884,N,11410.7836148,E,2.10,13.83,271224,0.0,E,A*09
$GPGGA,024228.19,2218.2805884,N,11410.7836148,E,1,04,1.0,34.755,M,0.000,M,0.0,*41
$GPGSA,A,3,26,28,29,31,,,,,,,,,7.5,3.1,6.8,1*26
$GPGSV,1,1,04,26,68,239,40,28,47,010,42,29,22,080,39,31,47,325,42,1*62
$GPRMC,024228.29,A,2218.2763769,N,11410.7852732,E,1.75,13.83,271224,0.0,E,A*00
$GPGGA,024228.29,2218.2763769,N,11410.7852732,E,1,04,1.0,32.699,M,0.000,M,0.0,*4F
$GPGSA,A,3,26,28,29,31,,,,,,,,,7.5,3.1,6.8,1*26
$GPGSV,1,1,04,26,68,239,40,28,47,010,42,29,22,080,39,31,47,325,42,1*62
$GPRMC,024228.39,A,2218.2796855,N,11410.7851614,E,11.03,79.60,271224,0.0,E,A*3C
$GPGGA,024228.39,2218.2796855,N,11410.7851614,E,1,04,1.0,33.667,M,0.000,M,0.0,*42
$GPGSA,A,3,26,28,29,31,,,,,,,,,7.5,3.1,6.8,1*26
$GPGSV,1,1,04,26,68,239,41,28,47,010,42,29,22,080,39,31,47,325,42,1*63
$GPRMC,024228.49,A,2218.2805827,N,11410.7926246,E,3.83,2.47,271224,0.0,E,A*3B
$GPGGA,024228.49,2218.2805827,N,11410.7926246,E,1,04,1.0,59.430,M,0.000,M,0.0,*4B
$GPGSA,A,3,26,28,29,31,,,,,,,,,7.5,3.1,6.8,1*26
$GPGSV,1,1,04,26,68,239,41,28,47,010,42,29,22,080,39,31,47,325,42,1*63
$GPRMC,024228.59,A,2218.2792289,N,11410.7881078,E,10.88,112.13,271224,0.0,E,A*0E
$GPGGA,024228.59,2218.2792289,N,11410.7881078,E,1,04,1.0,45.593,M,0.000,M,0.0,*43
$GPGSA,A,3,26,28,29,31,,,,,,,,,7.5,3.1,6.8,1*26
$GPGSV,1,1,04,26,68,239,41,28,47,010,42,29,22,080,39,31,47,325,42,1*63
$GPRMC,024228.69,A,2218.2792654,N,11410.7841569,E,1.61,112.13,271224,0.0,E,A*37
$GPGGA,024228.69,2218.2792654,N,11410.7841569,E,1,04,1.0,30.834,M,0.000,M,0.0,*4F
$GPGSA,A,3,26,28,29,31,,,,,,,,,7.5,3.1,6.8,1*26
$GPGSV,1,1,04,26,68,239,41,28,47,010,42,29,22,080,39,31,47,325,42,1*63
$GPRMC,024228.79,A,2218.2792621,N,11410.7808046,E,20.17,241.44,271224,0.0,E,A*04
$GPGGA,024228.79,2218.2792621,N,11410.7808046,E,1,04,1.0,21.412,M,0.000,M,0.0,*41
$GPGSA,A,3,26,28,29,31,,,,,,,,,7.5,3.1,6.8,1*26
$GPGSV,1,1,04,26,68,239,41,28,47,010,42,29,22,080,39,31,47,325,42,1*63
$GPRMC,024228.89,A,2218.2769313,N,11410.7868177,E,4.96,182.87,271224,0.0,E,A*32
$GPGGA,024228.89,2218.2769313,N,11410.7868177,E,1,04,1.0,42.720,M,0.000,M,0.0,*4C
$GPGSA,A,3,26,28,29,31,,,,,,,,,7.5,3.1,6.8,1*26
$GPGSV,1,1,04,26,68,239,41,28,47,010,42,29,22,080,39,31,47,325,42,1*63
$GPRMC,024228.99,A,2218.2803107,N,11410.7906318,E,2.06,35.91,271224,0.0,E,A*00
$GPGGA,024228.99,2218.2803107,N,11410.7906318,E,1,04,1.0,69.452,M,0.000,M,0.0,*44
$GPGSA,A,3,26,28,29,31,,,,,,,,,7.5,3.1,6.8,1*26
$GPGSV,1,1,04,26,68,239,41,28,47,010,42,29,22,080,39,31,47,325,42,1*63
$GPRMC,024229.09,A,2218.2783482,N,11410.7855634,E,12.86,83.22,271224,0.0,E,A*37
$GPGGA,024229.09,2218.2783482,N,11410.7855634,E,1,04,1.0,40.068,M,0.000,M,0.0,*49
$GPGSA,A,3,26,28,29,31,,,,,,,,,7.5,3.1,6.8,1*26
$GPGSV,1,1,04,26,68,239,41,28,47,010,42,29,22,080,40,31,47,325,42,1*6D
$GPRMC,024229.19,A,2218.2806088,N,11410.7895111,E,5.04,343.67,271224,0.0,E,A*34
$GPGGA,024229.19,2218.2806088,N,11410.7895111,E,1,04,1.0,58.809,M,0.000,M,0.0,*4E
$GPGSA,A,3,26,28,29,31,,,,,,,,,7.5,3.1,6.8,1*26
$GPGSV,1,1,04,26,68,239,41,28,47,010,42,29,22,080,40,31,47,325,42,1*6D
$GPRMC,024229.29,A,2218.2797815,N,11410.7880624,E,3.85,193.37,271224,0.0,E,A*3C
$GPGGA,024229.29,2218.2797815,N,11410.7880624,E,1,04,1.0,52.835,M,0.000,M,0.0,*46
$GPGSA,A,3,26,28,29,31,,,,,,,,,7.5,3.1,6.8,1*26
$GPGSV,1,1,04,26,68,239,41,28,47,010,42,29,22,080,40,31,47,325,42,1*6D
$GPRMC,024229.39,A,2218.2802735,N,11410.7870474,E,26.76,247.73,271224,0.0,E,A*0A
$GPGGA,024229.39,2218.2802735,N,11410.7870474,E,1,04,1.0,47.962,M,0.000,M,0.0,*46
$GPGSA,A,3,26,28,29,31,,,,,,,,,7.5,3.1,6.8,1*26
$GPGSV,1,1,04,26,68,239,41,28,47,010,42,29,22,080,40,31,47,325,42,1*6D
$GPRMC,024229.49,A,2218.2820363,N,11410.7880000,E,6.26,76.70,271224,0.0,E,A*06
$GPGGA,024229.49,2218.2820363,N,11410.7880000,E,1,04,1.0,59.222,M,0.000,M,0.0,*4E
$GPGSA,A,3,26,28,29,31,,,,,,,,,7.5,3.1,6.8,1*26
$GPGSV,1,1,04,26,68,239,41,28,47,010,42,29,22,080,40,31,47,325,42,1*6D
$GPRMC,024229.59,A,2218.2820430,N,11410.7860455,E,2.31,65.46,271224,0.0,E,A*09
$GPGGA,024229.59,2218.2820430,N,11410.7860455,E,1,04,1.0,52.765,M,0.000,M,0.0,*49
$GPGSA,A,3,26,28,29,31,,,,,,,,,7.5,3.1,6.8,1*26
$GPGSV,1,1,04,26,68,239,41,28,47,010,42,29,22,080,40,31,47,325,42,1*6D
$GPRMC,024229.69,A,2218.2785888,N,11410.7823987,E,2.68,237.68,271224,0.0,E,A*35
$GPGGA,024229.69,2218.2785888,N,11410.7823987,E,1,04,1.0,34.907,M,0.000,M,0.0,*4A
$GPGSA,A,3,26,28,29,31,,,,,,,,,7.5,3.1,6.8,1*26
$GPGSV,1,1,04,26,68,239,41,28,47,010,42,29,22,080,40,31,47,325,42,1*6D
$GPRMC,024229.79,A,2218.2797749,N,11410.7844329,E,4.85,244.45,271224,0.0,E,A*34
$GPGGA,024229.79,2218.2797749,N,11410.7844329,E,1,04,1.0,48.867,M,0.000,M,0.0,*49
$GPGSA,A,3,26,28,29,31,,,,,,,,,7.5,3.1,6.8,1*26
$GPGSV,1,1,04,26,68,239,41,28,47,010,42,29,22,080,40,31,47,325,42,1*6D
$GPRMC,024229.89,A,2218.2810492,N,11410.7893530,E,3.01,50.79,271224,0.0,E,A*09
$GPGGA,024229.89,2218.2810492,N,11410.7893530,E,1,04,1.0,58.978,M,0.000,M,0.0,*49
$GPGSA,A,3,26,28,29,31,,,,,,,,,7.5,3.1,6.8,1*26
$GPGSV,1,1,04,26,68,239,41,28,47,010,42,29,22,080,40,31,47,325,42,1*6D
$GPRMC,024229.99,A,2218.2781163,N,11410.7862473,E,1.60,50.79,271224,0.0,E,A*09
$GPGGA,024229.99,2218.2781163,N,11410.7862473,E,1,04,1.0,40.325,M,0.000,M,0.0,*47
$GPGSA,A,3,26,28,29,31,,,,,,,,,7.5,3.1,6.8,1*26
$GPGSV,1,1,04,26,68,239,41,28,47,010,42,29,22,080,40,31,47,325,42,1*6D
$GPRMC,024230.09,A,2218.2808966,N,11410.7923462,E,5.80,227.35,271224,0.0,E,A*3F
$GPGGA,024230.09,2218.2808966,N,11410.7923462,E,1,04,1.0,71.162,M,0.000,M,0.0,*42
$GPGSA,A,3,26,28,29,31,,,,,,,,,7.5,3.1,6.8,1*26
$GPGSV,1,1,04,26,68,239,41,28,47,010,42,29,22,080,40,31,47,325,42,1*6D
$GPRMC,024230.19,A,2218.2805156,N,11410.7894996,E,8.16,211.49,271224,0.0,E,A*3F
$GPGGA,024230.19,2218.2805156,N,11410.7894996,E,1,04,1.0,48.218,M,0.000,M,0.0,*4A
$GPGSA,A,3,26,28,29,31,,,,,,,,,7.5,3.1,6.8,1*26
$GPGSV,1,1,04,26,68,239,41,28,47,010,42,29,22,080,40,31,47,325,42,1*6D
$GPRMC,024230.29,A,2218.2807848,N,11410.7897325,E,2.02,21.07,271224,0.0,E,A*0D
$GPGGA,024230.29,2218.2807848,N,11410.7897325,E,1,04,1.0,44.944,M,0.000,M,0.0,*42
$GPGSA,A,3,26,28,29,31,,,,,,,,,7.5,3.1,6.8,1*26
$GPGSV,1,1,04,26,68,239,41,28,47,010,42,29,22,080,40,31,47,325,42,1*6D
$GPRMC,024230.39,A,2218.2823455,N,11410.7888631,E,2.93,92.46,271224,0.0,E,A*01
$GPGGA,024230.39,2218.2823455,N,11410.7888631,E,1,04,1.0,48.039,M,0.000,M,0.0,*44
$GPGSA,A,3,26,28,29,31,,,,,,,,,7.5,3.1,6.8,1*26
$GPGSV,1,1,04,26,68,239,41,28,47,010,42,29,22,080,40,31,47,325,42,1*6D
$GPRMC,024230.49,A,2218.2792357,N,11410.7877884,E,3.19,225.48,271224,0.0,E,A*35
$GPGGA,024230.49,2218.2792357,N,11410.7877884,E,1,04,1.0,38.061,M,0.000,M,0.0,*49
$GPGSA,A,3,26,28,29,31,,,,,,,,,7.5,3.1,6.8,1*26
$GPGSV,1,1,04,26,68,239,41,28,47,010,41,29,22,080,40,31,47,325,42,1*6E
$GPRMC,024230.59,A,2218.2817136,N,11410.7862188,E,5.42,127.96,271224,0.0,E,A*38
$GPGGA,024230.59,2218.2817136,N,11410.7862188,E,1,04,1.0,35.125,M,0.000,M,0.0,*42
$GPGSA,A,3,26,28,29,31,,,,,,,,,7.5,3.1,6.8,1*26
$GPGSV,1,1,04,26,68,239,41,28,47,010,41,29,22,080,40,31,47,325,42,1*6E
$GPRMC,024230.69,A,2218.2814415,N,11410.7864074,E,7.24,104.42,271224,0.0,E,A*32
$GPGGA,024230.69,2218.2814415,N,11410.7864074,E,1,04,1.0,34.134,M,0.000,M,0.0,*43
$GPGSA,A,3,26,28,29,31,,,,,,,,,7.5,3.1,6.8,1*26
$GPGSV,1,1,04,26,68,239,41,28,47,010,41,29,22,080,40,31,47,325,42,1*6E
$GPRMC,024230.79,A,2218.2808709,N,11410.7891614,E,1.85,104.42,271224,0.0,E,A*37
$GPGGA,024230.79,2218.2808709,N,11410.7891614,E,1,04,1.0,58.913,M,0.000,M,0.0,*4C
$GPGSA,A,3,26,28,29,31,,,,,,,,,7.5,3.1,6.8,1*26
$GPGSV,1,1,04,26,68,239,41,28,47,010,41,29,22,080,40,31,47,325,42,1*6E
$GPRMC,024230.89,A,2218.2800161,N,11410.7920593,E,15.33,95.65,271224,0.0,E,A*3B
$GPGGA,024230.89,2218.2800161,N,11410.7920593,E,1,04,1.0,65.475,M,0.000,M,0.0,*47
$GPGSA,A,3,26,28,29,31,,,,,,,,,7.5,3.1,6.8,1*26
$GPGSV,1,1,04,26,68,239,41,28,47,010,41,29,22,080,40,31,47,325,42,1*6E
$GPRMC,024230.99,A,2218.2791236,N,11410.7893912,E,5.45,278.12,271224,0.0,E,A*31
$GPGGA,024230.99,2218.2791236,N,11410.7893912,E,1,04,1.0,53.515,M,0.000,M,0.0,*4E
$GPGSA,A,3,26,28,29,31,,,,,,,,,7.5,3.1,6.8,1*26
$GPGSV,1,1,04,26,68,239,41,28,47,010,41,29,22,080,40,31,47,325,42,1*6E
$GPRMC,024231.09,A,2218.2782682,N,11410.7881550,E,6.07,17.85,271224,0.0,E,A*09
$GPGGA,024231.09,2218.2782682,N,11410.7881550,E,1,04,1.0,45.840,M,0.000,M,0.0,*4C
$GPGSA,A,3,26,28,29,31,,,,,,,,,7.5,3.1,6.8,1*26
$GPGSV,1,1,04,26,68,239,41,28,47,010,42,29,22,080,40,31,47,325,42,1*6D
$GPRMC,024231.19,A,2218.2793162,N,11410.7889356,E,14.52,248.84,271224,0.0,E,A*03
$GPGGA,024231.19,2218.2793162,N,11410.7889356,E,1,04,1.0,38.813,M,0.000,M,0.0,*40
$GPGSA,A,3,26,28,29,31,,,,,,,,,7.5,3.1,6.8,1*26
$GPGSV,1,1,04,26,68,239,41,28,47,010,42,29,22,080,40,31,47,325,42,1*6D
$GPRMC,024231.29,A,2218.2791146,N,11410.7879081,E,19.76,69.46,271224,0.0,E,A*36
$GPGGA,024231.29,2218.2791146,N,11410.7879081,E,1,04,1.0,36.459,M,0.000,M,0.0,*4D
$GPGSA,A,3,26,28,29,31,,,,,,,,,7.5,3.1,6.8,1*26
$GPGSV,1,1,04,26,68,239,41,28,47,010,41,29,22,080,40,31,47,325,42,1*6E
$GPRMC,024231.39,A,2218.2801327,N,11410.7870660,E,1.79,69.46,271224,0.0,E,A*02
$GPGGA,024231.39,2218.2801327,N,11410.7870660,E,1,04,1.0,47.243,M,0.000,M,0.0,*44
$GPGSA,A,3,26,28,29,31,,,,,,,,,7.5,3.1,6.8,1*26
$GPGSV,1,1,04,26,68,239,42,28,47,010,41,29,22,080,40,31,47,325,42,1*6D
$GPRMC,024231.49,A,2218.2789707,N,11410.7890189,E,12.56,65.42,271224,0.0,E,A*35
$GPGGA,024231.49,2218.2789707,N,11410.7890189,E,1,04,1.0,54.317,M,0.000,M,0.0,*46
$GPGSA,A,3,26,28,29,31,,,,,,,,,7.5,3.1,6.8,1*26
$GPGSV,1,1,04,26,68,239,42,28,47,010,41,29,22,080,40,31,47,325,42,1*6D
$GPRMC,024231.59,A,2218.2821719,N,11410.7883718,E,6.36,175.55,271224,0.0,E,A*3F
$GPGGA,024231.59,2218.2821719,N,11410.7883718,E,1,04,1.0,53.348,M,0.000,M,0.0,*44
$GPGSA,A,3,26,28,29,31,,,,,,,,,7.5,3.1,6.8,1*26
$GPGSV,1,1,04,26,68,239,42,28,47,010,41,29,22,080,40,31,47,325,42,1*6D
$GPRMC,024231.69,A,2218.2827388,N,11410.7901281,E,4.62,29.22,271224,0.0,E,A*03
$GPGGA,024231.69,2218.2827388,N,11410.7901281,E,1,04,1.0,59.736,M,0.000,M,0.0,*44
$GPGSA,A,3,26,28,29,31,,,,,,,,,7.5,3.1,6.8,1*26
$GPGSV,1,1,04,26,68,239,42,28,47,010,41,29,22,080,40,31,47,325,42,1*6D
$GPRMC,024231.79,A,2218.2809387,N,11410.7937438,E,4.49,5.66,271224,0.0,E,A*37
$GPGGA,024231.79,2218.2809387,N,11410.7937438,E,1,04,1.0,65.556,M,0.000,M,0.0,*4C
$GPGSA,A,3,26,28,29,31,,,,,,,,,7.5,3.1,6.8,1*26
$GPGSV,1,1,04,26,68,239,41,28,47,010,41,29,22,080,40,31,47,325,42,1*6E
$GPRMC,024231.89,A,2218.2815063,N,11410.7911677,E,14.72,49.14,271224,0.0,E,A*35
$GPGGA,024231.89,2218.2815063,N,11410.7911677,E,1,04,1.0,63.631,M,0.000,M,0.0,*4E
$GPGSA,A,3,26,28,29,31,,,,,,,,,7.5,3.1,6.8,1*26
$GPGSV,1,1,04,26,68,239,41,28,47,010,41,29,22,080,40,31,47,325,42,1*6E
$GPRMC,024231.99,A,2218.2805350,N,11410.7887596,E,2.71,56.28,271224,0.0,E,A*01
$GPGGA,024231.99,2218.2805350,N,11410.7887596,E,1,04,1.0,43.119,M,0.000,M,0.0,*40
$GPGSA,A,3,26,28,29,31,,,,,,,,,7.5,3.1,6.8,1*26
$GPGSV,1,1,04,26,68,239,41,28,47,010,41,29,22,080,40,31,47,325,43,1*6F
$GPRMC,024232.09,A,2218.2842220,N,11410.7907443,E,0.97,56.28,271224,0.0,E,A*04
$GPGGA,024232.09,2218.2842220,N,11410.7907443,E,1,04,1.0,67.462,M,0.000,M,0.0,*40
$GPGSA,A,3,26,28,29,31,,,,,,,,,7.5,3.1,6.8,1*26
$GPGSV,1,1,04,26,68,239,42,28,47,010,42,29,22,080,39,31,47,325,43,1*61
$GPRMC,024232.19,A,2218.2847975,N,11410.7874631,E,3.97,219.11,271224,0.0,E,A*39
$GPGGA,024232.19,2218.2847975,N,11410.7874631,E,1,04,1.0,54.079,M,0.000,M,0.0,*43
$GPGSA,A,3,26,28,29,31,,,,,,,,,7.5,3.1,6.8,1*26
$GPGSV,1,1,04,26,68,239,42,28,47,010,42,29,22,080,40,31,47,325,43,1*6F
$GPRMC,024232.29,A,2218.2850506,N,11410.7929766,E,4.23,345.35,271224,0.0,E,A*38
$GPGGA,024232.29,2218.2850506,N,11410.7929766,E,1,04,1.0,82.343,M,0.000,M,0.0,*45
$GPGSA,A,3,26,28,29,31,,,,,,,,,7.5,3.1,6.8,1*26
$GPGSV,1,1,04,26,68,239,41,28,47,010,41,29,22,080,40,31,47,325,42,1*6E
$GPRMC,024232.39,A,2218.2854568,N,11410.7930446,E,1.67,345.35,271224,0.0,E,A*39
$GPGGA,024232.39,2218.2854568,N,11410.7930446,E,1,04,1.0,81.223,M,0.000,M,0.0,*45
$GPGSA,A,3,26,28,29,31,,,,,,,,,7.5,3.1,6.8,1*26
$GPGSV,1,1,04,26,68,239,42,28,47,010,41,29,22,080,40,31,47,325,43,1*6C
$GPRMC,024232.49,A,2218.2843565,N,11410.7921358,E,4.47,217.41,271224,0.0,E,A*3F
$GPGGA,024232.49,2218.2843565,N,11410.7921358,E,1,04,1.0,71.316,M,0.000,M,0.0,*49
$GPGSA,A,3,26,28,29,31,,,,,,,,,7.5,3.1,6.8,1*26
$GPGSV,1,1,04,26,68,239,42,28,47,010,41,29,22,080,39,31,47,325,43,1*62
$GPRMC,024232.59,A,2218.2818800,N,11410.7907513,E,5.80,120.79,271224,0.0,E,A*35
$GPGGA,024232.59,2218.2818800,N,11410.7907513,E,1,04,1.0,56.048,M,0.000,M,0.0,*48
$GPGSA,A,3,26,28,29,31,,,,,,,,,7.5,3.1,6.8,1*26
$GPGSV,1,1,04,26,68,239,42,28,47,010,41,29,22,080,39,31,47,325,43,1*62
$GPRMC,024232.69,A,2218.2814812,N,11410.7914761,E,1.82,120.79,271224,0.0,E,A*3A
$GPGGA,024232.69,2218.2814812,N,11410.7914761,E,1,04,1.0,58.541,M,0.000,M,0.0,*43
$GPGSA,A,3,26,28,29,31,,,,,,,,,7.5,3.1,6.8,1*26
$GPGSV,1,1,04,26,68,239,42,28,47,010,41,29,22,080,39,31,47,325,43,1*62
$GPRMC,024232.79,A,2218.2831804,N,11410.7895606,E,6.01,278.97,271224,0.0,E,A*31
$GPGGA,024232.79,2218.2831804,N,11410.7895606,E,1,04,1.0,48.133,M,0.000,M,0.0,*4A
$GPGSA,A,3,26,28,29,31,,,,,,,,,7.5,3.1,6.8,1*26
$GPGSV,1,1,04,26,68,239,42,28,47,010,41,29,22,080,40,31,47,325,43,1*6C
$GPRMC,024232.89,A,2218.2850523,N,11410.7967035,E,6.99,53.76,271224,0.0,E,A*0E
$GPGGA,024232.89,2218.2850523,N,11410.7967035,E,1,04,1.0,76.193,M,0.000,M,0.0,*47
$GPGSA,A,3,26,28,29,31,,,,,,,,,7.5,3.1,6.8,1*26
$GPGSV,1,1,04,26,68,239,42,28,47,010,41,29,22,080,40,31,47,325,43,1*6C
$GPRMC,024232.99,A,2218.2807563,N,11410.7915325,E,4.33,126.52,271224,0.0,E,A*39
$GPGGA,024232.99,2218.2807563,N,11410.7915325,E,1,04,1.0,65.047,M,0.000,M,0.0,*4D
$GPGSA,A,3,26,28,29,31,,,,,,,,,7.5,3.1,6.8,1*26
$GPGSV,1,1,04,26,68,239,42,28,47,010,41,29,22,080,40,31,47,325,43,1*6C
$GPRMC,024233.09,A,2218.2810296,N,11410.7961626,E,7.96,211.52,271224,0.0,E,A*34
$GPGGA,024233.09,2218.2810296,N,11410.7961626,E,1,04,1.0,75.733,M,0.000,M,0.0,*4E
$GPGSA,A,3,26,28,29,31,,,,,,,,,7.5,3.1,6.8,1*26
$GPGSV,1,1,04,26,68,239,42,28,47,010,41,29,22,080,40,31,47,325,42,1*6D
$GPRMC,024233.19,A,2218.2794866,N,11410.7931448,E,4.80,138.95,271224,0.0,E,A*3B
$GPGGA,024233.19,2218.2794866,N,11410.7931448,E,1,04,1.0,63.284,M,0.000,M,0.0,*48
$GPGSA,A,3,26,28,29,31,,,,,,,,,7.5,3.1,6.8,1*26
$GPGSV,1,1,04,26,68,239,42,28,47,010,41,29,22,080,40,31,47,325,42,1*6D
$GPRMC,024233.29,A,2218.2808832,N,11410.7922282,E,6.98,190.46,271224,0.0,E,A*36
$GPGGA,024233.29,2218.2808832,N,11410.7922282,E,1,04,1.0,54.137,M,0.000,M,0.0,*4D
$GPGSA,A,3,26,28,29,31,,,,,,,,,7.5,3.1,6.8,1*26
$GPGSV,1,1,04,26,68,239,42,28,47,010,42,29,22,080,40,31,47,325,43,1*6F
$GPRMC,024233.39,A,2218.2794549,N,11410.7886695,E,14.04,238.21,271224,0.0,E,A*07
$GPGGA,024233.39,2218.2794549,N,11410.7886695,E,1,04,1.0,50.441,M,0.000,M,0.0,*4A
$GPGSA,A,3,26,28,29,31,,,,,,,,,7.5,3.1,6.8,1*26
$GPGSV,1,1,04,26,68,239,42,28,47,010,41,29,22,080,40,31,47,325,43,1*6C
$GPRMC,024233.49,A,2218.2837681,N,11410.7952788,E,9.64,134.33,271224,0.0,E,A*32
$GPGGA,024233.49,2218.2837681,N,11410.7952788,E,1,04,1.0,80.441,M,0.000,M,0.0,*44
$GPGSA,A,3,26,28,29,31,,,,,,,,,7.5,3.1,6.8,1*26
$GPGSV,1,1,04,26,68,239,42,28,47,010,41,29,22,080,40,31,47,325,42,1*6D
$GPRMC,024233.59,A,2218.2855577,N,11410.7922127,E,8.03,251.34,271224,0.0,E,A*3E
$GPGGA,024233.59,2218.2855577,N,11410.7922127,E,1,04,1.0,75.207,M,0.000,M,0.0,*41
$GPGSA,A,3,26,28,29,31,,,,,,,,,7.5,3.1,6.8,1*26
$GPGSV,1,1,04,26,68,239,42,28,47,010,41,29,22,080,40,31,47,325,43,1*6C
$GPRMC,024233.69,A,2218.2853228,N,11410.7927227,E,5.80,331.87,271224,0.0,E,A*39
$GPGGA,024233.69,2218.2853228,N,11410.7927227,E,1,04,1.0,71.334,M,0.000,M,0.0,*4A
$GPGSA,A,3,26,28,29,31,,,,,,,,,7.5,3.1,6.8,1*26
$GPGSV,1,1,04,26,68,239,42,28,47,010,41,29,22,080,40,31,47,325,43,1*6C
$GPRMC,024233.79,A,2218.2828340,N,11410.7886372,E,0.96,331.87,271224,0.0,E,A*32
$GPGGA,024233.79,2218.2828340,N,11410.7886372,E,1,04,1.0,60.750,M,0.000,M,0.0,*45
$GPGSA,A,3,26,28,29,31,,,,,,,,,7.5,3.1,6.8,1*26
$GPGSV,1,1,04,26,68,239,41,28,47,010,41,29,22,080,40,31,47,325,43,1*6F
$GPRMC,024233.89,A,2218.2831553,N,11410.7877539,E,1.46,331.87,271224,0.0,E,A*3A
$GPGGA,024233.89,2218.2831553,N,11410.7877539,E,1,04,1.0,56.773,M,0.000,M,0.0,*45
$GPGSA,A,3,26,28,29,31,,,,,,,,,7.5,3.1,6.8,1*26
$GPGSV,1,1,04,26,68,239,42,28,47,010,42,29,22,080,39,31,47,325,43,1*61
$GPRMC,024233.99,A,2218.2804012,N,11410.7911038,E,3.63,223.47,271224,0.0,E,A*33
$GPGGA,024233.99,2218.2804012,N,11410.7911038,E,1,04,1.0,66.704,M,0.000,M,0.0,*44
$GPGSA,A,3,26,28,29,31,,,,,,,,,7.5,3.1,6.8,1*26
$GPGSV,1,1,04,26,68,239,41,28,47,010,41,29,22,080,39,31,47,325,43,1*61
$GPRMC,024234.09,A,2218.2818773,N,11410.7924624,E,13.30,94.83,271224,0.0,E,A*3C
$GPGGA,024234.09,2218.2818773,N,11410.7924624,E,1,04,1.0,70.083,M,0.000,M,0.0,*45
$GPGSA,A,3,26,28,29,31,,,,,,,,,7.5,3.1,6.8,1*26
$GPGSV,1,1,04,26,68,239,41,28,47,010,42,29,22,080,39,31,47,325,43,1*62
$GPRMC,024234.19,A,2218.2812082,N,11410.7900309,E,11.72,267.17,271224,0.0,E,A*05
$GPGGA,024234.19,2218.2812082,N,11410.7900309,E,1,04,1.0,42.947,M,0.000,M,0.0,*4B
$GPGSA,A,3,26,28,29,31,,,,,,,,,7.5,3.1,6.8,1*26
$GPGSV,1,1,04,26,68,239,41,28,47,010,41,29,22,080,39,31,47,325,43,1*61
$GPRMC,024234.29,A,2218.2812615,N,11410.7898782,E,15.98,247.65,271224,0.0,E,A*0E
$GPGGA,024234.29,2218.2812615,N,11410.7898782,E,1,04,1.0,46.699,M,0.000,M,0.0,*4F
$GPGSA,A,3,26,28,29,31,,,,,,,,,7.5,3.1,6.8,1*26
$GPGSV,1,1,04,26,68,239,42,28,47,010,42,29,22,080,39,31,47,325,43,1*61
$GPRMC,024234.39,A,2218.2808286,N,11410.7883415,E,1.89,247.65,271224,0.0,E,A*38
$GPGGA,024234.39,2218.2808286,N,11410.7883415,E,1,04,1.0,42.879,M,0.000,M,0.0,*48
$GPGSA,A,3,26,28,29,31,,,,,,,,,7.5,3.1,6.8,1*26
$GPGSV,1,1,04,26,68,239,41,28,47,010,42,29,22,080,39,31,47,325,43,1*62
$GPRMC,024234.49,A,2218.2772908,N,11410.7912316,E,15.60,215.06,271224,0.0,E,A*0D
$GPGGA,024234.49,2218.2772908,N,11410.7912316,E,1,04,1.0,52.735,M,0.000,M,0.0,*4B
$GPGSA,A,3,26,28,29,31,,,,,,,,,7.5,3.1,6.8,1*26
$GPGSV,1,1,04,26,68,239,41,28,47,010,42,29,22,080,39,31,47,325,43,1*62
$GPRMC,024234.59,A,2218.2802067,N,11410.7930716,E,7.23,117.99,271224,0.0,E,A*33
$GPGGA,024234.59,2218.2802067,N,11410.7930716,E,1,04,1.0,61.219,M,0.000,M,0.0,*4D
$GPGSA,A,3,26,28,29,31,,,,,,,,,7.5,3.1,6.8,1*26
$GPGSV,1,1,04,26,68,239,42,28,47,010,42,29,22,080,39,31,47,325,43,1*61
$GPRMC,024234.69,A,2218.2802210,N,11410.7936026,E,12.79,91.67,271224,0.0,E,A*35
$GPGGA,024234.69,2218.2802210,N,11410.7936026,E,1,04,1.0,69.278,M,0.000,M,0.0,*41
$GPGSA,A,3,26,28,29,31,,,,,,,,,7.5,3.1,6.8,1*26
$GPGSV,1,1,04,26,68,239,42,28,47,010,42,29,22,080,39,31,47,325,43,1*61
$GPRMC,024234.79,A,2218.2833478,N,11410.7919929,E,4.94,166.88,271224,0.0,E,A*39
$GPGGA,024234.79,2218.2833478,N,11410.7919929,E,1,04,1.0,57.813,M,0.000,M,0.0,*4B
$GPGSA,A,3,26,28,29,31,,,,,,,,,7.5,3.1,6.8,1*26
$GPGSV,1,1,04,26,68,239,42,28,47,010,42,29,22,080,39,31,47,325,43,1*61
$GPRMC,024234.89,A,2218.2834827,N,11410.7923896,E,4.65,231.19,271224,0.0,E,A*3C
$GPGGA,024234.89,2218.2834827,N,11410.7923896,E,1,04,1.0,67.084,M,0.000,M,0.0,*4C
$GPGSA,A,3,26,28,29,31,,,,,,,,,7.5,3.1,6.8,1*26
$GPGSV,1,1,04,26,68,239,41,28,47,010,42,29,22,080,39,31,47,325,43,1*62
$GPRMC,024234.99,A,2218.2801787,N,11410.7921691,E,2.90,14.08,271224,0.0,E,A*0C
$GPGGA,024234.99,2218.2801787,N,11410.7921691,E,1,04,1.0,71.897,M,0.000,M,0.0,*48
$GPGSA,A,3,26,28,29,31,,,,,,,,,7.5,3.1,6.8,1*26
$GPGSV,1,1,04,26,68,239,41,28,47,010,42,29,22,080,39,31,47,325,43,1*62
$GPRMC,024235.09,A,2218.2807318,N,11410.7916126,E,2.62,16.90,271224,0.0,E,A*01
$GPGGA,024235.09,2218.2807318,N,11410.7916126,E,1,04,1.0,61.898,M,0.000,M,0.0,*45
$GPGSA,A,3,26,28,29,31,,,,,,,,,7.5,3.1,6.8,1*26
$GPGSV,1,1,04,26,68,239,41,28,47,010,42,29,22,080,39,31,47,325,42,1*63
$GPRMC,024235.19,A,2218.2829152,N,11410.7919638,E,23.09,269.98,271224,0.0,E,A*0B
$GPGGA,024235.19,2218.2829152,N,11410.7919638,E,1,04,1.0,71.925,M,0.000,M,0.0,*45
$GPGSA,A,3,26,28,29,31,,,,,,,,,7.5,3.1,6.8,1*26
$GPGSV,1,1,04,26,68,239,41,28,47,010,41,29,22,080,39,31,47,325,42,1*60
$GPRMC,024235.29,A,2218.2841560,N,11410.7954692,E,4.82,175.24,271224,0.0,E,A*35
$GPGGA,024235.29,2218.2841560,N,11410.7954692,E,1,04,1.0,85.154,M,0.000,M,0.0,*41
$GPGSA,A,3,26,28,29,31,,,,,,,,,7.5,3.1,6.8,1*26
$GPGSV,1,1,04,26,68,239,41,28,47,010,42,29,22,080,39,31,47,325,42,1*63
$GPRMC,024235.39,A,2218.2852211,N,11410.7966898,E,3.62,232.28,271224,0.0,E,A*37
$GPGGA,024235.39,2218.2852211,N,11410.7966898,E,1,04,1.0,90.745,M,0.000,M,0.0,*44
$GPGSA,A,3,26,28,29,31,,,,,,,,,7.5,3.1,6.8,1*26
$GPGSV,1,1,04,26,68,239,41,28,47,010,42,29,22,080,40,31,47,325,42,1*6D
$GPRMC,024235.49,A,2218.2826623,N,11410.7939006,E,20.05,261.28,271224,0.0,E,A*05
$GPGGA,024235.49,2218.2826623,N,11410.7939006,E,1,04,1.0,68.094,M,0.000,M,0.0,*4C
$GPGSA,A,3,26,28,29,31,,,,,,,,,7.5,3.1,6.8,1*26
$GPGSV,1,1,04,26,68,239,41,28,47,010,42,29,22,080,39,31,47,325,42,1*63
$GPRMC,024235.59,A,2218.2797408,N,11410.7845603,E,10.51,284.37,271224,0.0,E,A*04
$GPGGA,024235.59,2218.2797408,N,11410.7845603,E,1,04,1.0,16.524,M,0.000,M,0.0,*4D
$GPGSA,A,3,26,28,29,31,,,,,,,,,7.5,3.1,6.8,1*26
$GPGSV,1,1,04,26,68,239,41,28,47,010,42,29,22,080,39,31,47,325,42,1*63
$GPRMC,024235.69,A,2218.2826444,N,11410.7880608,E,1.91,284.37,271224,0.0,E,A*34
$GPGGA,024235.69,2218.2826444,N,11410.7880608,E,1,04,1.0,34.913,M,0.000,M,0.0,*49
$GPGSA,A,3,26,28,29,31,,,,,,,,,7.5,3.1,6.8,1*26
$GPGSV,1,1,04,26,68,239,42,28,47,010,42,29,22,080,39,31,47,325,42,1*60
$GPRMC,024235.79,A,2218.2806610,N,11410.7899461,E,11.22,205.50,271224,0.0,E,A*00
$GPGGA,024235.79,2218.2806610,N,11410.7899461,E,1,04,1.0,54.697,M,0.000,M,0.0,*49
$GPGSA,A,3,26,28,29,31,,,,,,,,,7.5,3.1,6.8,1*26
$GPGSV,1,1,04,26,68,239,42,28,47,010,42,29,22,080,39,31,47,325,43,1*61
$GPRMC,024235.89,A,2218.2808657,N,11410.7890757,E,7.68,263.92,271224,0.0,E,A*3A
$GPGGA,024235.89,2218.2808657,N,11410.7890757,E,1,04,1.0,56.218,M,0.000,M,0.0,*45
$GPGSA,A,3,26,28,29,31,,,,,,,,,7.5,3.1,6.8,1*26
$GPGSV,1,1,04,26,68,239,42,28,47,010,42,29,22,080,39,31,47,325,43,1*61
$GPRMC,024235.99,A,2218.2812345,N,11410.7956537,E,8.25,214.27,271224,0.0,E,A*31
$GPGGA,024235.99,2218.2812345,N,11410.7956537,E,1,04,1.0,85.264,M,0.000,M,0.0,*43
$GPGSA,A,3,26,28,29,31,,,,,,,,,7.5,3.1,6.8,1*26
$GPGSV,1,1,04,26,68,239,42,28,47,010,41,29,22,080,39,31,47,325,43,1*62
$GPRMC,024236.09,A,2218.2787345,N,11410.7947777,E,3.12,4.30,271224,0.0,E,A*34
$GPGGA,024236.09,2218.2787345,N,11410.7947777,E,1,04,1.0,83.892,M,0.000,M,0.0,*49
$GPGSA,A,3,26,28,29,31,,,,,,,,,7.5,3.1,6.8,1*26
$GPGSV,1,1,04,26,68,239,42,28,47,010,41,29,22,080,39,31,47,325,43,1*62
$GPRMC,024236.19,A,2218.2770800,N,11410.7950515,E,6.37,236.33,271224,0.0,E,A*35
$GPGGA,024236.19,2218.2770800,N,11410.7950515,E,1,04,1.0,69.884,M,0.000,M,0.0,*49
$GPGSA,A,3,26,28,29,31,,,,,,,,,7.5,3.1,6.8,1*26
$GPGSV,1,1,04,26,68,239,42,28,47,010,42,29,22,080,39,31,47,325,43,1*61
$GPRMC,024236.29,A,2218.2776404,N,11410.7942522,E,12.06,197.79,271224,0.0,E,A*0E
$GPGGA,024236.29,2218.2776404,N,11410.7942522,E,1,04,1.0,65.746,M,0.000,M,0.0,*4E
$GPGSA,A,3,26,28,29,31,,,,,,,,,7.5,3.1,6.8,1*26
$GPGSV,1,1,04,26,68,239,42,28,47,010,42,29,22,080,39,31,47,325,43,1*61
$GPRMC,024236.39,A,2218.2764413,N,11410.7898636,E,8.47,266.61,271224,0.0,E,A*30
$GPGGA,024236.39,2218.2764413,N,11410.7898636,E,1,04,1.0,52.168,M,0.000,M,0.0,*44
$GPGSA,A,3,26,28,29,31,,,,,,,,,7.5,3.1,6.8,1*26
$GPGSV,1,1,04,26,68,239,42,28,47,010,42,29,22,080,39,31,47,325,43,1*61
$GPRMC,024236.49,A,2218.2777001,N,11410.7886180,E,7.49,288.58,271224,0.0,E,A*3C
$GPGGA,024236.49,2218.2777001,N,11410.7886180,E,1,04,1.0,55.775,M,0.000,M,0.0,*4E
$GPGSA,A,3,26,28,29,31,,,,,,,,,7.5,3.1,6.8,1*26
$GPGSV,1,1,04,26,68,239,42,28,47,010,42,29,22,080,39,31,47,325,43,1*61
$GPRMC,024236.59,A,2218.2773242,N,11410.7887822,E,4.86,251.54,271224,0.0,E,A*34
$GPGGA,024236.59,2218.2773242,N,11410.7887822,E,1,04,1.0,51.424,M,0.000,M,0.0,*4D
$GPGSA,A,3,26,28,29,31,,,,,,,,,7.5,3.1,6.8,1*26
$GPGSV,1,1,04,26,68,239,42,28,47,010,42,29,22,080,39,31,47,325,43,1*61
$GPRMC,024236.69,A,2218.2810015,N,11410.7915978,E,5.85,184.10,271224,0.0,E,A*30
$GPGGA,024236.69,2218.2810015,N,11410.7915978,E,1,04,1.0,61.704,M,0.000,M,0.0,*42
$GPGSA,A,3,26,28,29,31,,,,,,,,,7.5,3.1,6.8,1*26
$GPGSV,1,1,04,26,68,239,42,28,47,010,42,29,22,080,39,31,47,325,43,1*61
$GPRMC,024236.79,A,2218.2834767,N,11410.7919007,E,3.78,312.88,271224,0.0,E,A*30
$GPGGA,024236.79,2218.2834767,N,11410.7919007,E,1,04,1.0,70.898,M,0.000,M,0.0,*40
$GPGSA,A,3,26,28,29,31,,,,,,,,,7.5,3.1,6.8,1*26
$GPGSV,1,1,04,26,68,239,42,28,47,010,42,29,22,080,39,31,47,325,43,1*61
$GPRMC,024236.89,A,2218.2825614,N,11410.7894087,E,10.84,46.66,271224,0.0,E,A*35
$GPGGA,024236.89,2218.2825614,N,11410.7894087,E,1,04,1.0,58.833,M,0.000,M,0.0,*4D
$GPGSA,A,3,26,28,29,31,,,,,,,,,7.5,3.1,6.8,1*26
$GPGSV,1,1,04,26,68,239,42,28,47,010,42,29,22,080,39,31,47,325,42,1*60
$GPRMC,024236.99,A,2218.2819005,N,11410.7850626,E,18.69,89.26,271224,0.0,E,A*34
$GPGGA,024236.99,2218.2819005,N,11410.7850626,E,1,04,1.0,42.901,M,0.000,M,0.0,*4B
$GPGSA,A,3,26,28,29,31,,,,,,,,,7.5,3.1,6.8,1*26
$GPGSV,1,1,04,26,68,239,42,28,47,010,42,29,22,080,40,31,47,325,42,1*6E
$GPRMC,024237.09,A,2218.2795243,N,11410.7888925,E,4.01,140.60,271224,0.0,E,A*3B
$GPGGA,024237.09,2218.2795243,N,11410.7888925,E,1,04,1.0,55.444,M,0.000,M,0.0,*4B
$GPGSA,A,3,26,28,29,31,,,,,,,,,7.5,3.1,6.8,1*26
$GPGSV,1,1,04,26,68,239,42,28,47,010,42,29,22,080,39,31,47,325,43,1*61
$GPRMC,024237.19,A,2218.2776009,N,11410.7878006,E,3.17,126.32,271224,0.0,E,A*3B
$GPGGA,024237.19,2218.2776009,N,11410.7878006,E,1,04,1.0,39.681,M,0.000,M,0.0,*4D
$GPGSA,A,3,26,28,29,31,,,,,,,,,7.5,3.1,6.8,1*26
$GPGSV,1,1,04,26,68,239,42,28,47,010,42,29,22,080,39,31,47,325,42,1*60
$GPRMC,024237.29,A,2218.2779311,N,11410.7854807,E,13.36,292.93,271224,0.0,E,A*0F
$GPGGA,024237.29,2218.2779311,N,11410.7854807,E,1,04,1.0,34.697,M,0.000,M,0.0,*46
$GPGSA,A,3,26,28,29,31,,,,,,,,,7.5,3.1,6.8,1*26
$GPGSV,1,1,04,26,68,239,42,28,47,010,42,29,22,080,39,31,47,325,42,1*60
$GPRMC,024237.39,A,2218.2798641,N,11410.7871283,E,7.08,224.14,271224,0.0,E,A*3A
$GPGGA,024237.39,2218.2798641,N,11410.7871283,E,1,04,1.0,45.247,M,0.000,M,0.0,*46
$GPGSA,A,3,26,28,29,31,,,,,,,,,7.5,3.1,6.8,1*26
$GPGSV,1,1,04,26,68,239,42,28,47,010,42,29,22,080,39,31,47,325,42,1*60
$GPRMC,024237.49,A,2218.2817176,N,11410.7919100,E,8.94,91.86,271224,0.0,E,A*0C
$GPGGA,024237.49,2218.2817176,N,11410.7919100,E,1,04,1.0,61.855,M,0.000,M,0.0,*42
$GPGSA,A,3,26,28,29,31,,,,,,,,,7.5,3.1,6.8,1*26
$GPGSV,1,1,04,26,68,239,42,28,47,010,42,29,22,080,39,31,47,325,42,1*60
$GPRMC,024237.59,A,2218.2825826,N,11410.7887883,E,1.32,91.86,271224,0.0,E,A*01
$GPGGA,024237.59,2218.2825826,N,11410.7887883,E,1,04,1.0,52.999,M,0.000,M,0.0,*4B
$GPGSA,A,3,26,28,29,31,,,,,,,,,7.5,3.1,6.8,1*26
$GPGSV,1,1,04,26,68,239,42,28,47,010,42,29,22,080,39,31,47,325,42,1*60
$GPRMC,024237.69,A,2218.2811944,N,11410.7852278,E,4.31,222.05,271224,0.0,E,A*31
$GPGGA,024237.69,2218.2811944,N,11410.7852278,E,1,04,1.0,50.941,M,0.000,M,0.0,*4B
$GPGSA,A,3,26,28,29,31,,,,,,,,,7.5,3.1,6.8,1*26
$GPGSV,1,1,04,26,68,239,42,28,47,010,42,29,22,080,39,31,47,325,42,1*60
$GPRMC,024237.79,A,2218.2807178,N,11410.7890027,E,18.11,65.49,271224,0.0,E,A*30
$GPGGA,024237.79,2218.2807178,N,11410.7890027,E,1,04,1.0,65.832,M,0.000,M,0.0,*4F
$GPGSA,A,3,26,28,29,31,,,,,,,,,7.5,3.1,6.8,1*26
$GPGSV,1,1,04,26,68,239,42,28,47,010,42,29,22,080,39,31,47,325,42,1*60
$GPRMC,024237.89,A,2218.2834607,N,11410.7893919,E,17.88,68.55,271224,0.0,E,A*38
$GPGGA,024237.89,2218.2834607,N,11410.7893919,E,1,04,1.0,59.806,M,0.000,M,0.0,*40
$GPGSA,A,3,26,28,29,31,,,,,,,,,7.5,3.1,6.8,1*26
$GPGSV,1,1,04,26,68,239,42,28,47,010,42,29,22,080,39,31,47,325,42,1*60
$GPRMC,024237.99,A,2218.2780439,N,11410.7851865,E,4.64,206.93,271224,0.0,E,A*32
$GPGGA,024237.99,2218.2780439,N,11410.7851865,E,1,04,1.0,39.387,M,0.000,M,0.0,*4E
$GPGSA,A,3,26,28,29,31,,,,,,,,,7.5,3.1,6.8,1*26
$GPGSV,1,1,04,26,68,239,42,28,47,010,42,29,22,080,40,31,47,325,42,1*6E
$GPRMC,024238.09,A,2218.2765787,N,11410.7873023,E,10.18,32.63,271224,0.0,E,A*37
$GPGGA,024238.09,2218.2765787,N,11410.7873023,E,1,04,1.0,32.931,M,0.000,M,0.0,*43
$GPGSA,A,3,26,28,29,31,,,,,,,,,7.5,3.1,6.8,1*26
$GPGSV,1,1,04,26,68,239,42,28,47,010,42,29,22,080,39,31,47,325,42,1*60
$GPRMC,024238.19,A,2218.2799144,N,11410.7871516,E,12.11,253.64,271224,0.0,E,A*04
$GPGGA,024238.19,2218.2799144,N,11410.7871516,E,1,04,1.0,43.553,M,0.000,M,0.0,*47
$GPGSA,A,3,26,28,29,31,,,,,,,,,7.5,3.1,6.8,1*26
$GPGSV,1,1,04,26,68,239,42,28,47,010,42,29,22,080,39,31,47,325,42,1*60
$GPRMC,024238.29,A,2218.2796398,N,11410.7876551,E,4.26,272.26,271224,0.0,E,A*39
$GPGGA,024238.29,2218.2796398,N,11410.7876551,E,1,04,1.0,42.590,M,0.000,M,0.0,*42
$GPGSA,A,3,26,28,29,31,,,,,,,,,7.5,3.1,6.8,1*26
$GPGSV,1,1,04,26,68,239,42,28,47,010,42,29,22,080,39,31,47,325,42,1*60
$GPRMC,024238.39,A,2218.2816661,N,11410.7881248,E,10.63,273.77,271224,0.0,E,A*0A
$GPGGA,024238.39,2218.2816661,N,11410.7881248,E,1,04,1.0,38.083,M,0.000,M,0.0,*4A
$GPGSA,A,3,26,28,29,31,,,,,,,,,7.5,3.1,6.8,1*26
$GPGSV,1,1,04,26,68,239,42,28,47,010,42,29,22,080,39,31,47,325,42,1*60
$GPRMC,024238.49,A,2218.2811367,N,11410.7832905,E,5.99,56.51,271224,0.0,E,A*03
$GPGGA,024238.49,2218.2811367,N,11410.7832905,E,1,04,1.0,20.904,M,0.000,M,0.0,*4C
$GPGSA,A,3,26,28,29,31,,,,,,,,,7.5,3.1,6.8,1*26
$GPGSV,1,1,04,26,68,239,42,28,47,010,42,29,22,080,40,31,47,325,42,1*6E
$GPRMC,024238.59,A,2218.2832639,N,11410.7870343,E,4.75,157.95,271224,0.0,E,A*38
$GPGGA,024238.59,2218.2832639,N,11410.7870343,E,1,04,1.0,49.524,M,0.000,M,0.0,*4D
$GPGSA,A,3,26,28,29,31,,,,,,,,,7.5,3.1,6.8,1*26
$GPGSV,1,1,04,26,68,239,42,28,47,010,42,29,22,080,39,31,47,325,42,1*60
$GPRMC,024238.69,A,2218.2879234,N,11410.7895421,E,7.06,296.17,271224,0.0,E,A*36
$GPGGA,024238.69,2218.2879234,N,11410.7895421,E,1,04,1.0,55.966,M,0.000,M,0.0,*47
$GPGSA,A,3,26,28,29,31,,,,,,,,,7.5,3.1,6.8,1*26
$GPGSV,1,1,04,26,68,239,42,28,47,010,42,29,22,080,39,31,47,325,42,1*60
$GPRMC,024238.79,A,2218.2842194,N,11410.7905732,E,7.35,61.40,271224,0.0,E,A*07
$GPGGA,024238.79,2218.2842194,N,11410.7905732,E,1,04,1.0,55.831,M,0.000,M,0.0,*4D
$GPGSA,A,3,26,28,29,31,,,,,,,,,7.5,3.1,6.8,1*26
$GPGSV,1,1,04,26,68,239,42,28,47,010,42,29,22,080,39,31,47,325,42,1*60
$GPRMC,024238.89,A,2218.2814026,N,11410.7862244,E,2.59,243.62,271224,0.0,E,A*3A
$GPGGA,024238.89,2218.2814026,N,11410.7862244,E,1,04,1.0,41.681,M,0.000,M,0.0,*4D
$GPGSA,A,3,26,28,29,31,,,,,,,,,7.5,3.1,6.8,1*26
$GPGSV,1,1,04,26,68,239,42,28,47,010,42,29,22,080,39,31,47,325,42,1*60
$GPRMC,024238.99,A,2218.2805168,N,11410.7879193,E,11.52,76.75,271224,0.0,E,A*38
$GPGGA,024238.99,2218.2805168,N,11410.7879193,E,1,04,1.0,43.860,M,0.000,M,0.0,*47
$GPGSA,A,3,26,28,29,31,,,,,,,,,7.5,3.1,6.8,1*26
$GPGSV,1,1,04,26,68,239,42,28,47,010,42,29,22,080,40,31,47,325,42,1*6E
$GPRMC,024239.09,A,2218.2819702,N,11410.7867040,E,13.55,254.11,271224,0.0,E,A*02
$GPGGA,024239.09,2218.2819702,N,11410.7867040,E,1,04,1.0,36.533,M,0.000,M,0.0,*41
$GPGSA,A,3,26,28,29,31,,,,,,,,,7.5,3.1,6.8,1*26
$GPGSV,1,1,04,26,68,239,42,28,47,010,42,29,22,080,40,31,47,325,42,1*6E
$GPRMC,024239.19,A,2218.2830695,N,11410.7839904,E,0.15,254.11,271224,0.0,E,A*33
$GPGGA,024239.19,2218.2830695,N,11410.7839904,E,1,04,1.0,33.583,M,0.000,M,0.0,*48
$GPGSA,A,3,26,28,29,31,,,,,,,,,7.5,3.1,6.8,1*26
$GPGSV,1,1,04,26,68,239,42,28,47,010,42,29,22,080,40,31,47,325,42,1*6E
$GPRMC,024239.29,A,2218.2800226,N,11410.7858682,E,7.76,90.92,271224,0.0,E,A*0A
$GPGGA,024239.29,2218.2800226,N,11410.7858682,E,1,04,1.0,28.916,M,0.000,M,0.0,*48
$GPGSA,A,3,26,28,29,31,,,,,,,,,7.5,3.1,6.8,1*26
$GPGSV,1,1,04,26,68,239,42,28,47,010,42,29,22,080,40,31,47,325,42,1*6E
$GPRMC,024239.39,A,2218.2791147,N,11410.7825134,E,9.19,32.81,271224,0.0,E,A*05
$GPGGA,024239.39,2218.2791147,N,11410.7825134,E,1,04,1.0,7.580,M,0.000,M,0.0,*74
$GPGSA,A,3,26,28,29,31,,,,,,,,,7.5,3.1,6.8,1*26
$GPGSV,1,1,04,26,68,239,42,28,47,010,42,29,22,080,40,31,47,325,42,1*6E
$GPRMC,024239.49,A,2218.2805831,N,11410.7836934,E,3.10,15.80,271224,0.0,E,A*05
$GPGGA,024239.49,2218.2805831,N,11410.7836934,E,1,04,1.0,26.344,M,0.000,M,0.0,*4E
$GPGSA,A,3,26,28,29,31,,,,,,,,,7.5,3.1,6.8,1*26
$GPGSV,1,1,04,26,68,239,42,28,47,010,42,29,22,080,39,31,47,325,42,1*60
$GPRMC,024239.59,A,2218.2844115,N,11410.7884695,E,3.96,342.25,271224,0.0,E,A*33
$GPGGA,024239.59,2218.2844115,N,11410.7884695,E,1,04,1.0,66.932,M,0.000,M,0.0,*47
$GPGSA,A,3,26,28,29,31,,,,,,,,,7.5,3.1,6.8,1*26
$GPGSV,1,1,04,26,68,239,42,28,47,010,42,29,22,080,39,31,47,325,42,1*60
$GPRMC,024239.69,A,2218.2825915,N,11410.7883931,E,6.06,87.51,271224,0.0,E,A*0C
$GPGGA,024239.69,2218.2825915,N,11410.7883931,E,1,04,1.0,43.985,M,0.000,M,0.0,*46
$GPGSA,A,3,26,28,29,31,,,,,,,,,7.5,3.1,6.8,1*26
$GPGSV,1,1,04,26,68,239,42,28,47,010,42,29,22,080,39,31,47,325,42,1*60
$GPRMC,024239.79,A,2218.2841404,N,11410.7880753,E,3.23,316.98,271224,0.0,E,A*37
$GPGGA,024239.79,2218.2841404,N,11410.7880753,E,1,04,1.0,42.972,M,0.000,M,0.0,*48
$GPGSA,A,3,26,28,29,31,,,,,,,,,7.5,3.1,6.8,1*26
$GPGSV,1,1,04,26,68,239,42,28,47,010,42,29,22,080,39,31,47,325,42,1*60
$GPRMC,024239.89,A,2218.2802488,N,11410.7867395,E,7.82,272.89,271224,0.0,E,A*30
$GPGGA,024239.89,2218.2802488,N,11410.7867395,E,1,04,1.0,33.942,M,0.000,M,0.0,*46
$GPGSA,A,3,26,28,29,31,,,,,,,,,7.5,3.1,6.8,1*26
$GPGSV,1,1,04,26,68,239,42,28,47,010,42,29,22,080,39,31,47,325,42,1*60
$GPRMC,024239.99,A,2218.2788015,N,11410.7857255,E,7.80,269.77,271224,0.0,E,A*3B
$GPGGA,024239.99,2218.2788015,N,11410.7857255,E,1,04,1.0,24.153,M,0.000,M,0.0,*4A
$GPGSA,A,3,26,28,29,31,,,,,,,,,7.5,3.1,6.8,1*26
$GPGSV,1,1,04,26,68,239,42,28,47,010,42,29,22,080,39,31,47,325,42,1*60
$GPRMC,024240.09,A,2218.2797206,N,11410.7845365,E,16.74,247.72,271224,0.0,E,A*01
$GPGGA,024240.09,2218.2797206,N,11410.7845365,E,1,04,1.0,24.840,M,0.000,M,0.0,*49
$GPGSA,A,3,26,28,29,31,,,,,,,,,7.5,3.1,6.8,1*26
$GPGSV,1,1,04,26,68,239,42,28,47,010,42,29,22,080,39,31,47,325,43,1*61
$GPRMC,024240.19,A,2218.2794270,N,11410.7870173,E,5.63,0.27,271224,0.0,E,A*34
$GPGGA,024240.19,2218.2794270,N,11410.7870173,E,1,04,1.0,30.146,M,0.000,M,0.0,*43
$GPGSA,A,3,26,28,29,31,,,,,,,,,7.5,3.1,6.8,1*26
$GPGSV,1,1,04,26,68,239,42,28,47,010,42,29,22,080,39,31,47,325,43,1*61
$GPRMC,024240.29,A,2218.2834166,N,11410.7887351,E,4.54,259.39,271224,0.0,E,A*38
$GPGGA,024240.29,2218.2834166,N,11410.7887351,E,1,04,1.0,44.068,M,0.000,M,0.0,*45
$GPGSA,A,3,26,28,29,31,,,,,,,,,7.5,3.1,6.8,1*26
$GPGSV,1,1,04,26,68,239,42,28,47,010,42,29,22,080,38,31,47,325,43,1*60
$GPRMC,024240.39,A,2218.2847636,N,11410.7896138,E,3.99,137.51,271224,0.0,E,A*31
$GPGGA,024240.39,2218.2847636,N,11410.7896138,E,1,04,1.0,48.444,M,0.000,M,0.0,*49
$GPGSA,A,3,26,28,29,31,,,,,,,,,7.5,3.1,6.8,1*26
$GPGSV,1,1,04,26,68,239,42,28,47,010,42,29,22,080,38,31,47,325,42,1*61
$GPRMC,024240.49,A,2218.2826387,N,11410.7885829,E,1.84,137.51,271224,0.0,E,A*3B
$GPGGA,024240.49,2218.2826387,N,11410.7885829,E,1,04,1.0,43.493,M,0.000,M,0.0,*4C
$GPGSA,A,3,26,28,29,31,,,,,,,,,7.5,3.1,6.8,1*26
$GPGSV,1,1,04,26,68,239,42,28,47,010,42,29,22,080,38,31,47,325,42,1*61
$GPRMC,024240.59,A,2218.2790905,N,11410.7865105,E,6.11,242.59,271224,0.0,E,A*33
$GPGGA,024240.59,2218.2790905,N,11410.7865105,E,1,04,1.0,16.649,M,0.000,M,0.0,*43
$GPGSA,A,3,26,28,29,31,,,,,,,,,7.5,3.1,6.8,1*26
$GPGSV,1,1,04,26,68,239,42,28,47,010,42,29,22,080,38,31,47,325,42,1*61
$GPRMC,024240.69,A,2218.2819595,N,11410.7825846,E,14.47,271.35,271224,0.0,E,A*0B
$GPGGA,024240.69,2218.2819595,N,11410.7825846,E,1,04,1.0,20.190,M,0.000,M,0.0,*47
$GPGSA,A,3,26,28,29,31,,,,,,,,,7.5,3.1,6.8,1*26
$GPGSV,1,1,04,26,68,239,42,28,47,010,42,29,22,080,38,31,47,325,42,1*61
$GPRMC,024240.79,A,2218.2796570,N,11410.7821007,E,2.92,114.75,271224,0.0,E,A*3B
$GPGGA,024240.79,2218.2796570,N,11410.7821007,E,1,04,1.0,22.082,M,0.000,M,0.0,*4C
$GPGSA,A,3,26,28,29,31,,,,,,,,,7.5,3.1,6.8,1*26
$GPGSV,1,1,04,26,68,239,42,28,47,010,42,29,22,080,38,31,47,325,42,1*61
$GPRMC,024240.89,A,2218.2840919,N,11410.7831725,E,2.39,58.47,271224,0.0,E,A*0C
$GPGGA,024240.89,2218.2840919,N,11410.7831725,E,1,04,1.0,38.200,M,0.000,M,0.0,*41
$GPGSA,A,3,26,28,29,31,,,,,,,,,7.5,3.1,6.8,1*26
$GPGSV,1,1,04,26,68,239,42,28,47,010,42,29,22,080,38,31,47,325,42,1*61
$GPRMC,024240.99,A,2218.2839624,N,11410.7779939,E,1.91,58.47,271224,0.0,E,A*03
$GPGGA,024240.99,2218.2839624,N,11410.7779939,E,1,04,1.0,18.455,M,0.000,M,0.0,*4B
$GPGSA,A,3,26,28,29,31,,,,,,,,,7.5,3.1,6.8,1*26
$GPGSV,1,1,04,26,68,239,42,28,47,010,42,29,22,080,38,31,47,325,42,1*61
$GPRMC,024241.09,A,2218.2792371,N,11410.7853295,E,0.47,58.47,271224,0.0,E,A*00
$GPGGA,024241.09,2218.2792371,N,11410.7853295,E,1,04,1.0,26.610,M,0.000,M,0.0,*4C
$GPGSA,A,3,26,28,29,31,,,,,,,,,7.5,3.1,6.8,1*26
$GPGSV,1,1,04,26,68,239,42,28,47,010,42,29,22,080,39,31,47,325,42,1*60
$GPRMC,024241.19,A,2218.2802803,N,11410.7872625,E,3.71,124.46,271224,0.0,E,A*38
$GPGGA,024241.19,2218.2802803,N,11410.7872625,E,1,04,1.0,36.293,M,0.000,M,0.0,*47
$GPGSA,A,3,26,28,29,31,,,,,,,,,7.5,3.1,6.8,1*26
$GPGSV,1,1,04,26,68,239,42,28,47,010,42,29,22,080,38,31,47,325,42,1*61
$GPRMC,024241.29,A,2218.2815039,N,11410.7899425,E,5.71,223.52,271224,0.0,E,A*3C
$GPGGA,024241.29,2218.2815039,N,11410.7899425,E,1,04,1.0,31.431,M,0.000,M,0.0,*4D
$GPGSA,A,3,26,28,29,31,,,,,,,,,7.5,3.1,6.8,1*26
$GPGSV,1,1,04,26,68,239,42,28,47,010,42,29,22,080,38,31,47,325,42,1*61
$GPRMC,024241.39,A,2218.2774776,N,11410.7818336,E,5.93,216.24,271224,0.0,E,A*3E
$GPGGA,024241.39,2218.2774776,N,11410.7818336,E,1,04,1.0,2.251,M,0.000,M,0.0,*74
$GPGSA,A,3,26,28,29,31,,,,,,,,,7.5,3.1,6.8,1*26
$GPGSV,1,1,04,26,68,239,42,28,47,010,42,29,22,080,38,31,47,325,42,1*61
$GPRMC,024241.49,A,2218.2777576,N,11410.7839719,E,4.59,337.04,271224,0.0,E,A*35
$GPGGA,024241.49,2218.2777576,N,11410.7839719,E,1,04,1.0,7.163,M,0.000,M,0.0,*7F
$GPGSA,A,3,26,28,29,31,,,,,,,,,7.5,3.1,6.8,1*26
$GPGSV,1,1,04,26,68,239,42,28,47,010,42,29,22,080,38,31,47,325,43,1*60
$GPRMC,024241.59,A,2218.2827532,N,11410.7920169,E,15.36,72.48,271224,0.0,E,A*35
$GPGGA,024241.59,2218.2827532,N,11410.7920169,E,1,04,1.0,47.225,M,0.000,M,0.0,*49
$GPGSA,A,3,26,28,29,31,,,,,,,,,7.5,3.1,6.8,1*26
$GPGSV,1,1,04,26,68,239,42,28,47,010,42,29,22,080,38,31,47,325,42,1*61
$GPRMC,024241.69,A,2218.2847520,N,11410.7921377,E,1.15,72.48,271224,0.0,E,A*0B
$GPGGA,024241.69,2218.2847520,N,11410.7921377,E,1,04,1.0,53.813,M,0.000,M,0.0,*49
$GPGSA,A,3,26,28,29,31,,,,,,,,,7.5,3.1,6.8,1*26
$GPGSV,1,1,04,26,68,239,42,28,47,010,42,29,22,080,38,31,47,325,42,1*61
$GPRMC,024241.79,A,2218.2843011,N,11410.7871673,E,5.86,122.20,271224,0.0,E,A*38
$GPGGA,024241.79,2218.2843011,N,11410.7871673,E,1,04,1.0,40.030,M,0.000,M,0.0,*45
$GPGSA,A,3,26,28,29,31,,,,,,,,,7.5,3.1,6.8,1*26
$GPGSV,1,1,04,26,68,239,42,28,47,010,42,29,22,080,38,31,47,325,42,1*61
$GPRMC,024241.89,A,2218.2807352,N,11410.7877150,E,2.99,14.42,271224,0.0,E,A*0A
$GPGGA,024241.89,2218.2807352,N,11410.7877150,E,1,04,1.0,31.808,M,0.000,M,0.0,*4B
$GPGSA,A,3,26,28,29,31,,,,,,,,,7.5,3.1,6.8,1*26
$GPGSV,1,1,04,26,68,239,42,28,47,010,42,29,22,080,39,31,47,325,42,1*60
$GPRMC,024241.99,A,2218.2825562,N,11410.7844868,E,9.04,45.25,271224,0.0,E,A*06
$GPGGA,024241.99,2218.2825562,N,11410.7844868,E,1,04,1.0,21.800,M,0.000,M,0.0,*44
$GPGSA,A,3,26,28,29,31,,,,,,,,,7.5,3.1,6.8,1*26
$GPGSV,1,1,04,26,68,239,42,28,47,010,42,29,22,080,38,31,47,325,42,1*61
$GPRMC,024242.09,A,2218.2829642,N,11410.7920630,E,2.64,64.83,271224,0.0,E,A*03
$GPGGA,024242.09,2218.2829642,N,11410.7920630,E,1,04,1.0,51.056,M,0.000,M,0.0,*4F
$GPGSA,A,3,26,28,29,31,,,,,,,,,7.5,3.1,6.8,1*26
$GPGSV,1,1,04,26,68,239,42,28,47,010,42,29,22,080,38,31,47,325,42,1*61
$GPRMC,024242.19,A,2218.2830279,N,11410.7901778,E,6.81,28.77,271224,0.0,E,A*04
$GPGGA,024242.19,2218.2830279,N,11410.7901778,E,1,04,1.0,38.980,M,0.000,M,0.0,*49
$GPGSA,A,3,26,28,29,31,,,,,,,,,7.5,3.1,6.8,1*26
$GPGSV,1,1,04,26,68,239,42,28,47,010,42,29,22,080,38,31,47,325,42,1*61
$GPRMC,024242.29,A,2218.2832267,N,11410.7885452,E,11.43,71.82,271224,0.0,E,A*32
$GPGGA,024242.29,2218.2832267,N,11410.7885452,E,1,04,1.0,30.512,M,0.000,M,0.0,*4E
$GPGSA,A,3,26,28,29,31,,,,,,,,,7.5,3.1,6.8,1*26
$GPGSV,1,1,04,26,68,239,42,28,47,010,42,29,22,080,38,31,47,325,42,1*61
$GPRMC,024242.39,A,2218.2814558,N,11410.7885377,E,13.29,299.82,271224,0.0,E,A*06
$GPGGA,024242.39,2218.2814558,N,11410.7885377,E,1,04,1.0,30.151,M,0.000,M,0.0,*43
$GPGSA,A,3,26,28,29,31,,,,,,,,,7.5,3.1,6.8,1*26
$GPGSV,1,1,04,26,68,239,42,28,47,010,42,29,22,080,38,31,47,325,42,1*61
$GPRMC,024242.49,A,2218.2766251,N,11410.7829974,E,13.21,251.52,271224,0.0,E,A*0B
$GPGGA,024242.49,2218.2766251,N,11410.7829974,E,1,04,1.0,-2.212,M,0.000,M,0.0,*57
$GPGSA,A,3,26,28,29,31,,,,,,,,,7.5,3.1,6.8,1*26
$GPGSV,1,1,04,26,68,239,42,28,47,010,42,29,22,080,38,31,47,325,42,1*61
$GPRMC,024242.59,A,2218.2802153,N,11410.7812870,E,10.90,305.83,271224,0.0,E,A*0E
$GPGGA,024242.59,2218.2802153,N,11410.7812870,E,1,04,1.0,-2.256,M,0.000,M,0.0,*57
$GPGSA,A,3,26,28,29,31,,,,,,,,,7.5,3.1,6.8,1*26
$GPGSV,1,1,04,26,68,239,42,28,47,010,42,29,22,080,39,31,47,325,42,1*60
$GPRMC,024242.69,A,2218.2819233,N,11410.7883966,E,2.74,213.23,271224,0.0,E,A*39
$GPGGA,024242.69,2218.2819233,N,11410.7883966,E,1,04,1.0,39.185,M,0.000,M,0.0,*4D
$GPGSA,A,3,26,28,29,31,,,,,,,,,7.5,3.1,6.8,1*26
$GPGSV,1,1,04,26,68,239,42,28,47,010,42,29,22,080,39,31,47,325,42,1*60
$GPRMC,024242.79,A,2218.2796462,N,11410.7881759,E,24.06,58.48,271224,0.0,E,A*33
$GPGGA,024242.79,2218.2796462,N,11410.7881759,E,1,04,1.0,38.021,M,0.000,M,0.0,*48
$GPGSA,A,3,26,28,29,31,,,,,,,,,7.5,3.1,6.8,1*26
$GPGSV,1,1,04,26,68,239,42,28,47,010,42,29,22,080,39,31,47,325,42,1*60
$GPRMC,024242.89,A,2218.2799644,N,11410.7873654,E,6.64,201.04,271224,0.0,E,A*36
$GPGGA,024242.89,2218.2799644,N,11410.7873654,E,1,04,1.0,41.411,M,0.000,M,0.0,*46
$GPGSA,A,3,26,28,29,31,,,,,,,,,7.5,3.1,6.8,1*26
$GPGSV,1,1,04,26,68,239,41,28,47,010,42,29,22,080,39,31,47,326,42,1*60
$GPRMC,024242.99,A,2218.2836908,N,11410.7901322,E,9.88,310.89,271224,0.0,E,A*33
$GPGGA,024242.99,2218.2836908,N,11410.7901322,E,1,04,1.0,43.641,M,0.000,M,0.0,*4F
$GPGSA,A,3,26,28,29,31,,,,,,,,,7.5,3.1,6.8,1*26
$GPGSV,1,1,04,26,68,239,42,28,47,010,42,29,22,080,39,31,47,326,42,1*63
$GPRMC,024243.09,A,2218.2831894,N,11410.7883251,E,5.59,226.05,271224,0.0,E,A*36
$GPGGA,024243.09,2218.2831894,N,11410.7883251,E,1,04,1.0,24.228,M,0.000,M,0.0,*40
$GPGSA,A,3,26,28,29,31,,,,,,,,,7.5,3.1,6.8,1*26
$GPGSV,1,1,04,26,68,239,41,28,47,010,41,29,22,080,39,31,47,326,42,1*63
$GPRMC,024243.19,A,2218.2805555,N,11410.7856298,E,12.90,259.06,271224,0.0,E,A*05
$GPGGA,024243.19,2218.2805555,N,11410.7856298,E,1,04,1.0,16.170,M,0.000,M,0.0,*44
$GPGSA,A,3,26,28,29,31,,,,,,,,,7.5,3.1,6.8,1*26
$GPGSV,1,1,04,26,68,239,42,28,47,010,42,29,22,080,39,31,47,326,42,1*63
$GPRMC,024243.29,A,2218.2809103,N,11410.7874290,E,7.31,219.87,271224,0.0,E,A*37
$GPGGA,024243.29,2218.2809103,N,11410.7874290,E,1,04,1.0,26.138,M,0.000,M,0.0,*4B
$GPGSA,A,3,26,28,29,31,,,,,,,,,7.5,3.1,6.8,1*26
$GPGSV,1,1,04,26,68,239,42,28,47,010,42,29,22,080,39,31,47,326,42,1*63
$GPRMC,024243.39,A,2218.2821505,N,11410.7849191,E,7.55,100.77,271224,0.0,E,A*34
$GPGGA,024243.39,2218.2821505,N,11410.7849191,E,1,04,1.0,11.572,M,0.000,M,0.0,*40
$GPGSA,A,3,26,28,29,31,,,,,,,,,7.5,3.1,6.8,1*26
$GPGSV,1,1,04,26,68,239,42,28,47,010,42,29,22,080,39,31,47,326,42,1*63
$GPRMC,024243.49,A,2218.2813160,N,11410.7864835,E,4.24,209.24,271224,0.0,E,A*34
$GPGGA,024243.49,2218.2813160,N,11410.7864835,E,1,04,1.0,30.934,M,0.000,M,0.0,*44
$GPGSA,A,3,26,28,29,31,,,,,,,,,7.5,3.1,6.8,1*26
$GPGSV,1,1,04,26,68,239,42,28,47,010,41,29,22,080,39,31,47,326,42,1*60
$GPRMC,024243.59,A,2218.2824416,N,11410.7859980,E,2.63,165.92,271224,0.0,E,A*35
$GPGGA,024243.59,2218.2824416,N,11410.7859980,E,1,04,1.0,22.855,M,0.000,M,0.0,*41
$GPGSA,A,3,26,28,29,31,,,,,,,,,7.5,3.1,6.8,1*26
$GPGSV,1,1,04,26,68,239,42,28,47,010,41,29,22,080,38,31,47,326,42,1*61
$GPRMC,024243.69,A,2218.2812392,N,11410.7880889,E,1.14,165.92,271224,0.0,E,A*37
$GPGGA,024243.69,2218.2812392,N,11410.7880889,E,1,04,1.0,23.857,M,0.000,M,0.0,*43
$GPGSA,A,3,26,28,29,31,,,,,,,,,7.5,3.1,6.8,1*26
$GPGSV,1,1,04,26,68,239,42,28,47,010,42,29,22,080,39,31,47,326,42,1*63
$GPRMC,024243.79,A,2218.2802744,N,11410.7895808,E,21.49,66.11,271224,0.0,E,A*36
$GPGGA,024243.79,2218.2802744,N,11410.7895808,E,1,04,1.0,14.604,M,0.000,M,0.0,*4D
$GPGSA,A,3,26,28,29,31,,,,,,,,,7.5,3.1,6.8,1*26
$GPGSV,1,1,04,26,68,239,42,28,47,010,42,29,22,080,38,31,47,326,42,1*62
$GPRMC,024243.89,A,2218.2794163,N,11410.7887647,E,6.47,250.83,271224,0.0,E,A*3B
$GPGGA,024243.89,2218.2794163,N,11410.7887647,E,1,04,1.0,23.216,M,0.000,M,0.0,*44
$GPGSA,A,3,26,28,29,31,,,,,,,,,7.5,3.1,6.8,1*26
$GPGSV,1,1,04,26,68,239,42,28,47,010,42,29,22,080,38,31,47,326,42,1*62
$GPRMC,024243.99,A,2218.2784212,N,11410.7873072,E,5.38,178.06,271224,0.0,E,A*3A
$GPGGA,024243.99,2218.2784212,N,11410.7873072,E,1,04,1.0,11.000,M,0.000,M,0.0,*4E
$GPGSA,A,3,26,28,29,31,,,,,,,,,7.5,3.1,6.8,1*26
$GPGSV,1,1,04,26,68,239,42,28,47,010,42,29,22,080,38,31,47,326,42,1*62
$GPRMC,024244.09,A,2218.2813547,N,11410.7861280,E,10.91,58.82,271224,0.0,E,A*36
$GPGGA,024244.09,2218.2813547,N,11410.7861280,E,1,04,1.0,19.266,M,0.000,M,0.0,*40
$GPGSA,A,3,26,28,29,31,,,,,,,,,7.5,3.1,6.8,1*26
$GPGSV,1,1,04,26,68,239,42,28,47,010,42,29,22,080,39,31,47,326,42,1*63
$GPRMC,024244.19,A,2218.2819252,N,11410.7909855,E,8.74,205.89,271224,0.0,E,A*30
$GPGGA,024244.19,2218.2819252,N,11410.7909855,E,1,04,1.0,39.994,M,0.000,M,0.0,*41
$GPGSA,A,3,26,28,29,31,,,,,,,,,7.5,3.1,6.8,1*26
$GPGSV,1,1,04,26,68,239,42,28,47,010,42,29,22,080,39,31,47,326,42,1*63
$GPRMC,024244.29,A,2218.2830287,N,11410.7858652,E,2.17,206.14,271224,0.0,E,A*34
$GPGGA,024244.29,2218.2830287,N,11410.7858652,E,1,04,1.0,18.830,M,0.000,M,0.0,*41
$GPGSA,A,3,26,28,29,31,,,,,,,,,7.5,3.1,6.8,1*26
$GPGSV,1,1,04,26,68,239,42,28,47,010,42,29,22,080,39,31,47,326,42,1*63
$GPRMC,024244.39,A,2218.2828083,N,11410.7903296,E,16.67,72.89,271224,0.0,E,A*3E
$GPGGA,024244.39,2218.2828083,N,11410.7903296,E,1,04,1.0,23.380,M,0.000,M,0.0,*44
$GPGSA,A,3,26,28,29,31,,,,,,,,,7.5,3.1,6.8,1*26
$GPGSV,1,1,04,26,68,239,42,28,47,010,42,29,22,080,39,31,47,326,42,1*63
$GPRMC,024244.49,A,2218.2816033,N,11410.7919236,E,5.56,333.33,271224,0.0,E,A*39
$GPGGA,024244.49,2218.2816033,N,11410.7919236,E,1,04,1.0,37.803,M,0.000,M,0.0,*41
$GPGSA,A,3,26,28,29,31,,,,,,,,,7.5,3.1,6.8,1*26
$GPGSV,1,1,04,26,68,239,42,28,47,010,42,29,22,080,39,31,47,326,42,1*63
$GPRMC,024244.59,A,2218.2864639,N,11410.7955496,E,2.65,140.67,271224,0.0,E,A*35
$GPGGA,024244.59,2218.2864639,N,11410.7955496,E,1,04,1.0,63.399,M,0.000,M,0.0,*44
$GPGSA,A,3,26,28,29,31,,,,,,,,,7.5,3.1,6.8,1*26
$GPGSV,1,1,04,26,68,239,42,28,47,010,42,29,22,080,39,31,47,326,42,1*63
$GPRMC,024244.69,A,2218.2824536,N,11410.7903231,E,10.39,230.75,271224,0.0,E,A*0B
$GPGGA,024244.69,2218.2824536,N,11410.7903231,E,1,04,1.0,34.382,M,0.000,M,0.0,*4F
$GPGSA,A,3,26,28,29,31,,,,,,,,,7.5,3.1,6.8,1*26
$GPGSV,1,1,04,26,68,239,42,28,47,010,42,29,22,080,39,31,47,326,42,1*63
$GPRMC,024244.79,A,2218.2818482,N,11410.7936347,E,10.58,88.71,271224,0.0,E,A*3F
$GPGGA,024244.79,2218.2818482,N,11410.7936347,E,1,04,1.0,52.652,M,0.000,M,0.0,*41
$GPGSA,A,3,26,28,29,31,,,,,,,,,7.5,3.1,6.8,1*26
$GPGSV,1,1,04,26,68,239,42,28,47,010,42,29,22,080,39,31,47,326,42,1*63
$GPRMC,024244.89,A,2218.2826172,N,11410.7917474,E,12.27,59.93,271224,0.0,E,A*39
$GPGGA,024244.89,2218.2826172,N,11410.7917474,E,1,04,1.0,38.614,M,0.000,M,0.0,*43
$GPGSA,A,3,26,28,29,31,,,,,,,,,7.5,3.1,6.8,1*26
$GPGSV,1,1,04,26,68,239,42,28,47,010,42,29,22,080,39,31,47,326,42,1*63
$GPRMC,024244.99,A,2218.2794743,N,11410.7878850,E,6.46,109.77,271224,0.0,E,A*34
$GPGGA,024244.99,2218.2794743,N,11410.7878850,E,1,04,1.0,28.377,M,0.000,M,0.0,*43
$GPGSA,A,3,26,28,29,31,,,,,,,,,7.5,3.1,6.8,1*26
$GPGSV,1,1,04,26,68,239,42,28,47,010,42,29,22,080,39,31,47,326,42,1*63
$GPRMC,024245.09,A,2218.2804922,N,11410.7878899,E,11.30,268.41,271224,0.0,E,A*00
$GPGGA,024245.09,2218.2804922,N,11410.7878899,E,1,04,1.0,25.365,M,0.000,M,0.0,*4F
$GPGSA,A,3,26,28,29,31,,,,,,,,,7.5,3.1,6.8,1*26
$GPGSV,1,1,04,26,68,239,41,28,47,010,42,29,22,080,39,31,47,326,42,1*60
$GPRMC,024245.19,A,2218.2810284,N,11410.7863692,E,15.74,120.46,271224,0.0,E,A*00
$GPGGA,024245.19,2218.2810284,N,11410.7863692,E,1,04,1.0,23.670,M,0.000,M,0.0,*44
