     3.02           OBSERVATION DATA    G                   RINEX VERSION / TYPE
G = GPS  R = GLONASS  E = GALILEO  S = GEO  M = MIXED       COMMENT             
GNSS-SDR            tagsys-g1           20241227 030736 UTC PGM / RUN BY / DATE 
GPS OBSERVATION DATA FILE GENERATED BY GNSS-SDR             COMMENT             
GNSS-SDR VERSION 0.0.19.git-next-dc55847ae                  COMMENT             
See https://gnss-sdr.org                                    COMMENT             
DEFAULT MARKER NAME                                         MARKER NAME         
tagsys-g1           CTTC                                    OBSERVER / AGENCY   
GNSS-SDR            Software Receiver   0.0.19.gi           REC # / TYPE / VERS 
Antenna number      Antenna type                            ANT # / TYPE        
        0.0000        0.0000        0.0000                  APPROX POSITION XYZ 
        0.0000        0.0000        0.0000                  ANTENNA: DELTA H/E/N
G    4 C1C L1C D1C S1C                                      SYS / # / OBS TYPES 
DBHZ                                                        SIGNAL STRENGTH UNIT
  2024    12    27    02    42   42.1800000     GPS         TIME OF FIRST OBS   
                                                            END OF HEADER       
> 2024 12 27 02 42 43.0000000  0  4                                             
G32  25062814.230 7 131705957.284 7      -422.498 7        45.366               
G26  24391873.159 7 128180151.899 7      1114.163 7        43.294               
G31  25437445.248 6 133674664.112 6       209.256 6        41.555               
G29  27821156.472 6 146201165.918 6       284.836 6        40.595               
> 2024 12 27 02 42 44.0000000  0  4                                             
G32  25062890.585 7 131706380.138 7      -423.527 7        45.287               
G26  24391657.927 7 128179033.458 7      1114.062 7        42.706               
G31  25437401.522 7 133674458.280 7       203.202 7        42.200               
G29  27821100.614 6 146200878.927 6       288.454 6        40.427               
> 2024 12 27 02 42 45.0000000  0  4                                             
G32  25062971.049 7 131706803.480 7      -421.041 7        45.294               
G26  24391444.964 7 128177915.653 7      1117.763 7        42.593               
G31  25437367.357 7 133674252.616 7       205.702 7        42.208               
G29  27821047.525 6 146200592.452 6       282.553 6        39.749               
> 2024 12 27 02 42 46.0000000  0  4                                             
G32  25063051.531 7 131707227.281 7      -422.419 7        44.944               
G26  24391228.034 7 128176798.385 7      1118.010 7        42.299               
G31  25437326.026 6 133674047.079 6       203.926 6        41.833               
G29  27820984.965 6 146200306.435 6       287.144 6        39.505               
> 2024 12 27 02 42 47.0000000  0  4                                             
G32  25063134.318 7 131707651.504 7      -420.793 7        45.192               
G26  24391014.142 7 128175681.732 7      1115.439 7        42.406               
G31  25437285.016 6 133673841.679 6       204.618 6        41.900               
G29  27820932.323 6 146200020.937 6       289.060 6        39.452               
> 2024 12 27 02 42 48.0000000  0  5                                             
G32  25063214.854 7 131708076.211 7      -425.877 7        44.575               
G26  24390804.342 6 128174565.621 6      1115.199 6        41.894               
G31  25437248.171 6 133673636.416 6       207.817 6        41.705               
G28  25781793.311 7 135484239.252 7      -619.033 7        42.985               
G29  27820876.590 6 146199735.921 6       286.152 6        39.680               
> 2024 12 27 02 42 49.0000000  0  5                                             
G32  25063290.726 7 131708501.372 7      -428.060 7        43.988               
G26  24390591.075 7 128173450.122 7      1116.550 7        42.203               
G31  25437214.380 6 133673431.292 6       206.044 6        41.243               
G28  25781913.623 7 135484857.562 7      -619.286 7        43.317               
G29  27820821.285 6 146199451.400 6       279.013 6        39.658               
> 2024 12 27 02 42 50.0000000  0  5                                             
G32  25063375.336 7 131708926.992 7      -425.877 7        43.979               
G26  24390384.044 6 128172335.195 6      1118.216 6        41.596               
G31  25437171.405 6 133673226.305 6       207.066 6        41.522               
G28  25782031.201 7 135485475.936 7      -616.618 7        43.351               
G29  27820766.284 6 146199167.356 6       282.043 6        39.780               
> 2024 12 27 02 42 51.0000000  0  5                                             
G32  25063454.299 7 131709353.039 7      -427.014 7        43.749               
G26  24390169.169 6 128171220.818 6      1114.674 6        41.941               
G31  25437130.146 6 133673021.421 6       209.019 6        41.408               
G28  25782149.994 7 135486094.319 7      -617.584 7        43.388               
G29  27820708.246 6 146198883.800 6       278.125 6        39.982               
> 2024 12 27 02 42 52.0000000  0  5                                             
G32  25063535.246 7 131709779.528 7      -424.947 7        44.127               
G26  24389958.083 6 128170107.026 6      1113.403 6        41.807               
G31  25437095.283 6 133672816.700 6       203.431 6        41.377               
G28  25782268.251 7 135486712.742 7      -623.108 7        43.747               
G29  27820659.767 6 146198600.734 6       282.900 6        40.168               
> 2024 12 27 02 42 53.0000000  0  5                                             
G32  25063616.282 7 131710206.467 7      -430.382 7        43.896               
G26  24389748.032 6 128168993.791 6      1113.600 6        41.226               
G31  25437057.365 6 133672612.067 6       206.217 6        41.075               
G28  25782387.063 7 135487331.177 7      -615.030 7        43.602               
G29  27820610.931 6 146198318.132 6       284.326 6        39.991               
> 2024 12 27 02 42 54.0000000  0  5                                             
G32  25063701.570 7 131710633.867 7      -423.932 7        44.116               
G26  24389531.227 6 128167881.137 6      1112.749 6        41.883               
G31  25437014.068 6 133672407.594 6       203.465 6        41.519               
G28  25782500.477 7 135487949.672 7      -622.072 7        43.621               
G29  27820552.964 6 146198036.032 6       283.047 6        40.081               
> 2024 12 27 02 42 55.0000000  0  5                                             
G32  25063782.535 7 131711061.705 7      -427.006 7        44.178               
G26  24389316.317 6 128166769.069 6      1113.906 6        41.665               
G31  25436980.385 6 133672203.259 6       202.889 6        41.762               
G28  25782620.057 7 135488568.190 7      -614.951 7        44.126               
G29  27820506.987 6 146197754.426 6       280.394 6        40.335               
> 2024 12 27 02 42 56.0000000  0  5                                             
G32  25063865.179 7 131711490.038 7      -430.691 7        44.211               
G26  24389106.409 6 128165657.589 6      1112.640 6        41.587               
G31  25436943.682 7 133671999.063 7       206.641 7        42.231               
G28  25782736.759 7 135489186.788 7      -617.545 7        44.067               
G29  27820454.505 6 146197473.301 6       277.268 6        40.876               
> 2024 12 27 02 42 57.0000000  0  5                                             
G32  25063947.091 7 131711918.792 7      -426.270 7        43.732               
G26  24388893.303 6 128164546.698 6      1106.174 6        41.775               
G31  25436905.711 7 133671795.004 7       200.765 7        42.016               
G28  25782852.533 7 135489805.396 7      -621.592 7        43.897               
G29  27820402.042 6 146197192.682 6       282.549 6        40.956               
> 2024 12 27 02 42 58.0000000  0  5                                             
G32  25064030.789 7 131712348.037 7      -433.534 7        44.580               
G26  24388682.306 6 128163436.378 6      1104.916 6        41.814               
G31  25436865.237 6 133671591.075 6       206.945 6        41.761               
G28  25782971.558 7 135490424.060 7      -619.648 7        43.621               
G29  27820349.203 6 146196912.539 6       280.775 6        40.834               
> 2024 12 27 02 42 59.0000000  0  5                                             
G32  25064114.023 7 131712777.723 7      -428.448 7        44.246               
G26  24388468.342 6 128162326.638 6      1109.430 6        40.939               
G31  25436831.411 7 133671387.308 7       207.037 7        42.312               
G28  25783089.136 7 135491042.767 7      -617.709 7        43.928               
G29  27820290.039 6 146196632.929 6       279.961 6        40.739               
> 2024 12 27 02 43 00.0000000  0  5                                             
G32  25064194.202 7 131713207.859 7      -426.097 7        43.936               
G26  24388262.348 6 128161217.485 6      1109.888 6        41.352               
G31  25436783.790 7 133671183.667 7       200.522 7        42.322               
G28  25783204.445 7 135491661.523 7      -616.338 7        43.734               
G29  27820243.490 6 146196353.766 6       278.461 6        40.601               
> 2024 12 27 02 43 01.0000000  0  5                                             
G32  25064278.418 7 131713638.462 7      -433.310 7        44.035               
G26  24388046.633 6 128160108.908 6      1092.118 6        40.755               
G31  25436746.355 7 133670980.161 7       201.318 7        42.038               
G28  25783323.292 7 135492280.288 7      -617.022 7        43.531               
G29  27820184.004 6 146196075.125 6       282.805 6        41.073               
> 2024 12 27 02 43 02.0000000  0  5                                             
G32  25064358.650 7 131714069.523 7      -430.228 7        44.536               
G26  24387838.084 6 128159000.900 6      1108.041 6        40.917               
G31  25436706.346 6 133670776.791 6       196.919 6        41.286               
G28  25783441.674 7 135492899.132 7      -619.166 7        43.071               
G29  27820124.429 6 146195796.979 6       282.036 6        40.857               
> 2024 12 27 02 43 03.0000000  0  5                                             
G32  25064441.205 7 131714501.040 7      -433.720 7        44.511               
G26  24387627.355 6 128157893.465 6      1105.549 6        40.376               
G31  25436666.141 6 133670573.564 6       204.306 6        41.396               
G28  25783558.234 7 135493518.003 7      -621.423 7        43.208               
G29  27820078.648 6 146195519.308 6       275.873 6        40.713               
> 2024 12 27 02 43 04.0000000  0  5                                             
G32  25064520.168 7 131714932.987 7      -430.433 7        44.604               
G26  24387419.574 6 128156786.628 6      1105.999 6        40.047               
G31  25436626.704 6 133670370.469 6       201.520 6        41.862               
G28  25783678.975 7 135494136.901 7      -618.736 7        43.412               
G29  27820021.485 6 146195242.117 6       278.283 6        41.322               
> 2024 12 27 02 43 05.0000000  0  5                                             
G32  25064606.851 7 131715365.391 7      -433.921 7        45.089               
G26  24387205.896 6 128155680.327 6      1103.909 6        40.640               
G31  25436592.985 7 133670167.464 7       204.920 7        42.136               
G28  25783796.267 7 135494755.818 7      -617.149 7        43.267               
G29  27819972.703 6 146194965.420 6       268.739 6        41.048               
> 2024 12 27 02 43 06.0000000  0  5                                             
G32  25064688.280 7 131715798.232 7      -431.088 7        44.597               
G26  24386998.526 6 128154574.633 6      1097.375 6        41.091               
G31  25436550.153 7 133669964.619 7       199.790 7        42.167               
G28  25783916.454 7 135495374.769 7      -621.866 7        43.377               
G29  27819917.791 6 146194689.215 6       275.551 6        40.989               
> 2024 12 27 02 43 07.0000000  0  5                                             
G32  25064770.781 7 131716231.529 7      -434.053 7        43.704               
G26  24386789.405 6 128153469.516 6      1098.756 6        40.592               
G31  25436510.484 7 133669761.920 7       198.607 7        42.213               
G28  25784028.368 7 135495993.790 7      -618.348 7        43.404               
G29  27819862.433 6 146194413.480 6       277.387 6        41.093               
> 2024 12 27 02 43 08.0000000  0  5                                             
G32  25064853.551 7 131716665.308 7      -434.457 7        43.541               
G26  24386576.924 6 128152364.968 6      1106.245 6        40.865               
G31  25436471.779 7 133669559.356 7       203.526 7        42.311               
G28  25784147.465 7 135496612.847 7      -621.231 7        42.899               
G29  27819813.168 6 146194138.271 6       275.524 6        41.024               
> 2024 12 27 02 43 09.0000000  0  5                                             
G32  25064937.338 7 131717099.530 7      -433.971 7        44.203               
G26  24386367.481 6 128151261.036 6      1101.703 6        41.062               
G31  25436433.057 7 133669356.938 7       202.495 7        42.248               
G28  25784265.115 7 135497231.944 7      -615.785 7        42.729               
G29  27819757.935 6 146193863.551 6       277.724 6        40.360               
> 2024 12 27 02 43 10.0000000  0  5                                             
G32  25065022.592 7 131717534.226 7      -435.053 7        44.587               
G26  24386157.985 6 128150157.639 6      1111.415 6        41.079               
G31  25436395.461 7 133669154.675 7       204.789 7        42.077               
G28  25784379.887 7 135497851.099 7      -618.840 7        42.586               
G29  27819709.546 6 146193589.320 6       277.855 6        40.698               
> 2024 12 27 02 43 11.0000000  0  5                                             
G32  25065107.630 7 131717969.374 7      -435.431 7        45.165               
G26  24385950.114 6 128149054.854 6      1099.486 6        41.271               
G31  25436356.614 7 133668952.546 7       202.502 7        42.159               
G28  25784497.358 7 135498470.278 7      -616.108 7        42.940               
G29  27819652.508 6 146193315.584 6       271.158 6        40.925               
> 2024 12 27 02 43 12.0000000  0  5                                             
G32  25065189.846 7 131718404.975 7      -436.337 7        44.564               
G26  24385738.760 6 128147952.641 6      1104.648 6        40.916               
G31  25436319.589 6 133668750.526 6       205.646 6        41.786               
G28  25784617.242 7 135499089.500 7      -621.985 7        42.376               
G29  27819596.917 6 146193042.359 6       270.380 6        40.930               
> 2024 12 27 02 43 13.0000000  0  5                                             
G32  25065269.327 7 131718841.021 7      -439.993 7        44.641               
G26  24385524.403 6 128146850.997 6      1106.600 6        40.498               
G31  25436283.386 7 133668548.675 7       203.190 7        42.070               
G28  25784732.282 7 135499708.764 7      -618.368 7        42.648               
G29  27819546.384 6 146192769.581 6       271.083 6        40.726               
> 2024 12 27 02 43 14.0000000  0  5                                             
G32  25065353.168 7 131719277.520 7      -435.858 7        44.247               
G26  24385319.409 6 128145749.934 6      1102.334 6        39.928               
G31  25436237.910 6 133668346.934 6       192.003 6        41.805               
G28  25784851.004 7 135500328.044 7      -618.366 7        42.258               
G29  27819498.709 6 146192497.305 6       272.489 6        41.008               
> 2024 12 27 02 43 15.0000000  0  5                                             
G32  25065439.315 7 131719714.460 7      -434.588 7        44.406               
G26  24385109.627 6 128144649.414 6      1105.249 6        40.535               
G31  25436199.134 7 133668145.298 7       204.841 7        42.060               
G28  25784969.261 7 135500947.370 7      -612.885 7        42.167               
G29  27819442.869 6 146192225.493 6       271.126 6        40.858               
> 2024 12 27 02 43 16.0000000  0  5                                             
G32  25065518.886 7 131720151.871 7      -441.893 7        44.266               
G26  24384903.401 6 128143549.497 6      1104.250 6        40.192               
G31  25436160.161 6 133667943.840 6       202.935 6        41.434               
G28  25785084.266 7 135501566.729 7      -619.140 7        42.170               
G29  27819386.581 6 146191954.215 6       277.010 6        40.833               
> 2024 12 27 02 43 17.0000000  0  5                                             
G32  25065597.581 7 131720589.713 7      -439.481 7        43.987               
G26  24384689.866 6 128142450.138 6      1106.926 6        40.561               
G31  25436122.226 6 133667742.495 6       194.646 6        41.677               
G28  25785204.722 6 135502186.129 6      -620.504 6        41.756               
G29  27819341.140 6 146191683.397 6       266.317 6        41.254               
> 2024 12 27 02 43 18.0000000  0  5                                             
G32  25065683.317 7 131721028.135 7      -436.291 7        43.830               
G26  24384477.278 6 128141351.474 6      1099.892 6        39.399               
G31  25436080.448 6 133667541.399 6       201.573 6        41.831               
G28  25785325.284 6 135502805.680 6      -622.209 6        41.885               
G29  27819285.425 6 146191413.189 6       271.588 6        41.453               
> 2024 12 27 02 43 19.0000000  0  5                                             
G32  25065761.904 7 131721467.128 7      -438.250 7        43.688               
G26  24384270.855 6 128140253.527 6      1100.957 6        38.950               
G31  25436039.724 6 133667340.556 6       200.517 6        41.384               
G28  25785439.092 6 135503425.377 6      -616.978 6        41.412               
G29  27819239.305 6 146191143.585 6       263.952 6        41.135               
> 2024 12 27 02 43 20.0000000  0  5                                             
G32  25065844.995 7 131721906.588 7      -437.171 7        43.732               
G26  24384058.089 6 128139156.136 6      1104.123 6        38.805               
G31  25436004.737 7 133667139.867 7       204.312 7        42.045               
G28  25785557.974 6 135504045.148 6      -621.629 6        41.245               
G29  27819190.754 6 146190874.501 6       265.244 6        40.797               
> 2024 12 27 02 43 21.0000000  0  5                                             
G32  25065929.444 7 131722346.499 7      -440.526 7        43.153               
G26  24383847.341 6 128138059.369 6      1099.252 6        38.768               
G31  25435967.337 6 133666939.314 6       199.308 6        41.408               
G28  25785676.678 6 135504664.951 6      -620.911 6        41.178               
G29  27819138.773 6 146190605.899 6       268.047 6        41.564               
> 2024 12 27 02 43 22.0000000  0  5                                             
G32  25066016.502 7 131722786.864 7      -440.086 7        42.815               
G26  24383645.153 6 128136963.137 6      1102.076 6        38.492               
G31  25435921.396 6 133666738.875 6       200.565 6        41.583               
G28  25785791.647 6 135505284.773 6      -613.474 6        41.246               
G29  27819089.294 7 146190337.766 7       267.082 7        42.483               
> 2024 12 27 02 43 23.0000000  0  5                                             
G32  25066103.185 7 131723227.681 7      -441.927 7        42.590               
G26  24383428.563 6 128135867.509 6      1095.206 6        39.267               
G31  25435885.658 6 133666538.584 6       205.304 6        41.784               
G28  25785913.782 6 135505904.649 6      -618.203 6        41.393               
G29  27819044.568 7 146190070.126 7       266.009 7        42.218               
> 2024 12 27 02 43 24.0000000  0  5                                             
G32  25066183.667 7 131723668.938 7      -436.690 7        42.950               
G26  24383231.646 6 128134772.432 6      1102.404 6        39.519               
G31  25435851.742 6 133666338.424 6       204.847 6        41.756               
G28  25786023.659 6 135506524.557 6      -623.937 6        41.694               
G29  27818988.173 7 146189802.979 7       270.589 7        42.179               
> 2024 12 27 02 43 25.0000000  0  5                                             
G32  25066263.559 7 131724110.659 7      -445.400 7        43.434               
G26  24383015.127 6 128133677.911 6      1091.612 6        39.794               
G31  25435812.448 7 133666138.381 7       205.599 7        42.060               
G28  25786142.667 6 135507144.473 6      -620.403 6        41.273               
G29  27818940.302 7 146189536.319 7       265.975 7        42.012               
> 2024 12 27 02 43 26.0000000  0  5                                             
G32  25066350.689 7 131724552.850 7      -441.508 7        43.344               
G26  24382810.384 6 128132583.991 6      1098.959 6        39.620               
G31  25435776.156 6 133665938.509 6       201.812 6        41.752               
G28  25786265.784 6 135507764.455 6      -621.749 6        41.341               
G29  27818891.002 6 146189270.154 6       262.239 6        41.847               
> 2024 12 27 02 43 27.0000000  0  5                                             
G32  25066434.780 7 131724995.476 7      -446.497 7        43.352               
G26  24382591.721 6 128131490.657 6      1095.497 6        39.498               
G31  25435737.595 6 133665738.754 6       195.234 6        41.695               
G28  25786386.686 6 135508384.472 6      -618.137 6        41.885               
G29  27818833.839 7 146189004.491 7       266.586 7        42.084               
> 2024 12 27 02 43 28.0000000  0  5                                             
G32  25066517.014 7 131725438.561 7      -442.127 7        43.165               
G26  24382396.627 6 128130397.875 6      1091.863 6        39.274               
G31  25435694.209 6 133665539.125 6       200.252 6        41.551               
G28  25786501.620 7 135509004.516 7      -619.439 7        42.100               
G29  27818783.716 6 146188739.294 6       265.278 6        41.513               
> 2024 12 27 02 43 29.0000000  0  5                                             
G32  25066599.283 7 131725882.095 7      -441.463 7        43.531               
G26  24382184.218 6 128129305.703 6      1094.137 6        39.027               
G31  25435659.793 6 133665339.674 6       198.178 6        40.667               
G28  25786619.573 7 135509624.612 7      -620.783 7        42.960               
G29  27818733.576 6 146188474.597 6       259.198 6        41.675               
> 2024 12 27 02 43 30.0000000  0  5                                             
G32  25066683.839 7 131726326.131 7      -448.679 7        42.039               
G26  24381972.684 6 128128214.139 6      1087.292 6        38.738               
G31  25435621.035 7 133665140.325 7       197.005 7        42.051               
G28  25786740.582 7 135510244.770 7      -621.186 7        42.075               
G29  27818679.647 6 146188210.422 6       268.184 6        40.874               
> 2024 12 27 02 43 31.0000000  0  5                                             
G32  25066763.392 7 131726770.564 7      -443.573 7        42.649               
G26  24381767.083 6 128127123.075 6      1090.317 6        38.930               
G31  25435581.384 6 133664941.093 6       201.776 6        40.423               
G28  25786855.426 7 135510864.939 7      -620.995 7        42.115               
G29  27818629.774 6 146187946.732 6       262.953 6        41.401               
> 2024 12 27 02 43 32.0000000  0  5                                             
G32  25066851.093 7 131727215.489 7      -445.789 7        42.437               
G26  24381558.927 6 128126032.648 6      1097.989 6        38.736               
G31  25435543.716 6 133664742.028 6       197.728 6        40.690               
G28  25786976.328 7 135511485.141 7      -615.919 7        42.046               
G29  27818580.313 6 146187683.534 6       261.111 6        41.269               
> 2024 12 27 02 43 33.0000000  0  5                                             
G32  25066935.792 7 131727660.830 7      -442.973 7        42.565               
G26  24381350.646 6 128124942.780 6      1095.430 6        38.619               
G31  25435505.190 6 133664543.083 6       193.705 6        41.118               
G28  25787090.761 6 135512105.408 6      -621.593 6        41.959               
G29  27818525.598 6 146187420.815 6       266.009 6        40.852               
> 2024 12 27 02 43 34.0000000  0  5                                             
G32  25067017.436 7 131728106.641 7      -446.713 7        42.100               
G26  24381132.268 6 128123853.471 6      1093.313 6        38.591               
G31  25435471.168 6 133664344.257 6       198.574 6        41.146               
G28  25787210.502 7 135512725.667 7      -621.920 7        42.595               
G29  27818478.459 6 146187158.592 6       266.514 6        41.136               
> 2024 12 27 02 43 35.0000000  0  5                                             
G32  25067112.124 7 131728552.881 7      -451.085 7        42.438               
G26  24380936.388 6 128122764.721 6      1093.535 6        38.171               
G31  25435432.767 6 133664145.550 6       196.987 6        40.950               
G28  25787333.673 7 135513345.973 7      -623.844 7        42.499               
G29  27818424.263 6 146186896.841 6       263.796 6        41.231               
> 2024 12 27 02 43 36.0000000  0  5                                             
G32  25067196.412 7 131728999.567 7      -445.151 7        43.010               
G26  24380722.889 6 128121676.588 6      1081.413 6        37.513               
G31  25435395.564 6 133663946.974 6       200.623 6        41.265               
G28  25787451.126 7 135513966.296 7      -618.312 7        42.456               
G29  27818373.461 6 146186635.574 6       256.464 6        41.010               
> 2024 12 27 02 43 37.0000000  0  5                                             
G32  25067285.400 7 131729446.713 7      -449.018 7        42.934               
G26  24380521.005 6 128120588.982 6      1083.753 6        38.311               
G31  25435364.007 6 133663748.512 6       202.768 6        41.509               
G28  25787569.043 7 135514586.658 7      -623.219 7        42.303               
G29  27818332.595 6 146186374.781 6       262.352 6        41.604               
> 2024 12 27 02 43 38.0000000  0  5                                             
G32  25067372.833 7 131729894.327 7      -448.370 7        43.397               
G26  24380314.028 6 128119501.931 6      1084.104 6        37.580               
G31  25435324.642 6 133663550.202 6       197.016 6        41.560               
G28  25787688.158 7 135515207.062 7      -620.089 7        42.430               
G29  27818280.471 6 146186114.474 6       261.673 6        41.424               
> 2024 12 27 02 43 39.0000000  0  5                                             
G32  25067461.266 7 131730342.413 7      -453.008 7        43.792               
G26  24380104.228 6 128118415.526 6      1081.840 6        37.902               
G31  25435291.030 6 133663352.053 6       197.935 6        41.450               
G28  25787802.395 7 135515827.534 7      -624.456 7        42.979               
G29  27818231.635 6 146185854.696 6       259.296 6        41.802               
> 2024 12 27 02 43 40.0000000  0  5                                             
G32  25067546.895 7 131730790.944 7      -449.461 7        43.690               
G26  24379902.147 6 128117329.687 6      1087.208 6        38.411               
G31  25435251.682 6 133663154.042 6       199.231 6        41.604               
G28  25787922.832 7 135516448.041 7      -624.242 7        42.931               
G29  27818186.355 7 146185595.423 7       255.558 7        42.301               
> 2024 12 27 02 43 41.0000000  0  5                                             
G32  25067630.558 7 131731239.937 7      -447.286 7        43.798               
G26  24379699.655 6 128116244.396 6      1094.601 6        38.763               
G31  25435214.979 7 133662956.163 7       199.466 7        42.037               
G28  25788040.678 7 135517068.557 7      -613.848 7        42.822               
G29  27818139.931 7 146185336.600 7       259.017 7        42.265               
> 2024 12 27 02 43 42.0000000  0  5                                             
G32  25067714.506 7 131731689.372 7      -448.349 7        44.272               
G26  24379497.628 6 128115159.701 6      1083.766 6        38.833               
G31  25435176.311 6 133662758.379 6       198.464 6        41.988               
G28  25788156.130 7 135517689.131 7      -624.022 7        42.292               
G29  27818083.268 7 146185078.279 7       261.257 7        42.475               
> 2024 12 27 02 43 43.0000000  0  5                                             
G32  25067797.865 7 131732139.259 7      -453.559 7        43.814               
G26  24379286.327 6 128114075.586 6      1094.351 6        38.463               
G31  25435139.519 7 133662560.758 7       194.815 7        42.040               
G28  25788276.121 7 135518309.730 7      -615.201 7        42.379               
G29  27818039.042 7 146184820.443 7       257.544 7        42.805               
> 2024 12 27 02 43 44.0000000  0  5                                             
G32  25067879.116 7 131732589.612 7      -447.621 7        44.110               
G26  24379085.658 6 128112992.075 6      1082.349 6        38.348               
G31  25435099.653 7 133662363.288 7       198.074 7        42.145               
G28  25788395.861 7 135518930.373 7      -618.438 7        42.496               
G29  27817990.742 7 146184563.123 7       252.019 7        42.484               
> 2024 12 27 02 43 45.0000000  0  5                                             
G32  25067964.851 7 131733040.436 7      -447.670 7        44.018               
G26  24378877.234 6 128111909.115 6      1085.683 6        39.030               
G31  25435060.377 7 133662165.933 7       195.225 7        42.322               
G28  25788507.525 7 135519551.075 7      -623.486 7        42.864               
G29  27817938.475 6 146184306.306 6       260.200 6        41.884               
> 2024 12 27 02 43 46.0000000  0  5                                             
G32  25068048.460 7 131733491.673 7      -450.975 7        43.585               
G26  24378670.936 6 128110826.719 6      1084.058 6        39.215               
G31  25435022.441 7 133661968.716 7       193.784 7        42.518               
G28  25788629.731 7 135520171.794 7      -621.752 7        43.160               
G29  27817891.534 7 146184049.954 7       257.294 7        42.235               
> 2024 12 27 02 43 47.0000000  0  5                                             
G32  25068136.805 7 131733943.373 7      -450.929 7        43.425               
G26  24378466.854 6 128109744.892 6      1083.855 6        39.892               
G31  25434987.096 7 133661771.582 7       196.178 7        42.263               
G28  25788743.967 7 135520792.535 7      -621.096 7        42.879               
G29  27817843.770 6 146183794.070 6       256.701 6        41.813               
> 2024 12 27 02 43 48.0000000  0  5                                             
G32  25068219.038 7 131734395.518 7      -456.191 7        42.354               
G26  24378260.377 6 128108663.670 6      1087.942 6        40.493               
G31  25434945.425 7 133661574.619 7       194.210 7        42.503               
G28  25788862.600 7 135521413.315 7      -622.834 7        42.914               
G29  27817790.198 6 146183538.718 6       253.387 6        41.803               
> 2024 12 27 02 43 49.0000000  0  5                                             
G32  25068311.510 7 131734848.075 7      -447.114 7        43.097               
G26  24378055.687 6 128107582.966 6      1079.839 6        40.047               
G31  25434911.528 7 133661377.740 7       197.965 7        42.112               
G28  25788976.783 7 135522034.100 7      -619.362 7        42.732               
G29  27817742.685 6 146183283.791 6       251.547 6        41.587               
> 2024 12 27 02 43 50.0000000  0  5                                             
G32  25068400.802 7 131735301.159 7      -452.665 7        43.584               
G26  24377859.146 6 128106502.879 6      1077.819 6        40.451               
G31  25434874.771 6 133661181.041 6       196.513 6        41.814               
G28  25789096.773 7 135522654.966 7      -621.106 7        42.646               
G29  27817697.208 7 146183029.402 7       255.943 7        42.067               
> 2024 12 27 02 43 51.0000000  0  5                                             
G32  25068485.733 7 131735754.675 7      -455.234 7        43.704               
G26  24377646.076 6 128105423.371 6      1080.348 6        40.004               
G31  25434836.192 6 133660984.473 6       197.218 6        41.524               
G28  25789215.299 7 135523275.845 7      -622.904 7        42.591               
G29  27817645.906 6 146182775.501 6       263.355 6        41.200               
> 2024 12 27 02 43 52.0000000  0  5                                             
G32  25068573.238 7 131736208.650 7      -452.930 7        44.175               
G26  24377438.849 6 128104344.433 6      1077.523 6        40.055               
G31  25434797.112 6 133660788.029 6       195.097 6        41.547               
G28  25789329.285 7 135523896.774 7      -621.875 7        42.435               
G29  27817601.573 7 146182522.089 7       253.740 7        42.095               
> 2024 12 27 02 43 53.0000000  0  5                                             
G32  25068661.600 7 131736663.044 7      -454.926 7        44.450               
G26  24377237.179 6 128103266.048 6      1081.636 6        39.910               
G31  25434757.943 6 133660591.699 6       199.231 6        41.595               
G28  25789446.345 6 135524517.707 6      -620.821 6        41.556               
G29  27817552.379 7 146182269.145 7       253.415 7        42.002               
> 2024 12 27 02 43 54.0000000  0  5                                             
G32  25068749.033 7 131737117.939 7      -455.617 7        44.197               
G26  24377029.434 6 128102188.239 6      1072.015 6        39.764               
G31  25434719.418 6 133660395.520 6       195.491 6        40.868               
G28  25789572.572 6 135525138.710 6      -622.508 6        41.504               
G29  27817503.847 7 146182016.716 7       247.115 7        42.250               
> 2024 12 27 02 43 55.0000000  0  5                                             
G32  25068832.160 7 131737573.292 7      -452.374 7        44.448               
G26  24376827.049 6 128101111.062 6      1083.409 6        39.627               
G31  25434682.429 6 133660199.508 6       192.999 6        40.214               
G28  25789688.899 7 135525759.762 7      -621.957 7        42.014               
G29  27817460.157 7 146181764.779 7       253.878 7        42.474               
> 2024 12 27 02 43 56.0000000  0  5                                             
G32  25068917.431 7 131738029.117 7      -456.643 7        44.133               
G26  24376615.605 6 128100034.446 6      1076.710 6        39.562               
G31  25434650.015 6 133660003.641 6       196.251 6        41.119               
G28  25789807.550 6 135526380.857 6      -622.368 6        41.857               
G29  27817404.763 7 146181513.370 7       245.558 7        42.085               
> 2024 12 27 02 43 57.0000000  0  5                                             
G32  25069003.024 7 131738485.401 7      -453.745 7        43.805               
G26  24376419.171 6 128098958.426 6      1078.463 6        39.708               
G31  25434605.735 6 133659807.870 6       197.990 6        40.863               
G28  25789923.627 7 135527001.992 7      -620.866 7        42.034               
G29  27817356.088 6 146181262.428 6       248.895 6        41.704               
> 2024 12 27 02 43 58.0000000  0  5                                             
G32  25069088.920 7 131738942.125 7      -460.258 7        43.644               
G26  24376206.994 6 128097882.992 6      1074.116 6        39.413               
G31  25434567.996 6 133659612.279 6       193.130 6        40.990               
G28  25790044.636 6 135527623.167 6      -614.648 6        41.989               
G29  27817307.288 6 146181012.005 6       252.452 6        41.916               
> 2024 12 27 02 43 59.0000000  0  5                                             
G32  25069176.478 7 131739399.308 7      -456.460 7        43.846               
G26  24376005.646 6 128096808.114 6      1071.794 6        39.646               
G31  25434535.153 6 133659416.768 6       195.632 6        40.710               
G28  25790155.817 7 135528244.385 7      -620.737 7        42.153               
G29  27817261.686 6 146180762.042 6       252.794 6        41.728               
> 2024 12 27 02 44 00.0000000  0  5                                             
G32  25069264.948 7 131739856.945 7      -459.146 7        44.008               
G26  24375803.762 6 128095733.809 6      1071.378 6        39.460               
G31  25434495.412 6 133659221.425 6       187.048 6        40.893               
G28  25790277.326 6 135528865.628 6      -622.511 6        41.742               
G29  27817219.015 7 146180512.581 7       252.766 7        42.176               
> 2024 12 27 02 44 01.0000000  0  5                                             
G32  25069351.344 7 131740315.021 7      -464.027 7        43.827               
G26  24375602.056 6 128094660.093 6      1072.704 6        38.787               
G31  25434461.729 6 133659026.192 6       192.719 6        40.589               
G28  25790396.620 6 135529486.909 6      -620.625 6        41.455               
G29  27817169.178 7 146180263.608 7       249.054 7        43.026               
> 2024 12 27 02 44 02.0000000  0  5                                             
G32  25069439.546 7 131740773.570 7      -456.306 7        44.178               
G26  24375401.530 6 128093586.943 6      1063.559 6        38.784               
G31  25434422.363 6 133658831.106 6       186.986 6        40.476               
G28  25790510.213 6 135530108.219 6      -621.638 6        41.531               
G29  27817119.467 7 146180015.109 7       243.457 7        42.968               
> 2024 12 27 02 44 03.0000000  0  5                                             
G32  25069525.943 7 131741232.547 7      -460.944 7        44.454               
G26  24375196.251 6 128092514.362 6      1064.521 6        39.535               
G31  25434382.355 6 133658636.135 6       205.995 6        40.251               
G28  25790631.526 6 135530729.566 6      -623.945 6        41.105               
G29  27817076.492 7 146179767.116 7       250.829 7        43.124               
> 2024 12 27 02 44 04.0000000  0  5                                             
G32  25069612.590 7 131741692.016 7      -458.661 7        44.213               
G26  24374986.200 6 128091442.394 6      1066.342 6        40.171               
G31  25434344.293 6 133658441.315 6       201.759 6        40.280               
G28  25790746.656 6 135531350.965 6      -616.996 6        41.020               
G29  27817032.766 7 146179519.625 7       248.483 7        42.991               
> 2024 12 27 02 44 05.0000000  0  5                                             
G32  25069704.454 7 131742151.922 7      -455.049 7        44.491               
G26  24374785.603 6 128090370.973 6      1065.670 6        39.881               
G31  25434305.804 6 133658246.632 6       190.380 6        40.459               
G28  25790871.543 6 135531972.396 6      -623.251 6        40.694               
G29  27816986.092 7 146179272.614 7       247.577 7        43.452               
> 2024 12 27 02 44 06.0000000  0  5                                             
G32  25069792.030 7 131742612.306 7      -458.779 7        44.077               
G26  24374583.272 6 128089300.146 6      1077.033 6        40.243               
G31  25434273.604 6 133658052.075 6       198.998 6        40.198               
G28  25790983.921 6 135532593.880 6      -624.910 6        40.756               
G29  27816938.990 7 146179026.116 7       247.726 7        43.455               
> 2024 12 27 02 44 07.0000000  0  5                                             
G32  25069878.927 7 131743073.160 7      -459.744 7        44.775               
G26  24374378.457 6 128088229.912 6      1067.221 6        39.227               
G31  25434231.862 6 133657857.699 6       190.015 6        39.907               
G28  25791100.516 6 135533215.413 6      -617.970 6        41.153               
G29  27816893.638 7 146178780.124 7       246.769 7        43.666               
> 2024 12 27 02 44 08.0000000  0  5                                             
G32  25069966.182 7 131743534.498 7      -460.901 7        44.752               
G26  24374178.163 6 128087160.304 6      1069.443 6        39.352               
G31  25434198.018 6 133657663.468 6       194.767 6        39.499               
G28  25791216.218 6 135533837.023 6      -624.904 6        40.360               
G29  27816847.697 7 146178534.653 7       245.791 7        43.515               
> 2024 12 27 02 44 09.0000000  0  5                                             
G32  25070054.473 7 131743996.294 7      -459.820 7        44.767               
G26  24373969.810 6 128086091.272 6      1073.263 6        39.696               
G31  25434155.579 6 133657469.389 6       193.685 6        39.830               
G28  25791340.122 6 135534458.675 6      -625.554 6        40.923               
G29  27816802.256 7 146178289.681 7       246.264 7        43.331               
> 2024 12 27 02 44 10.0000000  0  5                                             
G32  25070142.853 7 131744458.556 7      -458.209 7        45.095               
G26  24373765.156 6 128085022.812 6      1066.964 6        39.718               
G31  25434120.663 6 133657275.417 6       193.224 6        39.561               
G28  25791459.845 6 135535080.339 6      -622.482 6        40.506               
G29  27816753.938 7 146178045.212 7       248.112 7        43.246               
> 2024 12 27 02 44 11.0000000  0  5                                             
G32  25070231.573 7 131744921.247 7      -460.556 7        44.947               
G26  24373560.091 6 128083954.913 6      1067.296 6        39.768               
G31  25434084.871 6 133657081.591 6       199.022 6        39.493               
G28  25791577.869 6 135535702.053 6      -624.169 6        40.486               
G29  27816704.155 7 146177801.212 7       238.223 7        43.005               
> 2024 12 27 02 44 12.0000000  0  5                                             
G32  25070315.485 7 131745384.418 7      -462.753 7        45.021               
G26  24373355.169 6 128082887.599 6      1071.790 6        39.635               
G31  25434050.473 6 133656887.900 6       197.217 6        39.768               
G28  25791696.698 6 135536323.812 6      -623.187 6        41.148               
G29  27816656.659 7 146177557.704 7       241.494 7        42.691               
> 2024 12 27 02 44 13.0000000  0  5                                             
G32  25070409.048 7 131745848.040 7      -464.689 7        45.387               
G26  24373150.444 6 128081820.855 6      1063.848 6        39.298               
G31  25434011.483 6 133656694.344 6       194.915 6        39.701               
G28  25791815.635 6 135536945.608 6      -622.441 6        40.946               
G29  27816609.485 7 146177314.714 7       240.168 7        42.906               
> 2024 12 27 02 44 14.0000000  0  5                                             
G32  25070496.302 7 131746312.121 7      -468.142 7        45.461               
G26  24372944.611 6 128080754.705 6      1062.236 6        39.366               
G31  25433976.156 6 133656500.916 6       192.143 6        39.391               
G28  25791933.034 6 135537567.449 6      -619.797 6        40.581               
G29  27816566.385 7 146177072.201 7       243.316 7        42.064               
> 2024 12 27 02 44 15.0000000  0  5                                             
G32  25070584.057 7 131746776.664 7      -463.302 7        45.294               
G26  24372743.888 6 128079689.163 6      1057.877 6        39.032               
G31  25433940.454 6 133656307.645 6       182.150 6        39.499               
G28  25792050.612 6 135538189.311 6      -623.304 6        40.978               
G29  27816516.083 6 146176830.212 6       240.181 6        41.727               
> 2024 12 27 02 44 16.0000000  0  5                                             
G32  25070674.724 7 131747241.648 7      -464.603 7        45.482               
G26  24372539.305 6 128078624.143 6      1063.078 6        39.382               
G31  25433907.235 6 133656114.479 6       195.458 6        40.388               
G28  25792171.067 6 135538811.239 6      -624.747 6        40.656               
G29  27816465.979 6 146176588.679 6       237.304 6        41.254               
> 2024 12 27 02 44 17.0000000  0  5                                             
G32  25070760.442 7 131747707.105 7      -466.552 7        45.361               
G26  24372343.783 6 128077559.721 6      1068.360 6        39.334               
G31  25433866.458 6 133655921.429 6       193.607 6        40.041               
G28  25792287.645 6 135539433.153 6      -623.709 6        40.806               
G29  27816424.701 6 146176347.681 6       238.979 6        41.481               
> 2024 12 27 02 44 18.0000000  0  5                                             
G32  25070849.859 7 131748173.002 7      -468.183 7        44.865               
G26  24372142.309 6 128076495.889 6      1053.961 6        39.611               
G31  25433826.664 6 133655728.532 6       190.048 6        40.310               
G28  25792410.745 6 135540055.163 6      -625.049 6        41.081               
G29  27816374.257 7 146176107.148 7       242.505 7        42.157               
> 2024 12 27 02 44 19.0000000  0  5                                             
G32  25070936.363 7 131748639.336 7      -467.515 7        45.100               
G26  24371931.937 6 128075432.575 6      1063.903 6        39.915               
G31  25433794.106 6 133655535.775 6       186.605 6        41.130               
G28  25792525.374 6 135540677.127 6      -618.630 6        41.045               
G29  27816331.228 7 146175867.070 7       240.170 7        42.419               
> 2024 12 27 02 44 20.0000000  0  5                                             
G32  25071025.833 7 131749106.144 7      -465.420 7        44.861               
G26  24371729.517 6 128074369.881 6      1061.962 6        39.579               
G31  25433761.674 6 133655343.134 6       194.989 6        40.091               
G28  25792648.742 6 135541299.166 6      -621.601 6        40.899               
G29  27816286.895 7 146175627.529 7       242.288 7        43.067               
> 2024 12 27 02 44 21.0000000  0  5                                             
G32  25071117.948 7 131749573.417 7      -468.527 7        44.898               
G26  24371532.225 6 128073307.767 6      1062.451 6        39.217               
G31  25433724.435 6 133655150.615 6       194.857 6        41.148               
G28  25792765.052 6 135541921.265 6      -625.825 6        40.944               
G29  27816243.366 7 146175388.449 7       241.778 7        43.145               
> 2024 12 27 02 44 22.0000000  0  5                                             
G32  25071206.221 7 131750041.160 7      -471.863 7        44.676               
G26  24371331.431 6 128072246.243 6      1060.507 6        39.573               
G31  25433686.231 6 133654958.272 6       182.895 6        40.523               
G28  25792881.022 6 135542543.388 6      -621.492 6        41.079               
G29  27816200.963 7 146175149.911 7       238.571 7        43.139               
> 2024 12 27 02 44 23.0000000  0  5                                             
G32  25071292.206 7 131750509.360 7      -466.564 7        44.245               
G26  24371120.809 6 128071185.306 6      1057.234 6        39.180               
G31  25433651.297 6 133654766.054 6       191.045 6        40.805               
G28  25793003.925 6 135543165.575 6      -612.224 6        41.076               
G29  27816154.593 7 146174911.862 7       243.023 7        42.661               
> 2024 12 27 02 44 24.0000000  0  5                                             
G32  25071386.537 7 131750978.027 7      -469.481 7        44.485               
G26  24370924.428 6 128070124.941 6      1060.604 6        39.042               
G31  25433616.417 6 133654573.952 6       189.181 6        40.637               
G28  25793121.449 6 135543787.798 6      -626.320 6        40.762               
G29  27816111.368 7 146174674.310 7       241.928 7        42.063               
> 2024 12 27 02 44 25.0000000  0  5                                             
G32  25071472.487 7 131751447.133 7      -465.420 7        44.817               
G26  24370718.917 6 128069065.124 6      1059.711 6        39.534               
G31  25433578.642 6 133654381.998 6       188.414 6        40.961               
G28  25793243.191 6 135544410.042 6      -620.378 6        41.324               
G29  27816062.210 7 146174437.227 7       239.095 7        42.330               
> 2024 12 27 02 44 26.0000000  0  5                                             
G32  25071564.334 7 131751916.739 7      -471.978 7        44.816               
G26  24370524.198 6 128068005.958 6      1058.573 6        39.921               
G31  25433540.652 6 133654190.206 6       188.975 6        40.483               
G28  25793355.087 6 135545032.358 6      -619.794 6        41.815               
G29  27816014.518 6 146174200.704 6       231.253 6        41.640               
> 2024 12 27 02 44 27.0000000  0  5                                             
G32  25071655.573 7 131752386.784 7      -476.695 7        45.497               
G26  24370315.166 6 128066947.348 6      1058.652 6        39.493               
G31  25433506.469 6 133653998.538 6       184.062 6        40.574               
G28  25793477.257 6 135545654.714 6      -617.516 6        41.204               
G29  27815970.721 6 146173964.659 6       231.883 6        41.371               
> 2024 12 27 02 44 28.0000000  0  5                                             
G32  25071744.936 7 131752857.509 7      -472.665 7        46.075               
G26  24370123.932 6 128065889.545 6      1058.488 6        39.852               
G31  25433471.981 6 133653807.213 6       189.925 6        40.797               
G28  25793595.639 6 135546277.319 6      -623.609 6        41.395               
G29  27815920.634 6 146173729.306 6       232.847 6        40.959               
> 2024 12 27 02 44 29.0000000  0  5                                             
G32  25071836.658 7 131753328.919 7      -470.918 7        46.291               
G26  24369919.707 6 128064832.523 6      1050.219 6        39.706               
G31  25433431.347 6 133653616.254 6       193.589 6        40.437               
G28  25793719.186 6 135546900.179 6      -626.804 6        41.576               
G29  27815873.871 6 146173494.674 6       230.066 6        41.140               
> 2024 12 27 02 44 30.0000000  0  5                                             
G32  25071929.183 7 131753800.774 7      -470.804 7        46.154               
G26  24369715.428 6 128063776.069 6      1056.951 6        40.045               
G31  25433393.590 6 133653425.447 6       187.642 6        40.461               
G28  25793832.904 7 135547523.082 7      -621.486 7        42.565               
G29  27815829.716 6 146173260.552 6       231.872 6        41.090               
> 2024 12 27 02 44 31.0000000  0  5                                             
G32  25072014.669 7 131754273.113 7      -471.083 7        46.231               
G26  24369517.296 6 128062720.226 6      1047.299 6        39.803               
G31  25433358.442 6 133653234.758 6       195.602 6        40.646               
G28  25793954.592 6 135548146.034 6      -621.811 6        41.915               
G29  27815790.387 6 146173026.919 6       230.216 6        41.739               
> 2024 12 27 02 44 32.0000000  0  5                                             
G32  25072106.444 7 131754745.914 7      -472.123 7        45.861               
G26  24369314.286 6 128061664.976 6      1058.018 6        40.274               
G31  25433320.935 6 133653044.217 6       190.846 6        40.963               
G28  25794070.348 7 135548769.042 7      -622.689 7        42.552               
G29  27815745.928 6 146172793.795 6       231.715 6        41.457               
> 2024 12 27 02 44 33.0000000  0  5                                             
G32  25072193.198 7 131755219.163 7      -472.650 7        45.730               
G26  24369117.727 6 128060610.290 6      1055.676 6        41.056               
G31  25433288.842 6 133652853.800 6       189.794 6        41.564               
G28  25794189.266 7 135549392.071 7      -626.786 7        42.885               
G29  27815703.686 6 146172561.168 6       232.776 6        41.149               
> 2024 12 27 02 44 34.0000000  0  5                                             
G32  25072284.277 7 131755692.855 7      -474.419 7        46.022               
G26  24368916.486 6 128059556.165 6      1054.152 6        40.489               
G31  25433247.368 6 133652663.504 6       191.793 6        40.994               
G28  25794310.097 7 135550015.121 7      -621.917 7        42.469               
G29  27815664.392 6 146172329.019 6       233.295 6        41.079               
> 2024 12 27 02 44 35.0000000  0  5                                             
G32  25072372.013 7 131756167.012 7      -474.627 7        45.716               
G26  24368712.458 6 128058502.599 6      1061.343 6        40.486               
G31  25433212.166 6 133652473.341 6       190.933 6        40.756               
G28  25794424.852 7 135550638.215 7      -626.491 7        42.745               
G29  27815617.986 6 146172097.361 6       232.128 6        41.600               
> 2024 12 27 02 44 36.0000000  0  5                                             
G32  25072465.558 7 131756641.621 7      -471.987 7        45.594               
G26  24368515.076 6 128057449.682 6      1052.735 6        40.907               
G31  25433177.786 6 133652283.329 6       190.500 6        40.638               
G28  25794543.770 7 135551261.357 7      -621.856 7        42.670               
G29  27815578.299 7 146171866.206 7       227.469 7        42.174               
> 2024 12 27 02 44 37.0000000  0  5                                             
G32  25072555.332 7 131757116.693 7      -477.677 7        45.496               
G26  24368314.086 6 128056397.258 6      1054.500 6        40.789               
G31  25433140.708 6 133652093.430 6       181.996 6        41.337               
G28  25794663.742 7 135551884.518 7      -620.659 7        42.555               
G29  27815534.806 7 146171635.540 7       229.273 7        42.121               
> 2024 12 27 02 44 38.0000000  0  5                                             
G32  25072644.659 7 131757592.214 7      -473.927 7        45.228               
G26  24368113.828 6 128055345.473 6      1052.161 6        41.059               
G31  25433102.861 6 133651903.686 6       192.973 6        41.614               
G28  25794785.198 7 135552507.738 7      -627.920 7        42.174               
G29  27815493.225 7 146171405.370 7       232.914 7        42.537               
> 2024 12 27 02 44 39.0000000  0  5                                             
G32  25072736.613 7 131758068.214 7      -476.630 7        45.546               
G26  24367912.533 6 128054294.275 6      1050.852 6        41.176               
G31  25433069.106 6 133651714.078 6       190.045 6        41.220               
G28  25794901.883 6 135553130.993 6      -621.801 6        41.914               
G29  27815448.141 7 146171175.708 7       229.410 7        42.894               
> 2024 12 27 02 44 40.0000000  0  5                                             
G32  25072827.602 7 131758544.657 7      -481.233 7        45.359               
G26  24367713.812 6 128053243.601 6      1052.542 6        41.132               
G31  25433032.314 6 133651524.597 6       190.436 6        40.255               
G28  25795020.837 7 135553754.271 7      -626.004 7        42.159               
G29  27815401.610 7 146170946.528 7       229.014 7        42.816               
> 2024 12 27 02 44 41.0000000  0  5                                             
G32  25072917.197 7 131759021.541 7      -477.698 7        44.590               
G26  24367513.268 6 128052193.540 6      1056.572 6        41.443               
G31  25432990.233 6 133651335.244 6       189.302 6        40.376               
G28  25795134.788 6 135554377.582 6      -624.186 6        41.556               
G29  27815355.294 7 146170717.847 7       228.363 7        42.788               
> 2024 12 27 02 44 42.0000000  0  5                                             
G32  25073009.848 7 131759498.896 7      -475.195 7        45.444               
G26  24367307.738 6 128051144.032 6      1047.963 6        40.792               
G31  25432957.032 6 133651145.999 6       187.237 6        40.160               
G28  25795250.722 6 135555000.931 6      -624.441 6        41.368               
G29  27815306.815 7 146170489.663 7       227.843 7        42.051               
> 2024 12 27 02 44 43.0000000  0  5                                             
G32  25073098.246 7 131759976.691 7      -479.860 7        45.669               
G26  24367117.933 6 128050095.095 6      1046.831 6        40.714               
G31  25432916.255 6 133650956.891 6       185.713 6        40.261               
G28  25795369.873 6 135555624.302 6      -630.300 6        40.946               
G29  27815264.734 7 146170261.966 7       225.424 7        42.011               
> 2024 12 27 02 44 44.0000000  0  5                                             
G32  25073187.645 7 131760454.951 7      -478.441 7        45.388               
G26  24366911.475 6 128049046.737 6      1055.946 6        40.914               
