$GPRMC,024224.19,A,2218.2843243,N,11410.7912126,E,11.26,208.15,271224,0.0,E,A*09
$GPGGA,024224.19,2218.2843243,N,11410.7912126,E,1,04,1.0,60.057,M,0.000,M,0.0,*45
$GPGSA,A,3,26,29,31,32,,,,,,,,,5.1,2.9,4.2,1*2A
$GPGSV,1,1,04,26,68,238,43,29,22,080,41,31,47,325,42,32,61,088,45,1*66
$GPRMC,024224.29,A,2218.2811821,N,11410.7911737,E,6.40,120.65,271224,0.0,E,A*3E
$GPGGA,024224.29,2218.2811821,N,11410.7911737,E,1,04,1.0,65.887,M,0.000,M,0.0,*4A
$GPGSA,A,3,26,29,31,32,,,,,,,,,5.1,2.9,4.2,1*2A
$GPGSV,1,1,04,26,68,238,43,29,22,080,41,31,47,325,42,32,61,088,45,1*66
$GPRMC,024224.39,A,2218.2802052,N,11410.7914194,E,8.88,53.72,271224,0.0,E,A*02
$GPGGA,024224.39,2218.2802052,N,11410.7914194,E,1,04,1.0,53.793,M,0.000,M,0.0,*40
$GPGSA,A,3,26,29,31,32,,,,,,,,,5.1,2.9,4.2,1*2A
$GPGSV,1,1,04,26,68,238,43,29,22,080,41,31,47,325,42,32,61,088,45,1*66
$GPRMC,024224.49,A,2218.2822412,N,11410.7917613,E,3.21,11.72,271224,0.0,E,A*02
$GPGGA,024224.49,2218.2822412,N,11410.7917613,E,1,04,1.0,50.025,M,0.000,M,0.0,*47
$GPGSA,A,3,26,29,31,32,,,,,,,,,5.1,2.9,4.2,1*2A
$GPGSV,1,1,04,26,68,238,43,29,22,080,40,31,47,325,42,32,61,088,45,1*67
$GPRMC,024224.59,A,2218.2792576,N,11410.7918502,E,6.24,65.60,271224,0.0,E,A*08
$GPGGA,024224.59,2218.2792576,N,11410.7918502,E,1,04,1.0,50.658,M,0.000,M,0.0,*41
$GPGSA,A,3,26,29,31,32,,,,,,,,,5.1,2.9,4.2,1*2A
$GPGSV,1,1,04,26,68,238,43,29,22,080,40,31,47,325,42,32,61,088,45,1*67
$GPRMC,024224.69,A,2218.2821210,N,11410.7915661,E,5.10,8.84,271224,0.0,E,A*35
$GPGGA,024224.69,2218.2821210,N,11410.7915661,E,1,04,1.0,46.616,M,0.000,M,0.0,*44
$GPGSA,A,3,26,29,31,32,,,,,,,,,5.1,2.9,4.2,1*2A
$GPGSV,1,1,04,26,68,238,43,29,22,080,40,31,47,325,42,32,61,088,45,1*67
$GPRMC,024224.79,A,2218.2813476,N,11410.7878502,E,12.97,53.09,271224,0.0,E,A*3D
$GPGGA,024224.79,2218.2813476,N,11410.7878502,E,1,04,1.0,33.609,M,0.000,M,0.0,*42
$GPGSA,A,3,26,29,31,32,,,,,,,,,5.1,2.9,4.2,1*2A
$GPGSV,1,1,04,26,68,238,43,29,22,080,40,31,47,325,42,32,61,088,45,1*67
$GPRMC,024224.89,A,2218.2806962,N,11410.7894086,E,4.26,118.66,271224,0.0,E,A*3F
$GPGGA,024224.89,2218.2806962,N,11410.7894086,E,1,04,1.0,47.970,M,0.000,M,0.0,*48
$GPGSA,A,3,26,29,31,32,,,,,,,,,5.1,2.9,4.2,1*2A
$GPGSV,1,1,04,26,68,239,43,29,22,080,41,31,47,325,42,32,61,088,46,1*64
$GPRMC,024224.99,A,2218.2827592,N,11410.7903433,E,6.90,12.60,271224,0.0,E,A*09
$GPGGA,024224.99,2218.2827592,N,11410.7903433,E,1,04,1.0,46.952,M,0.000,M,0.0,*4D
$GPGSA,A,3,26,29,31,32,,,,,,,,,5.1,2.9,4.2,1*2A
$GPGSV,1,1,04,26,68,239,43,29,22,080,40,31,47,325,42,32,61,088,45,1*66
$GPRMC,024225.09,A,2218.2852249,N,11410.7907636,E,4.64,190.02,271224,0.0,E,A*37
$GPGGA,024225.09,2218.2852249,N,11410.7907636,E,1,04,1.0,59.623,M,0.000,M,0.0,*42
$GPGSA,A,3,26,29,31,32,,,,,,,,,5.1,2.9,4.2,1*2A
$GPGSV,1,1,04,26,68,239,43,29,22,080,41,31,47,325,42,32,61,088,46,1*64
$GPRMC,024225.19,A,2218.2822863,N,11410.7901835,E,1.69,190.02,271224,0.0,E,A*30
$GPGGA,024225.19,2218.2822863,N,11410.7901835,E,1,04,1.0,54.302,M,0.000,M,0.0,*46
$GPGSA,A,3,26,29,31,32,,,,,,,,,5.1,2.9,4.2,1*2A
$GPGSV,1,1,04,26,68,239,43,29,22,080,40,31,47,325,42,32,61,088,46,1*65
$GPRMC,024225.29,A,2218.2831243,N,11410.7907187,E,6.47,245.58,271224,0.0,E,A*30
$GPGGA,024225.29,2218.2831243,N,11410.7907187,E,1,04,1.0,58.463,M,0.000,M,0.0,*45
$GPGSA,A,3,26,29,31,32,,,,,,,,,5.1,2.9,4.2,1*2A
$GPGSV,1,1,04,26,68,239,43,29,22,080,40,31,47,325,42,32,61,088,46,1*65
$GPRMC,024225.39,A,2218.2887310,N,11410.7913207,E,4.50,219.20,271224,0.0,E,A*37
$GPGGA,024225.39,2218.2887310,N,11410.7913207,E,1,04,1.0,71.706,M,0.000,M,0.0,*4B
$GPGSA,A,3,26,29,31,32,,,,,,,,,5.1,2.9,4.2,1*2A
$GPGSV,1,1,04,26,68,239,43,29,22,080,40,31,47,325,42,32,61,088,46,1*65
$GPRMC,024225.49,A,2218.2864773,N,11410.7931868,E,7.55,202.68,271224,0.0,E,A*3F
$GPGGA,024225.49,2218.2864773,N,11410.7931868,E,1,04,1.0,68.027,M,0.000,M,0.0,*4F
$GPGSA,A,3,26,29,31,32,,,,,,,,,5.1,2.9,4.2,1*2A
$GPGSV,1,1,04,26,68,239,43,29,22,080,40,31,47,325,42,32,61,088,45,1*66
$GPRMC,024225.59,A,2218.2826555,N,11410.7888624,E,2.14,216.64,271224,0.0,E,A*32
$GPGGA,024225.59,2218.2826555,N,11410.7888624,E,1,04,1.0,66.652,M,0.000,M,0.0,*41
$GPGSA,A,3,26,29,31,32,,,,,,,,,5.1,2.9,4.2,1*2A
$GPGSV,1,1,04,26,68,239,43,29,22,080,40,31,47,325,42,32,61,088,46,1*65
$GPRMC,024225.69,A,2218.2812140,N,11410.7905441,E,7.52,65.12,271224,0.0,E,A*03
$GPGGA,024225.69,2218.2812140,N,11410.7905441,E,1,04,1.0,58.332,M,0.000,M,0.0,*4E
$GPGSA,A,3,26,29,31,32,,,,,,,,,5.1,2.9,4.2,1*2A
$GPGSV,1,1,04,26,68,239,42,29,22,080,40,31,47,325,42,32,61,088,46,1*64
$GPRMC,024225.79,A,2218.2816811,N,11410.7896258,E,2.94,246.06,271224,0.0,E,A*37
$GPGGA,024225.79,2218.2816811,N,11410.7896258,E,1,04,1.0,63.406,M,0.000,M,0.0,*4B
$GPGSA,A,3,26,29,31,32,,,,,,,,,5.1,2.9,4.2,1*2A
$GPGSV,1,1,04,26,68,239,43,29,22,080,40,31,47,325,42,32,61,088,45,1*66
$GPRMC,024225.89,A,2218.2857603,N,11410.7901726,E,1.56,246.06,271224,0.0,E,A*3E
$GPGGA,024225.89,2218.2857603,N,11410.7901726,E,1,04,1.0,58.087,M,0.000,M,0.0,*4A
$GPGSA,A,3,26,29,31,32,,,,,,,,,5.1,2.9,4.2,1*2A
$GPGSV,1,1,04,26,68,239,43,29,22,080,40,31,47,325,42,32,61,088,45,1*66
$GPRMC,024225.99,A,2218.2855750,N,11410.7911495,E,1.70,246.06,271224,0.0,E,A*34
$GPGGA,024225.99,2218.2855750,N,11410.7911495,E,1,04,1.0,55.485,M,0.000,M,0.0,*4F
$GPGSA,A,3,26,29,31,32,,,,,,,,,5.1,2.9,4.2,1*2A
$GPGSV,1,1,04,26,68,239,43,29,22,080,40,31,47,325,42,32,61,088,45,1*66
$GPRMC,024226.09,A,2218.2832549,N,11410.7908071,E,1.99,344.53,271224,0.0,E,A*37
$GPGGA,024226.09,2218.2832549,N,11410.7908071,E,1,04,1.0,46.100,M,0.000,M,0.0,*42
$GPGSA,A,3,26,29,31,32,,,,,,,,,5.1,2.9,4.2,1*2A
$GPGSV,1,1,04,26,68,239,43,29,22,080,40,31,47,325,42,32,61,088,45,1*66
$GPRMC,024226.19,A,2218.2805174,N,11410.7917813,E,3.09,72.70,271224,0.0,E,A*06
$GPGGA,024226.19,2218.2805174,N,11410.7917813,E,1,04,1.0,46.282,M,0.000,M,0.0,*46
$GPGSA,A,3,26,29,31,32,,,,,,,,,5.1,2.9,4.2,1*2A
$GPGSV,1,1,04,26,68,239,43,29,22,080,40,31,47,325,42,32,61,088,45,1*66
$GPRMC,024226.29,A,2218.2818787,N,11410.7910584,E,2.04,56.51,271224,0.0,E,A*0E
$GPGGA,024226.29,2218.2818787,N,11410.7910584,E,1,04,1.0,48.072,M,0.000,M,0.0,*44
$GPGSA,A,3,26,29,31,32,,,,,,,,,5.1,2.9,4.2,1*2A
$GPGSV,1,1,04,26,68,239,43,29,22,080,40,31,47,325,42,32,61,088,46,1*65
$GPRMC,024226.39,A,2218.2845179,N,11410.7910758,E,3.64,352.30,271224,0.0,E,A*34
$GPGGA,024226.39,2218.2845179,N,11410.7910758,E,1,04,1.0,50.214,M,0.000,M,0.0,*42
$GPGSA,A,3,26,29,31,32,,,,,,,,,5.1,2.9,4.2,1*2A
$GPGSV,1,1,04,26,68,239,43,29,22,080,40,31,47,325,42,32,61,088,46,1*65
$GPRMC,024226.49,A,2218.2859847,N,11410.7911991,E,7.54,189.84,271224,0.0,E,A*3C
$GPGGA,024226.49,2218.2859847,N,11410.7911991,E,1,04,1.0,51.425,M,0.000,M,0.0,*43
$GPGSA,A,3,26,29,31,32,,,,,,,,,5.1,2.9,4.2,1*2A
$GPGSV,1,1,04,26,68,239,43,29,22,080,40,31,47,325,42,32,61,088,46,1*65
$GPRMC,024226.59,A,2218.2837480,N,11410.7893552,E,1.74,189.84,271224,0.0,E,A*3E
$GPGGA,024226.59,2218.2837480,N,11410.7893552,E,1,04,1.0,50.189,M,0.000,M,0.0,*47
$GPGSA,A,3,26,29,31,32,,,,,,,,,5.1,2.9,4.2,1*2A
$GPGSV,1,1,04,26,68,239,43,29,22,080,40,31,47,325,42,32,61,088,46,1*65
$GPRMC,024226.69,A,2218.2813252,N,11410.7887907,E,3.22,30.71,271224,0.0,E,A*03
$GPGGA,024226.69,2218.2813252,N,11410.7887907,E,1,04,1.0,47.582,M,0.000,M,0.0,*4B
$GPGSA,A,3,26,29,31,32,,,,,,,,,5.1,2.9,4.2,1*2A
$GPGSV,1,1,04,26,68,239,43,29,22,080,40,31,47,325,42,32,61,088,46,1*65
$GPRMC,024226.79,A,2218.2776222,N,11410.7871503,E,6.00,218.19,271224,0.0,E,A*3B
$GPGGA,024226.79,2218.2776222,N,11410.7871503,E,1,04,1.0,36.754,M,0.000,M,0.0,*4F
$GPGSA,A,3,26,29,31,32,,,,,,,,,5.1,2.9,4.2,1*2A
$GPGSV,1,1,04,26,68,239,43,29,22,080,40,31,47,325,42,32,61,088,46,1*65
$GPRMC,024226.89,A,2218.2807542,N,11410.7894116,E,4.82,22.11,271224,0.0,E,A*0C
$GPGGA,024226.89,2218.2807542,N,11410.7894116,E,1,04,1.0,39.310,M,0.000,M,0.0,*48
$GPGSA,A,3,26,29,31,32,,,,,,,,,5.1,2.9,4.2,1*2A
$GPGSV,1,1,04,26,68,239,43,29,22,080,40,31,47,325,42,32,61,088,46,1*65
$GPRMC,024226.99,A,2218.2822761,N,11410.7920627,E,6.37,33.55,271224,0.0,E,A*0E
$GPGGA,024226.99,2218.2822761,N,11410.7920627,E,1,04,1.0,58.056,M,0.000,M,0.0,*40
$GPGSA,A,3,26,29,31,32,,,,,,,,,5.1,2.9,4.2,1*2A
$GPGSV,1,1,04,26,68,239,42,29,22,080,40,31,47,325,42,32,61,088,45,1*67
$GPRMC,024227.09,A,2218.2825764,N,11410.7937358,E,0.84,33.55,271224,0.0,E,A*01
$GPGGA,024227.09,2218.2825764,N,11410.7937358,E,1,04,1.0,59.148,M,0.000,M,0.0,*4E
$GPGSA,A,3,26,29,31,32,,,,,,,,,5.1,2.9,4.2,1*2A
$GPGSV,1,1,04,26,68,239,43,29,22,080,40,31,47,325,42,32,61,088,45,1*66
$GPRMC,024227.19,A,2218.2817781,N,11410.7904320,E,4.99,219.41,271224,0.0,E,A*32
$GPGGA,024227.19,2218.2817781,N,11410.7904320,E,1,04,1.0,47.083,M,0.000,M,0.0,*43
$GPGSA,A,3,26,29,31,32,,,,,,,,,5.1,2.9,4.2,1*2A
$GPGSV,1,1,04,26,68,239,43,29,22,080,40,31,47,325,42,32,61,088,45,1*66
$GPRMC,024227.29,A,2218.2833744,N,11410.7903889,E,1.74,219.41,271224,0.0,E,A*37
$GPGGA,024227.29,2218.2833744,N,11410.7903889,E,1,04,1.0,42.005,M,0.000,M,0.0,*4B
$GPGSA,A,3,26,29,31,32,,,,,,,,,5.1,2.9,4.2,1*2A
$GPGSV,1,1,04,26,68,239,42,29,22,080,40,31,47,325,42,32,61,088,45,1*67
$GPRMC,024227.39,A,2218.2758807,N,11410.7863344,E,9.19,209.12,271224,0.0,E,A*35
$GPGGA,024227.39,2218.2758807,N,11410.7863344,E,1,04,1.0,19.530,M,0.000,M,0.0,*40
$GPGSA,A,3,26,29,31,32,,,,,,,,,5.1,2.9,4.2,1*2A
$GPGSV,1,1,04,26,68,239,42,29,22,080,40,31,47,325,42,32,61,088,45,1*67
$GPRMC,024227.49,A,2218.2776130,N,11410.7871199,E,8.70,186.98,271224,0.0,E,A*3A
$GPGGA,024227.49,2218.2776130,N,11410.7871199,E,1,04,1.0,21.170,M,0.000,M,0.0,*4C
$GPGSA,A,3,26,29,31,32,,,,,,,,,5.1,2.9,4.2,1*2A
$GPGSV,1,1,04,26,68,239,42,29,22,080,40,31,47,325,42,32,61,088,45,1*67
$GPRMC,024227.59,A,2218.2792888,N,11410.7881042,E,3.94,217.39,271224,0.0,E,A*32
$GPGGA,024227.59,2218.2792888,N,11410.7881042,E,1,04,1.0,30.087,M,0.000,M,0.0,*4C
$GPGSA,A,3,26,29,31,32,,,,,,,,,5.1,2.9,4.2,1*2A
$GPGSV,1,1,04,26,68,239,42,29,22,080,40,31,47,325,42,32,61,088,45,1*67
$GPRMC,024227.69,A,2218.2807970,N,11410.7901007,E,9.86,40.74,271224,0.0,E,A*0C
$GPGGA,024227.69,2218.2807970,N,11410.7901007,E,1,04,1.0,39.378,M,0.000,M,0.0,*48
$GPGSA,A,3,26,29,31,32,,,,,,,,,5.1,2.9,4.2,1*2A
$GPGSV,1,1,04,26,68,239,42,29,22,080,39,31,47,325,42,32,61,088,45,1*69
$GPRMC,024227.79,A,2218.2765834,N,11410.7898785,E,2.32,31.11,271224,0.0,E,A*0A
$GPGGA,024227.79,2218.2765834,N,11410.7898785,E,1,04,1.0,34.717,M,0.000,M,0.0,*4F
$GPGSA,A,3,26,29,31,32,,,,,,,,,5.1,2.9,4.2,1*2A
$GPGSV,1,1,04,26,68,239,42,29,22,080,39,31,47,325,42,32,61,088,45,1*69
$GPRMC,024227.89,A,2218.2809652,N,11410.7918603,E,2.97,49.34,271224,0.0,E,A*0F
$GPGGA,024227.89,2218.2809652,N,11410.7918603,E,1,04,1.0,43.252,M,0.000,M,0.0,*49
$GPGSA,A,3,26,29,31,32,,,,,,,,,5.1,2.9,4.2,1*2A
$GPGSV,1,1,04,26,68,239,42,29,22,080,39,31,47,325,42,32,61,088,45,1*69
$GPRMC,024227.99,A,2218.2773638,N,11410.7895062,E,1.30,49.34,271224,0.0,E,A*0B
$GPGGA,024227.99,2218.2773638,N,11410.7895062,E,1,04,1.0,35.537,M,0.000,M,0.0,*46
$GPGSA,A,3,26,29,31,32,,,,,,,,,5.1,2.9,4.2,1*2A
$GPGSV,1,1,04,26,68,239,42,29,22,080,40,31,47,325,42,32,61,088,45,1*67
$GPRMC,024228.09,A,2218.2783654,N,11410.7882901,E,3.78,31.93,271224,0.0,E,A*0E
$GPGGA,024228.09,2218.2783654,N,11410.7882901,E,1,04,1.0,44.218,M,0.000,M,0.0,*43
$GPGSA,A,3,26,29,31,32,,,,,,,,,5.1,2.9,4.2,1*2A
$GPGSV,1,1,04,26,68,239,42,29,22,080,40,31,47,325,42,32,61,088,45,1*67
$GPRMC,024228.19,A,2218.2800138,N,11410.7889853,E,7.53,350.47,271224,0.0,E,A*3B
$GPGGA,024228.19,2218.2800138,N,11410.7889853,E,1,04,1.0,38.734,M,0.000,M,0.0,*46
$GPGSA,A,3,26,29,31,32,,,,,,,,,5.1,2.9,4.2,1*2A
$GPGSV,1,1,04,26,68,239,42,29,22,080,40,31,47,325,42,32,61,088,45,1*67
$GPRMC,024228.29,A,2218.2764480,N,11410.7892019,E,2.77,244.24,271224,0.0,E,A*3D
$GPGGA,024228.29,2218.2764480,N,11410.7892019,E,1,04,1.0,39.139,M,0.000,M,0.0,*48
$GPGSA,A,3,26,29,31,32,,,,,,,,,5.1,2.9,4.2,1*2A
$GPGSV,1,1,04,26,68,239,42,29,22,080,40,31,47,325,42,32,61,088,45,1*67
$GPRMC,024228.39,A,2218.2763195,N,11410.7897363,E,7.97,4.76,271224,0.0,E,A*3B
$GPGGA,024228.39,2218.2763195,N,11410.7897363,E,1,04,1.0,33.146,M,0.000,M,0.0,*46
$GPGSA,A,3,26,29,31,32,,,,,,,,,5.1,2.9,4.2,1*2A
$GPGSV,1,1,04,26,68,239,42,29,22,080,40,31,47,325,42,32,61,088,45,1*67
$GPRMC,024228.49,A,2218.2771132,N,11410.7888071,E,3.61,349.08,271224,0.0,E,A*32
$GPGGA,024228.49,2218.2771132,N,11410.7888071,E,1,04,1.0,30.863,M,0.000,M,0.0,*4C
$GPGSA,A,3,26,29,31,32,,,,,,,,,5.1,2.9,4.2,1*2A
$GPGSV,1,1,04,26,68,239,42,29,22,080,40,31,47,325,42,32,61,088,45,1*67
$GPRMC,024228.59,A,2218.2743557,N,11410.7868706,E,3.86,182.09,271224,0.0,E,A*31
$GPGGA,024228.59,2218.2743557,N,11410.7868706,E,1,04,1.0,25.270,M,0.000,M,0.0,*4E
$GPGSA,A,3,26,29,31,32,,,,,,,,,5.1,2.9,4.2,1*2A
$GPGSV,1,1,04,26,68,239,42,29,22,080,40,31,47,325,42,32,61,088,45,1*67
$GPRMC,024228.69,A,2218.2730112,N,11410.7888666,E,3.53,33.76,271224,0.0,E,A*01
$GPGGA,024228.69,2218.2730112,N,11410.7888666,E,1,04,1.0,3.268,M,0.000,M,0.0,*78
$GPGSA,A,3,26,29,31,32,,,,,,,,,5.1,2.9,4.2,1*2A
$GPGSV,1,1,04,26,68,239,42,29,22,080,40,31,47,325,42,32,61,088,45,1*67
$GPRMC,024228.79,A,2218.2753371,N,11410.7907358,E,3.20,141.93,271224,0.0,E,A*37
$GPGGA,024228.79,2218.2753371,N,11410.7907358,E,1,04,1.0,20.281,M,0.000,M,0.0,*43
$GPGSA,A,3,26,29,31,32,,,,,,,,,5.1,2.9,4.2,1*2A
$GPGSV,1,1,04,26,68,239,42,29,22,080,39,31,47,325,42,32,61,088,45,1*69
$GPRMC,024228.89,A,2218.2762842,N,11410.7892830,E,6.68,56.31,271224,0.0,E,A*0F
$GPGGA,024228.89,2218.2762842,N,11410.7892830,E,1,04,1.0,22.864,M,0.000,M,0.0,*4E
$GPGSA,A,3,26,29,31,32,,,,,,,,,5.1,2.9,4.2,1*2A
$GPGSV,1,1,04,26,68,239,42,29,22,080,39,31,47,325,42,32,61,088,45,1*69
$GPRMC,024228.99,A,2218.2768544,N,11410.7869734,E,2.92,68.48,271224,0.0,E,A*02
$GPGGA,024228.99,2218.2768544,N,11410.7869734,E,1,04,1.0,30.826,M,0.000,M,0.0,*44
$GPGSA,A,3,26,29,31,32,,,,,,,,,5.1,2.9,4.2,1*2A
$GPGSV,1,1,04,26,68,239,42,29,22,080,40,31,47,325,42,32,61,088,45,1*67
$GPRMC,024229.09,A,2218.2718431,N,11410.7883703,E,13.29,201.57,271224,0.0,E,A*0D
$GPGGA,024229.09,2218.2718431,N,11410.7883703,E,1,04,1.0,32.822,M,0.000,M,0.0,*4E
$GPGSA,A,3,26,29,31,32,,,,,,,,,5.1,2.9,4.2,1*2A
$GPGSV,1,1,04,26,68,239,42,29,22,080,40,31,47,325,42,32,61,088,45,1*67
$GPRMC,024229.19,A,2218.2746231,N,11410.7902722,E,7.29,198.87,271224,0.0,E,A*31
$GPGGA,024229.19,2218.2746231,N,11410.7902722,E,1,04,1.0,38.367,M,0.000,M,0.0,*49
$GPGSA,A,3,26,29,31,32,,,,,,,,,5.1,2.9,4.2,1*2A
$GPGSV,1,1,04,26,68,239,42,29,22,080,40,31,47,325,42,32,61,088,45,1*67
$GPRMC,024229.29,A,2218.2797594,N,11410.7921898,E,14.49,36.67,271224,0.0,E,A*36
$GPGGA,024229.29,2218.2797594,N,11410.7921898,E,1,04,1.0,35.392,M,0.000,M,0.0,*46
$GPGSA,A,3,26,29,31,32,,,,,,,,,5.1,2.9,4.2,1*2A
$GPGSV,1,1,04,26,68,239,42,29,22,080,40,31,47,325,42,32,61,088,45,1*67
$GPRMC,024229.39,A,2218.2797800,N,11410.7915453,E,2.87,14.73,271224,0.0,E,A*0B
$GPGGA,024229.39,2218.2797800,N,11410.7915453,E,1,04,1.0,26.144,M,0.000,M,0.0,*40
$GPGSA,A,3,26,29,31,32,,,,,,,,,5.1,2.9,4.2,1*2A
$GPGSV,1,1,04,26,68,239,42,29,22,080,40,31,47,325,42,32,61,088,45,1*67
$GPRMC,024229.49,A,2218.2800037,N,11410.7881964,E,1.76,14.73,271224,0.0,E,A*09
$GPGGA,024229.49,2218.2800037,N,11410.7881964,E,1,04,1.0,24.335,M,0.000,M,0.0,*49
$GPGSA,A,3,26,29,31,32,,,,,,,,,5.1,2.9,4.2,1*2A
$GPGSV,1,1,04,26,68,239,42,29,22,080,40,31,47,325,42,32,61,088,45,1*67
$GPRMC,024229.59,A,2218.2793610,N,11410.7886998,E,3.21,76.63,271224,0.0,E,A*0F
$GPGGA,024229.59,2218.2793610,N,11410.7886998,E,1,04,1.0,27.006,M,0.000,M,0.0,*4A
$GPGSA,A,3,26,29,31,32,,,,,,,,,5.1,2.9,4.2,1*2A
$GPGSV,1,1,04,26,68,239,42,29,22,080,40,31,47,325,42,32,61,088,45,1*67
$GPRMC,024229.69,A,2218.2790317,N,11410.7893949,E,5.79,123.24,271224,0.0,E,A*3C
$GPGGA,024229.69,2218.2790317,N,11410.7893949,E,1,04,1.0,29.879,M,0.000,M,0.0,*4E
$GPGSA,A,3,26,29,31,32,,,,,,,,,5.1,2.9,4.2,1*2A
$GPGSV,1,1,04,26,68,239,42,29,22,080,40,31,47,325,42,32,61,088,45,1*67
$GPRMC,024229.79,A,2218.2774311,N,11410.7887441,E,4.94,22.45,271224,0.0,E,A*04
$GPGGA,024229.79,2218.2774311,N,11410.7887441,E,1,04,1.0,25.579,M,0.000,M,0.0,*42
$GPGSA,A,3,26,29,31,32,,,,,,,,,5.1,2.9,4.2,1*2A
$GPGSV,1,1,04,26,68,239,42,29,22,080,40,31,47,325,42,32,61,088,45,1*67
$GPRMC,024229.89,A,2218.2768036,N,11410.7866660,E,1.55,22.45,271224,0.0,E,A*06
$GPGGA,024229.89,2218.2768036,N,11410.7866660,E,1,05,1.0,14.260,M,0.000,M,0.0,*44
$GPGSA,A,3,26,28,29,31,32,,,,,,,,4.2,2.1,3.7,1*28
$GPGSV,2,1,05,26,68,239,42,28,47,010,43,29,22,080,40,31,47,325,42,1*6D
$GPGSV,2,2,05,32,61,088,45,,,,,,,,,,,,,1*56
$GPRMC,024229.99,A,2218.2774456,N,11410.7889413,E,3.29,263.22,271224,0.0,E,A*30
$GPGGA,024229.99,2218.2774456,N,11410.7889413,E,1,05,1.0,31.646,M,0.000,M,0.0,*4A
$GPGSA,A,3,26,28,29,31,32,,,,,,,,4.2,2.1,3.7,1*28
$GPGSV,2,1,05,26,68,239,42,28,47,010,43,29,22,080,40,31,47,325,42,1*6D
$GPGSV,2,2,05,32,61,088,44,,,,,,,,,,,,,1*57
$GPRMC,024230.09,A,2218.2752874,N,11410.7881617,E,9.42,253.91,271224,0.0,E,A*3B
$GPGGA,024230.09,2218.2752874,N,11410.7881617,E,1,05,1.0,20.266,M,0.000,M,0.0,*4B
$GPGSA,A,3,26,28,29,31,32,,,,,,,,4.2,2.1,3.7,1*28
$GPGSV,2,1,05,26,68,239,42,28,47,010,43,29,22,080,40,31,47,325,42,1*6D
$GPGSV,2,2,05,32,61,088,44,,,,,,,,,,,,,1*57
$GPRMC,024230.19,A,2218.2734763,N,11410.7877827,E,3.61,237.16,271224,0.0,E,A*31
$GPGGA,024230.19,2218.2734763,N,11410.7877827,E,1,05,1.0,10.903,M,0.000,M,0.0,*4C
$GPGSA,A,3,26,28,29,31,32,,,,,,,,4.2,2.1,3.7,1*28
$GPGSV,2,1,05,26,68,239,42,28,47,010,43,29,22,080,40,31,47,325,42,1*6D
$GPGSV,2,2,05,32,61,088,44,,,,,,,,,,,,,1*57
$GPRMC,024230.29,A,2218.2766036,N,11410.7924512,E,6.42,123.49,271224,0.0,E,A*36
$GPGGA,024230.29,2218.2766036,N,11410.7924512,E,1,05,1.0,20.793,M,0.000,M,0.0,*47
$GPGSA,A,3,26,28,29,31,32,,,,,,,,4.2,2.1,3.7,1*28
$GPGSV,2,1,05,26,68,239,42,28,47,010,43,29,22,080,40,31,47,325,41,1*6E
$GPGSV,2,2,05,32,61,088,44,,,,,,,,,,,,,1*57
$GPRMC,024230.39,A,2218.2754908,N,11410.7907652,E,2.74,15.34,271224,0.0,E,A*0B
$GPGGA,024230.39,2218.2754908,N,11410.7907652,E,1,05,1.0,19.471,M,0.000,M,0.0,*40
$GPGSA,A,3,26,28,29,31,32,,,,,,,,4.2,2.1,3.7,1*28
$GPGSV,2,1,05,26,68,239,42,28,47,010,43,29,22,080,40,31,47,325,41,1*6E
$GPGSV,2,2,05,32,61,088,44,,,,,,,,,,,,,1*57
$GPRMC,024230.49,A,2218.2737270,N,11410.7879189,E,1.19,15.34,271224,0.0,E,A*0C
$GPGGA,024230.49,2218.2737270,N,11410.7879189,E,1,05,1.0,8.081,M,0.000,M,0.0,*74
$GPGSA,A,3,26,28,29,31,32,,,,,,,,4.2,2.1,3.7,1*28
$GPGSV,2,1,05,26,68,239,42,28,47,010,43,29,22,080,40,31,47,325,41,1*6E
$GPGSV,2,2,05,32,61,088,44,,,,,,,,,,,,,1*57
$GPRMC,024230.59,A,2218.2738612,N,11410.7880106,E,4.06,358.26,271224,0.0,E,A*31
$GPGGA,024230.59,2218.2738612,N,11410.7880106,E,1,05,1.0,17.482,M,0.000,M,0.0,*42
$GPGSA,A,3,26,28,29,31,32,,,,,,,,4.2,2.1,3.7,1*28
$GPGSV,2,1,05,26,68,239,42,28,47,010,43,29,22,080,40,31,47,325,41,1*6E
$GPGSV,2,2,05,32,61,089,44,,,,,,,,,,,,,1*56
$GPRMC,024230.69,A,2218.2740274,N,11410.7902181,E,0.94,358.26,271224,0.0,E,A*32
$GPGGA,024230.69,2218.2740274,N,11410.7902181,E,1,05,1.0,23.598,M,0.000,M,0.0,*43
$GPGSA,A,3,26,28,29,31,32,,,,,,,,4.2,2.1,3.7,1*28
$GPGSV,2,1,05,26,68,239,42,28,47,010,44,29,22,080,40,31,47,325,41,1*69
$GPGSV,2,2,05,32,61,089,44,,,,,,,,,,,,,1*56
$GPRMC,024230.79,A,2218.2729507,N,11410.7892275,E,1.01,358.26,271224,0.0,E,A*32
$GPGGA,024230.79,2218.2729507,N,11410.7892275,E,1,05,1.0,16.095,M,0.000,M,0.0,*40
$GPGSA,A,3,26,28,29,31,32,,,,,,,,4.2,2.1,3.7,1*28
$GPGSV,2,1,05,26,68,239,42,28,47,010,44,29,22,080,40,31,47,325,41,1*69
$GPGSV,2,2,05,32,61,089,44,,,,,,,,,,,,,1*56
$GPRMC,024230.89,A,2218.2765625,N,11410.7904321,E,2.34,202.07,271224,0.0,E,A*30
$GPGGA,024230.89,2218.2765625,N,11410.7904321,E,1,05,1.0,37.400,M,0.000,M,0.0,*41
$GPGSA,A,3,26,28,29,31,32,,,,,,,,4.2,2.1,3.7,1*28
$GPGSV,2,1,05,26,68,239,42,28,47,010,44,29,22,080,40,31,47,325,42,1*6A
$GPGSV,2,2,05,32,61,089,44,,,,,,,,,,,,,1*56
$GPRMC,024230.99,A,2218.2748175,N,11410.7929194,E,1.78,202.07,271224,0.0,E,A*34
$GPGGA,024230.99,2218.2748175,N,11410.7929194,E,1,05,1.0,43.509,M,0.000,M,0.0,*45
$GPGSA,A,3,26,28,29,31,32,,,,,,,,4.2,2.1,3.7,1*28
$GPGSV,2,1,05,26,68,239,42,28,47,010,43,29,22,080,40,31,47,325,41,1*6E
$GPGSV,2,2,05,32,61,089,44,,,,,,,,,,,,,1*56
$GPRMC,024231.09,A,2218.2753377,N,11410.7931604,E,1.60,202.07,271224,0.0,E,A*38
$GPGGA,024231.09,2218.2753377,N,11410.7931604,E,1,05,1.0,40.993,M,0.000,M,0.0,*4C
$GPGSA,A,3,26,28,29,31,32,,,,,,,,4.2,2.1,3.7,1*28
$GPGSV,2,1,05,26,68,239,42,28,47,010,43,29,22,080,40,31,47,325,41,1*6E
$GPGSV,2,2,05,32,61,089,44,,,,,,,,,,,,,1*56
$GPRMC,024231.19,A,2218.2725545,N,11410.7901876,E,2.23,334.88,271224,0.0,E,A*30
$GPGGA,024231.19,2218.2725545,N,11410.7901876,E,1,05,1.0,32.142,M,0.000,M,0.0,*42
$GPGSA,A,3,26,28,29,31,32,,,,,,,,4.2,2.1,3.7,1*28
$GPGSV,2,1,05,26,68,239,42,28,47,010,44,29,22,080,40,31,47,325,41,1*69
$GPGSV,2,2,05,32,61,089,44,,,,,,,,,,,,,1*56
$GPRMC,024231.29,A,2218.2747560,N,11410.7922538,E,2.75,283.66,271224,0.0,E,A*38
$GPGGA,024231.29,2218.2747560,N,11410.7922538,E,1,05,1.0,28.946,M,0.000,M,0.0,*43
$GPGSA,A,3,26,28,29,31,32,,,,,,,,4.2,2.1,3.7,1*28
$GPGSV,2,1,05,26,68,239,42,28,47,010,44,29,22,080,40,31,47,325,41,1*69
$GPGSV,2,2,05,32,61,089,44,,,,,,,,,,,,,1*56
$GPRMC,024231.39,A,2218.2728613,N,11410.7881510,E,3.25,229.52,271224,0.0,E,A*36
$GPGGA,024231.39,2218.2728613,N,11410.7881510,E,1,05,1.0,8.289,M,0.000,M,0.0,*74
$GPGSA,A,3,26,28,29,31,32,,,,,,,,4.2,2.1,3.7,1*28
$GPGSV,2,1,05,26,68,239,42,28,47,010,44,29,22,080,40,31,47,325,41,1*69
$GPGSV,2,2,05,32,61,089,44,,,,,,,,,,,,,1*56
$GPRMC,024231.49,A,2218.2744508,N,11410.7873730,E,5.34,204.35,271224,0.0,E,A*37
$GPGGA,024231.49,2218.2744508,N,11410.7873730,E,1,05,1.0,5.165,M,0.000,M,0.0,*71
$GPGSA,A,3,26,28,29,31,32,,,,,,,,4.2,2.1,3.7,1*28
$GPGSV,2,1,05,26,68,239,42,28,47,010,44,29,22,080,40,31,47,325,41,1*69
$GPGSV,2,2,05,32,61,089,44,,,,,,,,,,,,,1*56
$GPRMC,024231.59,A,2218.2745443,N,11410.7888428,E,5.91,173.00,271224,0.0,E,A*3D
$GPGGA,024231.59,2218.2745443,N,11410.7888428,E,1,05,1.0,22.866,M,0.000,M,0.0,*4E
$GPGSA,A,3,26,28,29,31,32,,,,,,,,4.2,2.1,3.7,1*28
$GPGSV,2,1,05,26,68,239,42,28,47,010,43,29,22,080,40,31,47,325,41,1*6E
$GPGSV,2,2,05,32,61,089,44,,,,,,,,,,,,,1*56
$GPRMC,024231.69,A,2218.2747547,N,11410.7891921,E,8.05,49.12,271224,0.0,E,A*0E
$GPGGA,024231.69,2218.2747547,N,11410.7891921,E,1,05,1.0,17.677,M,0.000,M,0.0,*4E
$GPGSA,A,3,26,28,29,31,32,,,,,,,,4.2,2.1,3.7,1*28
$GPGSV,2,1,05,26,68,239,42,28,47,010,43,29,22,080,40,31,47,325,41,1*6E
$GPGSV,2,2,05,32,61,089,44,,,,,,,,,,,,,1*56
$GPRMC,024231.79,A,2218.2729991,N,11410.7901598,E,3.34,182.77,271224,0.0,E,A*3A
$GPGGA,024231.79,2218.2729991,N,11410.7901598,E,1,05,1.0,19.678,M,0.000,M,0.0,*47
$GPGSA,A,3,26,28,29,31,32,,,,,,,,4.2,2.1,3.7,1*28
$GPGSV,2,1,05,26,68,239,42,28,47,010,43,29,22,080,40,31,47,325,41,1*6E
$GPGSV,2,2,05,32,61,089,44,,,,,,,,,,,,,1*56
$GPRMC,024231.89,A,2218.2741370,N,11410.7912758,E,1.73,182.77,271224,0.0,E,A*33
$GPGGA,024231.89,2218.2741370,N,11410.7912758,E,1,05,1.0,26.210,M,0.000,M,0.0,*49
$GPGSA,A,3,26,28,29,31,32,,,,,,,,4.2,2.1,3.7,1*28
$GPGSV,2,1,05,26,68,239,42,28,47,010,43,29,22,080,40,31,47,325,42,1*6D
$GPGSV,2,2,05,32,61,089,44,,,,,,,,,,,,,1*56
$GPRMC,024231.99,A,2218.2777682,N,11410.7913538,E,1.34,182.77,271224,0.0,E,A*39
$GPGGA,024231.99,2218.2777682,N,11410.7913538,E,1,05,1.0,31.188,M,0.000,M,0.0,*44
$GPGSA,A,3,26,28,29,31,32,,,,,,,,4.2,2.1,3.7,1*28
$GPGSV,2,1,05,26,68,239,42,28,47,010,43,29,22,080,40,31,47,325,42,1*6D
$GPGSV,2,2,05,32,61,089,44,,,,,,,,,,,,,1*56
$GPRMC,024232.09,A,2218.2764655,N,11410.7896298,E,4.87,15.03,271224,0.0,E,A*0B
$GPGGA,024232.09,2218.2764655,N,11410.7896298,E,1,05,1.0,29.052,M,0.000,M,0.0,*48
$GPGSA,A,3,26,28,29,31,32,,,,,,,,4.2,2.1,3.7,1*28
$GPGSV,2,1,05,26,68,239,42,28,47,010,44,29,22,080,40,31,47,325,42,1*6A
$GPGSV,2,2,05,32,61,089,44,,,,,,,,,,,,,1*56
$GPRMC,024232.19,A,2218.2756810,N,11410.7886067,E,0.93,15.03,271224,0.0,E,A*06
$GPGGA,024232.19,2218.2756810,N,11410.7886067,E,1,05,1.0,24.213,M,0.000,M,0.0,*4E
$GPGSA,A,3,26,28,29,31,32,,,,,,,,4.2,2.1,3.7,1*28
$GPGSV,2,1,05,26,68,239,42,28,47,010,43,29,22,080,40,31,47,325,42,1*6D
$GPGSV,2,2,05,32,61,089,44,,,,,,,,,,,,,1*56
$GPRMC,024232.29,A,2218.2760733,N,11410.7891059,E,1.29,15.03,271224,0.0,E,A*05
$GPGGA,024232.29,2218.2760733,N,11410.7891059,E,1,05,1.0,24.800,M,0.000,M,0.0,*45
$GPGSA,A,3,26,28,29,31,32,,,,,,,,4.2,2.1,3.7,1*28
$GPGSV,2,1,05,26,68,239,42,28,47,010,43,29,22,080,40,31,47,325,41,1*6E
$GPGSV,2,2,05,32,61,089,44,,,,,,,,,,,,,1*56
$GPRMC,024232.39,A,2218.2781056,N,11410.7883713,E,4.18,290.66,271224,0.0,E,A*3E
$GPGGA,024232.39,2218.2781056,N,11410.7883713,E,1,05,1.0,30.735,M,0.000,M,0.0,*49
$GPGSA,A,3,26,28,29,31,32,,,,,,,,4.2,2.1,3.7,1*28
$GPGSV,2,1,05,26,68,239,42,28,47,010,43,29,22,080,40,31,47,325,41,1*6E
$GPGSV,2,2,05,32,61,089,44,,,,,,,,,,,,,1*56
$GPRMC,024232.49,A,2218.2738542,N,11410.7882460,E,3.87,227.87,271224,0.0,E,A*3F
$GPGGA,024232.49,2218.2738542,N,11410.7882460,E,1,05,1.0,25.197,M,0.000,M,0.0,*40
$GPGSA,A,3,26,28,29,31,32,,,,,,,,4.2,2.1,3.7,1*28
$GPGSV,2,1,05,26,68,239,42,28,47,010,43,29,22,080,40,31,47,325,41,1*6E
$GPGSV,2,2,05,32,61,089,44,,,,,,,,,,,,,1*56
$GPRMC,024232.59,A,2218.2741955,N,11410.7877744,E,2.90,159.52,271224,0.0,E,A*30
$GPGGA,024232.59,2218.2741955,N,11410.7877744,E,1,05,1.0,23.917,M,0.000,M,0.0,*4C
$GPGSA,A,3,26,28,29,31,32,,,,,,,,4.2,2.1,3.7,1*28
$GPGSV,2,1,05,26,68,239,42,28,47,010,44,29,22,080,40,31,47,325,41,1*69
$GPGSV,2,2,05,32,61,089,44,,,,,,,,,,,,,1*56
$GPRMC,024232.69,A,2218.2753510,N,11410.7888906,E,3.49,4.75,271224,0.0,E,A*3C
$GPGGA,024232.69,2218.2753510,N,11410.7888906,E,1,05,1.0,25.880,M,0.000,M,0.0,*40
$GPGSA,A,3,26,28,29,31,32,,,,,,,,4.2,2.1,3.7,1*28
$GPGSV,2,1,05,26,68,239,42,28,47,010,44,29,22,080,40,31,47,325,41,1*69
$GPGSV,2,2,05,32,61,089,44,,,,,,,,,,,,,1*56
$GPRMC,024232.79,A,2218.2737160,N,11410.7862200,E,2.20,186.01,271224,0.0,E,A*33
$GPGGA,024232.79,2218.2737160,N,11410.7862200,E,1,05,1.0,18.513,M,0.000,M,0.0,*40
$GPGSA,A,3,26,28,29,31,32,,,,,,,,4.2,2.1,3.7,1*28
$GPGSV,2,1,05,26,68,239,42,28,47,010,43,29,22,080,40,31,47,325,41,1*6E
$GPGSV,2,2,05,32,61,089,44,,,,,,,,,,,,,1*56
$GPRMC,024232.89,A,2218.2737897,N,11410.7893743,E,5.18,34.00,271224,0.0,E,A*04
$GPGGA,024232.89,2218.2737897,N,11410.7893743,E,1,05,1.0,16.983,M,0.000,M,0.0,*49
$GPGSA,A,3,26,28,29,31,32,,,,,,,,4.2,2.1,3.7,1*28
$GPGSV,2,1,05,26,68,239,42,28,47,010,44,29,22,080,40,31,47,325,42,1*6A
$GPGSV,2,2,05,32,61,089,44,,,,,,,,,,,,,1*56
$GPRMC,024232.99,A,2218.2750009,N,11410.7903940,E,2.84,315.13,271224,0.0,E,A*3E
$GPGGA,024232.99,2218.2750009,N,11410.7903940,E,1,05,1.0,22.665,M,0.000,M,0.0,*43
$GPGSA,A,3,26,28,29,31,32,,,,,,,,4.2,2.1,3.7,1*28
$GPGSV,2,1,05,26,68,239,42,28,47,010,44,29,22,080,40,31,47,325,42,1*6A
$GPGSV,2,2,05,32,61,089,44,,,,,,,,,,,,,1*56
$GPRMC,024233.09,A,2218.2745809,N,11410.7919926,E,6.22,106.06,271224,0.0,E,A*3D
$GPGGA,024233.09,2218.2745809,N,11410.7919926,E,1,05,1.0,38.263,M,0.000,M,0.0,*45
$GPGSA,A,3,26,28,29,31,32,,,,,,,,4.2,2.1,3.7,1*28
$GPGSV,2,1,05,26,68,239,42,28,47,010,43,29,22,080,40,31,47,325,42,1*6D
$GPGSV,2,2,05,32,61,089,44,,,,,,,,,,,,,1*56
$GPRMC,024233.19,A,2218.2752011,N,11410.7911472,E,3.29,312.26,271224,0.0,E,A*34
$GPGGA,024233.19,2218.2752011,N,11410.7911472,E,1,05,1.0,36.656,M,0.000,M,0.0,*4B
$GPGSA,A,3,26,28,29,31,32,,,,,,,,4.2,2.1,3.7,1*28
$GPGSV,2,1,05,26,68,239,42,28,47,010,43,29,22,080,40,31,47,325,42,1*6D
$GPGSV,2,2,05,32,61,089,44,,,,,,,,,,,,,1*56
$GPRMC,024233.29,A,2218.2763527,N,11410.7893634,E,9.65,148.42,271224,0.0,E,A*33
$GPGGA,024233.29,2218.2763527,N,11410.7893634,E,1,05,1.0,29.273,M,0.000,M,0.0,*4C
$GPGSA,A,3,26,28,29,31,32,,,,,,,,4.2,2.1,3.7,1*28
$GPGSV,2,1,05,26,68,239,42,28,47,010,43,29,22,080,40,31,47,325,42,1*6D
$GPGSV,2,2,05,32,61,089,44,,,,,,,,,,,,,1*56
$GPRMC,024233.39,A,2218.2728971,N,11410.7882581,E,4.18,211.30,271224,0.0,E,A*32
$GPGGA,024233.39,2218.2728971,N,11410.7882581,E,1,05,1.0,23.489,M,0.000,M,0.0,*49
$GPGSA,A,3,26,28,29,31,32,,,,,,,,4.2,2.1,3.7,1*28
$GPGSV,2,1,05,26,68,239,42,28,47,010,43,29,22,080,40,31,47,325,42,1*6D
$GPGSV,2,2,05,32,61,089,44,,,,,,,,,,,,,1*56
$GPRMC,024233.49,A,2218.2734760,N,11410.7885738,E,6.15,5.60,271224,0.0,E,A*3C
$GPGGA,024233.49,2218.2734760,N,11410.7885738,E,1,05,1.0,25.014,M,0.000,M,0.0,*4C
$GPGSA,A,3,26,28,29,31,32,,,,,,,,4.2,2.1,3.7,1*28
$GPGSV,2,1,05,26,68,239,42,28,47,010,44,29,22,080,40,31,47,325,42,1*6A
$GPGSV,2,2,05,32,61,089,44,,,,,,,,,,,,,1*56
$GPRMC,024233.59,A,2218.2744600,N,11410.7891196,E,6.57,217.71,271224,0.0,E,A*3D
$GPGGA,024233.59,2218.2744600,N,11410.7891196,E,1,05,1.0,24.759,M,0.000,M,0.0,*45
$GPGSA,A,3,26,28,29,31,32,,,,,,,,4.2,2.1,3.7,1*28
$GPGSV,2,1,05,26,68,239,42,28,47,010,44,29,22,080,40,31,47,325,42,1*6A
$GPGSV,2,2,05,32,61,089,44,,,,,,,,,,,,,1*56
$GPRMC,024233.69,A,2218.2716698,N,11410.7888533,E,10.45,257.33,271224,0.0,E,A*0D
$GPGGA,024233.69,2218.2716698,N,11410.7888533,E,1,05,1.0,25.660,M,0.000,M,0.0,*49
$GPGSA,A,3,26,28,29,31,32,,,,,,,,4.2,2.1,3.7,1*28
$GPGSV,2,1,05,26,68,239,42,28,47,010,44,29,22,080,40,31,47,325,41,1*69
$GPGSV,2,2,05,32,61,089,44,,,,,,,,,,,,,1*56
$GPRMC,024233.79,A,2218.2750815,N,11410.7901649,E,6.71,39.55,271224,0.0,E,A*01
$GPGGA,024233.79,2218.2750815,N,11410.7901649,E,1,05,1.0,38.806,M,0.000,M,0.0,*4D
$GPGSA,A,3,26,28,29,31,32,,,,,,,,4.2,2.1,3.7,1*28
$GPGSV,2,1,05,26,68,239,42,28,47,010,44,29,22,080,40,31,47,325,41,1*69
$GPGSV,2,2,05,32,61,089,44,,,,,,,,,,,,,1*56
$GPRMC,024233.89,A,2218.2748374,N,11410.7901878,E,7.59,75.59,271224,0.0,E,A*08
$GPGGA,024233.89,2218.2748374,N,11410.7901878,E,1,05,1.0,32.656,M,0.000,M,0.0,*4A
$GPGSA,A,3,26,28,29,31,32,,,,,,,,4.2,2.1,3.7,1*28
$GPGSV,2,1,05,26,68,239,42,28,47,010,44,29,22,080,40,31,47,325,41,1*69
$GPGSV,2,2,05,32,61,089,44,,,,,,,,,,,,,1*56
$GPRMC,024233.99,A,2218.2760126,N,11410.7922748,E,1.85,75.59,271224,0.0,E,A*0C
$GPGGA,024233.99,2218.2760126,N,11410.7922748,E,1,05,1.0,38.615,M,0.000,M,0.0,*44
$GPGSA,A,3,26,28,29,31,32,,,,,,,,4.2,2.1,3.7,1*28
$GPGSV,2,1,05,26,68,239,42,28,47,010,44,29,22,080,40,31,47,325,42,1*6A
$GPGSV,2,2,05,32,61,089,44,,,,,,,,,,,,,1*56
$GPRMC,024234.09,A,2218.2733949,N,11410.7906982,E,10.59,52.76,271224,0.0,E,A*32
$GPGGA,024234.09,2218.2733949,N,11410.7906982,E,1,05,1.0,36.017,M,0.000,M,0.0,*49
$GPGSA,A,3,26,28,29,31,32,,,,,,,,4.2,2.1,3.7,1*28
$GPGSV,2,1,05,26,68,239,42,28,47,010,44,29,22,080,40,31,47,325,41,1*69
$GPGSV,2,2,05,32,61,089,44,,,,,,,,,,,,,1*56
$GPRMC,024234.19,A,2218.2722260,N,11410.7883800,E,4.51,191.55,271224,0.0,E,A*36
$GPGGA,024234.19,2218.2722260,N,11410.7883800,E,1,05,1.0,23.902,M,0.000,M,0.0,*46
$GPGSA,A,3,26,28,29,31,32,,,,,,,,4.2,2.1,3.7,1*28
$GPGSV,2,1,05,26,68,239,42,28,47,010,44,29,22,080,40,31,47,325,41,1*69
$GPGSV,2,2,05,32,61,089,44,,,,,,,,,,,,,1*56
$GPRMC,024234.29,A,2218.2761302,N,11410.7906815,E,2.56,346.09,271224,0.0,E,A*3F
$GPGGA,024234.29,2218.2761302,N,11410.7906815,E,1,05,1.0,35.988,M,0.000,M,0.0,*4A
$GPGSA,A,3,26,28,29,31,32,,,,,,,,4.2,2.1,3.7,1*28
$GPGSV,2,1,05,26,68,239,42,28,47,010,44,29,22,080,40,31,47,325,41,1*69
$GPGSV,2,2,05,32,61,089,44,,,,,,,,,,,,,1*56
$GPRMC,024234.39,A,2218.2765674,N,11410.7902333,E,2.94,60.97,271224,0.0,E,A*0B
$GPGGA,024234.39,2218.2765674,N,11410.7902333,E,1,05,1.0,33.688,M,0.000,M,0.0,*49
$GPGSA,A,3,26,28,29,31,32,,,,,,,,4.2,2.1,3.7,1*28
$GPGSV,2,1,05,26,68,239,42,28,47,010,44,29,22,080,40,31,47,325,41,1*69
$GPGSV,2,2,05,32,61,089,44,,,,,,,,,,,,,1*56
$GPRMC,024234.49,A,2218.2739954,N,11410.7881449,E,2.63,26.97,271224,0.0,E,A*02
$GPGGA,024234.49,2218.2739954,N,11410.7881449,E,1,05,1.0,36.215,M,0.000,M,0.0,*4F
$GPGSA,A,3,26,28,29,31,32,,,,,,,,4.2,2.1,3.7,1*28
$GPGSV,2,1,05,26,68,239,42,28,47,010,44,29,22,080,40,31,47,325,41,1*69
$GPGSV,2,2,05,32,61,089,44,,,,,,,,,,,,,1*56
$GPRMC,024234.59,A,2218.2735461,N,11410.7893544,E,1.56,26.97,271224,0.0,E,A*0E
$GPGGA,024234.59,2218.2735461,N,11410.7893544,E,1,05,1.0,42.042,M,0.000,M,0.0,*45
$GPGSA,A,3,26,28,29,31,32,,,,,,,,4.2,2.1,3.7,1*28
$GPGSV,2,1,05,26,68,239,42,28,47,010,44,29,22,080,40,31,47,325,41,1*69
$GPGSV,2,2,05,32,61,089,44,,,,,,,,,,,,,1*56
$GPRMC,024234.69,A,2218.2747381,N,11410.7883786,E,6.44,36.10,271224,0.0,E,A*06
$GPGGA,024234.69,2218.2747381,N,11410.7883786,E,1,05,1.0,44.296,M,0.000,M,0.0,*4A
$GPGSA,A,3,26,28,29,31,32,,,,,,,,4.2,2.1,3.7,1*28
$GPGSV,2,1,05,26,68,239,42,28,47,010,44,29,22,080,40,31,47,325,41,1*69
$GPGSV,2,2,05,32,61,089,44,,,,,,,,,,,,,1*56
$GPRMC,024234.79,A,2218.2790879,N,11410.7925293,E,3.94,355.82,271224,0.0,E,A*38
$GPGGA,024234.79,2218.2790879,N,11410.7925293,E,1,05,1.0,47.011,M,0.000,M,0.0,*4F
$GPGSA,A,3,26,28,29,31,32,,,,,,,,4.2,2.1,3.7,1*28
$GPGSV,2,1,05,26,68,239,42,28,47,010,44,29,22,080,40,31,47,325,41,1*69
$GPGSV,2,2,05,32,61,089,44,,,,,,,,,,,,,1*56
$GPRMC,024234.89,A,2218.2766225,N,11410.7914262,E,5.66,105.16,271224,0.0,E,A*30
$GPGGA,024234.89,2218.2766225,N,11410.7914262,E,1,05,1.0,37.421,M,0.000,M,0.0,*46
$GPGSA,A,3,26,28,29,31,32,,,,,,,,4.2,2.1,3.7,1*28
$GPGSV,2,1,05,26,68,239,41,28,47,010,44,29,22,080,40,31,47,325,41,1*6A
$GPGSV,2,2,05,32,61,089,44,,,,,,,,,,,,,1*56
$GPRMC,024234.99,A,2218.2776048,N,11410.7932170,E,3.91,301.20,271224,0.0,E,A*30
$GPGGA,024234.99,2218.2776048,N,11410.7932170,E,1,05,1.0,50.253,M,0.000,M,0.0,*49
$GPGSA,A,3,26,28,29,31,32,,,,,,,,4.2,2.1,3.7,1*28
$GPGSV,2,1,05,26,68,239,41,28,47,010,44,29,22,080,40,31,47,325,41,1*6A
$GPGSV,2,2,05,32,61,089,44,,,,,,,,,,,,,1*56
$GPRMC,024235.09,A,2218.2768310,N,11410.7895309,E,2.75,104.27,271224,0.0,E,A*32
$GPGGA,024235.09,2218.2768310,N,11410.7895309,E,1,05,1.0,49.498,M,0.000,M,0.0,*49
$GPGSA,A,3,26,28,29,31,32,,,,,,,,4.2,2.1,3.7,1*28
$GPGSV,2,1,05,26,68,239,41,28,47,010,44,29,22,080,40,31,47,325,41,1*6A
$GPGSV,2,2,05,32,61,089,44,,,,,,,,,,,,,1*56
$GPRMC,024235.19,A,2218.2737954,N,11410.7892250,E,2.53,121.77,271224,0.0,E,A*3F
$GPGGA,024235.19,2218.2737954,N,11410.7892250,E,1,05,1.0,38.701,M,0.000,M,0.0,*47
$GPGSA,A,3,26,28,29,31,32,,,,,,,,4.2,2.1,3.7,1*28
$GPGSV,2,1,05,26,68,239,41,28,47,010,44,29,22,080,40,31,47,325,41,1*6A
$GPGSV,2,2,05,32,61,089,44,,,,,,,,,,,,,1*56
$GPRMC,024235.29,A,2218.2744694,N,11410.7887755,E,1.55,121.77,271224,0.0,E,A*3A
$GPGGA,024235.29,2218.2744694,N,11410.7887755,E,1,05,1.0,44.207,M,0.000,M,0.0,*4F
$GPGSA,A,3,26,28,29,31,32,,,,,,,,4.2,2.1,3.7,1*28
$GPGSV,2,1,05,26,68,239,41,28,47,010,44,29,22,080,40,31,47,325,41,1*6A
$GPGSV,2,2,05,32,61,089,44,,,,,,,,,,,,,1*56
$GPRMC,024235.39,A,2218.2723474,N,11410.7870158,E,5.05,57.65,271224,0.0,E,A*07
$GPGGA,024235.39,2218.2723474,N,11410.7870158,E,1,05,1.0,26.095,M,0.000,M,0.0,*4D
$GPGSA,A,3,26,28,29,31,32,,,,,,,,4.2,2.1,3.7,1*28
$GPGSV,2,1,05,26,68,239,42,28,47,010,44,29,22,080,40,31,47,325,41,1*69
$GPGSV,2,2,05,32,61,089,44,,,,,,,,,,,,,1*56
$GPRMC,024235.49,A,2218.2764746,N,11410.7890732,E,1.40,57.65,271224,0.0,E,A*00
$GPGGA,024235.49,2218.2764746,N,11410.7890732,E,1,05,1.0,38.527,M,0.000,M,0.0,*4C
$GPGSA,A,3,26,28,29,31,32,,,,,,,,4.2,2.1,3.7,1*28
$GPGSV,2,1,05,26,68,239,42,28,47,010,44,29,22,080,40,31,47,325,41,1*69
$GPGSV,2,2,05,32,61,089,44,,,,,,,,,,,,,1*56
$GPRMC,024235.59,A,2218.2794810,N,11410.7931513,E,3.37,201.34,271224,0.0,E,A*3E
$GPGGA,024235.59,2218.2794810,N,11410.7931513,E,1,05,1.0,48.632,M,0.000,M,0.0,*45
$GPGSA,A,3,26,28,29,31,32,,,,,,,,4.2,2.1,3.7,1*28
$GPGSV,2,1,05,26,68,239,42,28,47,010,44,29,22,080,40,31,47,325,41,1*69
$GPGSV,2,2,05,32,61,089,44,,,,,,,,,,,,,1*56
$GPRMC,024235.69,A,2218.2767743,N,11410.7926497,E,5.75,34.63,271224,0.0,E,A*05
$GPGGA,024235.69,2218.2767743,N,11410.7926497,E,1,05,1.0,39.503,M,0.000,M,0.0,*4F
$GPGSA,A,3,26,28,29,31,32,,,,,,,,4.2,2.1,3.7,1*28
$GPGSV,2,1,05,26,68,239,42,28,47,010,44,29,22,080,40,31,47,325,41,1*69
$GPGSV,2,2,05,32,61,089,44,,,,,,,,,,,,,1*56
$GPRMC,024235.79,A,2218.2756804,N,11410.7898471,E,3.97,36.09,271224,0.0,E,A*02
$GPGGA,024235.79,2218.2756804,N,11410.7898471,E,1,05,1.0,37.220,M,0.000,M,0.0,*44
$GPGSA,A,3,26,28,29,31,32,,,,,,,,4.2,2.1,3.7,1*28
$GPGSV,2,1,05,26,68,239,42,28,47,010,44,29,22,080,40,31,47,325,41,1*69
$GPGSV,2,2,05,32,61,089,44,,,,,,,,,,,,,1*56
$GPRMC,024235.89,A,2218.2765348,N,11410.7896631,E,8.77,53.74,271224,0.0,E,A*0A
$GPGGA,024235.89,2218.2765348,N,11410.7896631,E,1,05,1.0,33.659,M,0.000,M,0.0,*4E
$GPGSA,A,3,26,28,29,31,32,,,,,,,,4.2,2.1,3.7,1*28
$GPGSV,2,1,05,26,68,239,42,28,47,010,44,29,22,080,40,31,47,325,42,1*6A
$GPGSV,2,2,05,32,61,089,44,,,,,,,,,,,,,1*56
$GPRMC,024235.99,A,2218.2761898,N,11410.7882080,E,2.20,149.80,271224,0.0,E,A*39
$GPGGA,024235.99,2218.2761898,N,11410.7882080,E,1,05,1.0,29.220,M,0.000,M,0.0,*45
$GPGSA,A,3,26,28,29,31,32,,,,,,,,4.2,2.1,3.7,1*28
$GPGSV,2,1,05,26,68,239,42,28,47,010,44,29,22,080,40,31,47,325,42,1*6A
$GPGSV,2,2,05,32,61,089,44,,,,,,,,,,,,,1*56
$GPRMC,024236.09,A,2218.2707739,N,11410.7878322,E,3.31,121.60,271224,0.0,E,A*38
$GPGGA,024236.09,2218.2707739,N,11410.7878322,E,1,05,1.0,30.510,M,0.000,M,0.0,*49
$GPGSA,A,3,26,28,29,31,32,,,,,,,,4.2,2.1,3.7,1*28
$GPGSV,2,1,05,26,68,239,42,28,47,010,44,29,22,080,40,31,47,325,42,1*6A
$GPGSV,2,2,05,32,61,089,44,,,,,,,,,,,,,1*56
$GPRMC,024236.19,A,2218.2733670,N,11410.7914151,E,4.97,36.39,271224,0.0,E,A*0F
$GPGGA,024236.19,2218.2733670,N,11410.7914151,E,1,05,1.0,52.474,M,0.000,M,0.0,*49
$GPGSA,A,3,26,28,29,31,32,,,,,,,,4.2,2.1,3.7,1*28
$GPGSV,2,1,05,26,68,239,42,28,47,010,44,29,22,080,40,31,47,325,42,1*6A
$GPGSV,2,2,05,32,61,089,44,,,,,,,,,,,,,1*56
$GPRMC,024236.29,A,2218.2720907,N,11410.7894458,E,3.16,19.27,271224,0.0,E,A*08
$GPGGA,024236.29,2218.2720907,N,11410.7894458,E,1,05,1.0,48.269,M,0.000,M,0.0,*43
$GPGSA,A,3,26,28,29,31,32,,,,,,,,4.2,2.1,3.7,1*28
$GPGSV,2,1,05,26,68,239,42,28,47,010,44,29,22,080,40,31,47,325,42,1*6A
$GPGSV,2,2,05,32,61,089,44,,,,,,,,,,,,,1*56
$GPRMC,024236.39,A,2218.2736230,N,11410.7901864,E,2.16,73.64,271224,0.0,E,A*05
$GPGGA,024236.39,2218.2736230,N,11410.7901864,E,1,05,1.0,47.316,M,0.000,M,0.0,*42
$GPGSA,A,3,26,28,29,31,32,,,,,,,,4.2,2.1,3.7,1*28
$GPGSV,2,1,05,26,68,239,42,28,47,010,44,29,22,080,40,31,47,325,42,1*6A
$GPGSV,2,2,05,32,61,089,44,,,,,,,,,,,,,1*56
$GPRMC,024236.49,A,2218.2720922,N,11410.7877819,E,1.12,73.64,271224,0.0,E,A*00
$GPGGA,024236.49,2218.2720922,N,11410.7877819,E,1,05,1.0,33.386,M,0.000,M,0.0,*4A
$GPGSA,A,3,26,28,29,31,32,,,,,,,,4.2,2.1,3.7,1*28
$GPGSV,2,1,05,26,68,239,42,28,47,010,44,29,22,080,40,31,47,325,42,1*6A
$GPGSV,2,2,05,32,61,089,44,,,,,,,,,,,,,1*56
$GPRMC,024236.59,A,2218.2735072,N,11410.7867716,E,1.94,165.16,271224,0.0,E,A*35
$GPGGA,024236.59,2218.2735072,N,11410.7867716,E,1,05,1.0,32.364,M,0.000,M,0.0,*4F
$GPGSA,A,3,26,28,29,31,32,,,,,,,,4.2,2.1,3.7,1*28
$GPGSV,2,1,05,26,68,239,42,28,47,010,44,29,22,080,40,31,47,325,42,1*6A
$GPGSV,2,2,05,32,61,089,44,,,,,,,,,,,,,1*56
$GPRMC,024236.69,A,2218.2787712,N,11410.7895674,E,2.47,192.50,271224,0.0,E,A*31
$GPGGA,024236.69,2218.2787712,N,11410.7895674,E,1,05,1.0,52.654,M,0.000,M,0.0,*4C
$GPGSA,A,3,26,28,29,31,32,,,,,,,,4.2,2.1,3.7,1*28
$GPGSV,2,1,05,26,68,239,42,28,47,010,44,29,22,080,40,31,47,325,42,1*6A
$GPGSV,2,2,05,32,61,089,44,,,,,,,,,,,,,1*56
$GPRMC,024236.79,A,2218.2782091,N,11410.7909277,E,4.12,208.60,271224,0.0,E,A*3F
$GPGGA,024236.79,2218.2782091,N,11410.7909277,E,1,05,1.0,61.936,M,0.000,M,0.0,*4C
$GPGSA,A,3,26,28,29,31,32,,,,,,,,4.2,2.1,3.7,1*28
$GPGSV,2,1,05,26,68,239,42,28,47,010,44,29,22,080,40,31,47,325,42,1*6A
$GPGSV,2,2,05,32,61,089,44,,,,,,,,,,,,,1*56
$GPRMC,024236.89,A,2218.2768340,N,11410.7892815,E,1.31,208.60,271224,0.0,E,A*32
$GPGGA,024236.89,2218.2768340,N,11410.7892815,E,1,05,1.0,48.792,M,0.000,M,0.0,*4E
$GPGSA,A,3,26,28,29,31,32,,,,,,,,4.2,2.1,3.7,1*28
$GPGSV,2,1,05,26,68,239,42,28,47,010,44,29,22,080,40,31,47,325,42,1*6A
$GPGSV,2,2,05,32,61,089,44,,,,,,,,,,,,,1*56
$GPRMC,024236.99,A,2218.2745189,N,11410.7887666,E,3.71,44.04,271224,0.0,E,A*0B
$GPGGA,024236.99,2218.2745189,N,11410.7887666,E,1,05,1.0,47.893,M,0.000,M,0.0,*48
$GPGSA,A,3,26,28,29,31,32,,,,,,,,4.2,2.1,3.7,1*28
$GPGSV,2,1,05,26,68,239,42,28,47,010,44,29,22,080,40,31,47,325,42,1*6A
$GPGSV,2,2,05,32,61,089,44,,,,,,,,,,,,,1*56
$GPRMC,024237.09,A,2218.2744041,N,11410.7886782,E,4.31,12.39,271224,0.0,E,A*03
$GPGGA,024237.09,2218.2744041,N,11410.7886782,E,1,05,1.0,40.518,M,0.000,M,0.0,*47
$GPGSA,A,3,26,28,29,31,32,,,,,,,,4.2,2.1,3.7,1*28
$GPGSV,2,1,05,26,68,239,42,28,47,010,44,29,22,080,40,31,47,325,42,1*6A
$GPGSV,2,2,05,32,61,089,44,,,,,,,,,,,,,1*56
$GPRMC,024237.19,A,2218.2715795,N,11410.7872944,E,2.17,109.28,271224,0.0,E,A*3E
$GPGGA,024237.19,2218.2715795,N,11410.7872944,E,1,05,1.0,29.205,M,0.000,M,0.0,*47
$GPGSA,A,3,26,28,29,31,32,,,,,,,,4.2,2.1,3.7,1*28
$GPGSV,2,1,05,26,68,239,42,28,47,010,44,29,22,080,40,31,47,325,42,1*6A
$GPGSV,2,2,05,32,61,089,44,,,,,,,,,,,,,1*56
$GPRMC,024237.29,A,2218.2761359,N,11410.7872373,E,2.85,70.99,271224,0.0,E,A*0A
$GPGGA,024237.29,2218.2761359,N,11410.7872373,E,1,05,1.0,32.738,M,0.000,M,0.0,*4C
$GPGSA,A,3,26,28,29,31,32,,,,,,,,4.2,2.1,3.7,1*28
$GPGSV,2,1,05,26,68,239,41,28,47,010,44,29,22,080,40,31,47,325,42,1*69
$GPGSV,2,2,05,32,61,089,44,,,,,,,,,,,,,1*56
$GPRMC,024237.39,A,2218.2750912,N,11410.7872443,E,4.49,55.34,271224,0.0,E,A*0E
$GPGGA,024237.39,2218.2750912,N,11410.7872443,E,1,05,1.0,31.260,M,0.000,M,0.0,*45
$GPGSA,A,3,26,28,29,31,32,,,,,,,,4.2,2.1,3.7,1*28
$GPGSV,2,1,05,26,68,239,41,28,47,010,44,29,22,080,41,31,47,325,42,1*68
$GPGSV,2,2,05,32,61,089,44,,,,,,,,,,,,,1*56
$GPRMC,024237.49,A,2218.2754019,N,11410.7878360,E,2.18,63.15,271224,0.0,E,A*07
$GPGGA,024237.49,2218.2754019,N,11410.7878360,E,1,05,1.0,38.594,M,0.000,M,0.0,*4D
$GPGSA,A,3,26,28,29,31,32,,,,,,,,4.2,2.1,3.7,1*28
$GPGSV,2,1,05,26,68,239,41,28,47,010,44,29,22,080,40,31,47,325,42,1*69
$GPGSV,2,2,05,32,61,089,44,,,,,,,,,,,,,1*56
$GPRMC,024237.59,A,2218.2748502,N,11410.7873444,E,3.46,189.05,271224,0.0,E,A*30
$GPGGA,024237.59,2218.2748502,N,11410.7873444,E,1,05,1.0,34.786,M,0.000,M,0.0,*49
$GPGSA,A,3,26,28,29,31,32,,,,,,,,4.2,2.1,3.7,1*28
$GPGSV,2,1,05,26,68,239,41,28,47,010,44,29,22,080,40,31,47,325,42,1*69
$GPGSV,2,2,05,32,61,089,44,,,,,,,,,,,,,1*56
$GPRMC,024237.69,A,2218.2746712,N,11410.7897426,E,6.85,24.26,271224,0.0,E,A*0D
$GPGGA,024237.69,2218.2746712,N,11410.7897426,E,1,05,1.0,56.354,M,0.000,M,0.0,*46
$GPGSA,A,3,26,28,29,31,32,,,,,,,,4.2,2.1,3.7,1*28
$GPGSV,2,1,05,26,68,239,41,28,47,010,44,29,22,080,41,31,47,325,42,1*68
$GPGSV,2,2,05,32,61,089,44,,,,,,,,,,,,,1*56
$GPRMC,024237.79,A,2218.2758582,N,11410.7892128,E,1.05,24.26,271224,0.0,E,A*09
$GPGGA,024237.79,2218.2758582,N,11410.7892128,E,1,05,1.0,56.460,M,0.000,M,0.0,*4D
$GPGSA,A,3,26,28,29,31,32,,,,,,,,4.2,2.1,3.7,1*28
$GPGSV,2,1,05,26,68,239,42,28,47,010,44,29,22,080,40,31,47,325,42,1*6A
$GPGSV,2,2,05,32,61,089,44,,,,,,,,,,,,,1*56
$GPRMC,024237.89,A,2218.2747787,N,11410.7910927,E,7.11,27.13,271224,0.0,E,A*05
$GPGGA,024237.89,2218.2747787,N,11410.7910927,E,1,05,1.0,59.551,M,0.000,M,0.0,*4B
$GPGSA,A,3,26,28,29,31,32,,,,,,,,4.2,2.1,3.7,1*28
$GPGSV,2,1,05,26,68,239,42,28,47,010,44,29,22,080,41,31,47,325,42,1*6B
$GPGSV,2,2,05,32,61,089,44,,,,,,,,,,,,,1*56
$GPRMC,024237.99,A,2218.2758298,N,11410.7897736,E,1.73,27.13,271224,0.0,E,A*03
$GPGGA,024237.99,2218.2758298,N,11410.7897736,E,1,05,1.0,51.498,M,0.000,M,0.0,*43
$GPGSA,A,3,26,28,29,31,32,,,,,,,,4.2,2.1,3.7,1*28
$GPGSV,2,1,05,26,68,239,42,28,47,010,44,29,22,080,41,31,47,325,42,1*6B
$GPGSV,2,2,05,32,61,089,44,,,,,,,,,,,,,1*56
$GPRMC,024238.09,A,2218.2755778,N,11410.7907554,E,3.09,274.58,271224,0.0,E,A*39
$GPGGA,024238.09,2218.2755778,N,11410.7907554,E,1,05,1.0,44.252,M,0.000,M,0.0,*49
$GPGSA,A,3,26,28,29,31,32,,,,,,,,4.2,2.1,3.7,1*28
$GPGSV,2,1,05,26,68,239,42,28,47,010,44,29,22,080,41,31,47,325,42,1*6B
$GPGSV,2,2,05,32,61,089,44,,,,,,,,,,,,,1*56
$GPRMC,024238.19,A,2218.2744017,N,11410.7892174,E,5.21,97.44,271224,0.0,E,A*03
$GPGGA,024238.19,2218.2744017,N,11410.7892174,E,1,05,1.0,27.561,M,0.000,M,0.0,*4F
$GPGSA,A,3,26,28,29,31,32,,,,,,,,4.2,2.1,3.7,1*28
$GPGSV,2,1,05,26,68,239,42,28,47,010,44,29,22,080,41,31,47,325,42,1*6B
$GPGSV,2,2,05,32,61,089,44,,,,,,,,,,,,,1*56
$GPRMC,024238.29,A,2218.2773652,N,11410.7879664,E,2.04,255.10,271224,0.0,E,A*3D
$GPGGA,024238.29,2218.2773652,N,11410.7879664,E,1,05,1.0,40.656,M,0.000,M,0.0,*4A
$GPGSA,A,3,26,28,29,31,32,,,,,,,,4.2,2.1,3.7,1*28
$GPGSV,2,1,05,26,68,239,41,28,47,010,44,29,22,080,41,31,47,325,42,1*68
$GPGSV,2,2,05,32,61,089,44,,,,,,,,,,,,,1*56
$GPRMC,024238.39,A,2218.2767829,N,11410.7873285,E,6.76,167.01,271224,0.0,E,A*39
$GPGGA,024238.39,2218.2767829,N,11410.7873285,E,1,05,1.0,44.633,M,0.000,M,0.0,*4A
$GPGSA,A,3,26,28,29,31,32,,,,,,,,4.2,2.1,3.7,1*28
$GPGSV,2,1,05,26,68,239,41,28,47,010,44,29,22,080,41,31,47,325,42,1*68
$GPGSV,2,2,05,32,61,089,44,,,,,,,,,,,,,1*56
$GPRMC,024238.49,A,2218.2730053,N,11410.7875820,E,3.05,217.17,271224,0.0,E,A*38
$GPGGA,024238.49,2218.2730053,N,11410.7875820,E,1,05,1.0,46.201,M,0.000,M,0.0,*4E
$GPGSA,A,3,26,28,29,31,32,,,,,,,,4.2,2.1,3.7,1*28
$GPGSV,2,1,05,26,68,239,42,28,47,010,44,29,22,080,41,31,47,325,42,1*6B
$GPGSV,2,2,05,32,61,089,44,,,,,,,,,,,,,1*56
$GPRMC,024238.59,A,2218.2758515,N,11410.7892312,E,1.60,217.17,271224,0.0,E,A*32
$GPGGA,024238.59,2218.2758515,N,11410.7892312,E,1,05,1.0,41.175,M,0.000,M,0.0,*42
$GPGSA,A,3,26,28,29,31,32,,,,,,,,4.2,2.1,3.7,1*28
$GPGSV,2,1,05,26,68,239,42,28,47,010,44,29,22,080,41,31,47,325,42,1*6B
$GPGSV,2,2,05,32,61,089,43,,,,,,,,,,,,,1*51
$GPRMC,024238.69,A,2218.2765400,N,11410.7915656,E,4.55,208.68,271224,0.0,E,A*34
$GPGGA,024238.69,2218.2765400,N,11410.7915656,E,1,05,1.0,53.011,M,0.000,M,0.0,*41
$GPGSA,A,3,26,28,29,31,32,,,,,,,,4.2,2.1,3.7,1*28
$GPGSV,2,1,05,26,68,239,42,28,47,010,44,29,22,080,41,31,47,325,42,1*6B
$GPGSV,2,2,05,32,61,089,43,,,,,,,,,,,,,1*51
$GPRMC,024238.79,A,2218.2741551,N,11410.7913963,E,2.07,337.08,271224,0.0,E,A*33
$GPGGA,024238.79,2218.2741551,N,11410.7913963,E,1,05,1.0,48.631,M,0.000,M,0.0,*42
$GPGSA,A,3,26,28,29,31,32,,,,,,,,4.2,2.1,3.7,1*28
$GPGSV,2,1,05,26,68,239,42,28,47,010,44,29,22,080,41,31,47,325,42,1*6B
$GPGSV,2,2,05,32,61,089,44,,,,,,,,,,,,,1*56
$GPRMC,024238.89,A,2218.2756966,N,11410.7893555,E,4.84,359.91,271224,0.0,E,A*37
$GPGGA,024238.89,2218.2756966,N,11410.7893555,E,1,05,1.0,56.765,M,0.000,M,0.0,*4C
$GPGSA,A,3,26,28,29,31,32,,,,,,,,4.2,2.1,3.7,1*28
$GPGSV,2,1,05,26,68,239,42,28,47,010,44,29,22,080,41,31,47,325,42,1*6B
$GPGSV,2,2,05,32,61,089,44,,,,,,,,,,,,,1*56
$GPRMC,024238.99,A,2218.2760476,N,11410.7896495,E,2.92,89.13,271224,0.0,E,A*02
$GPGGA,024238.99,2218.2760476,N,11410.7896495,E,1,05,1.0,55.014,M,0.000,M,0.0,*4E
$GPGSA,A,3,26,28,29,31,32,,,,,,,,4.2,2.1,3.7,1*28
$GPGSV,2,1,05,26,68,239,42,28,47,010,44,29,22,080,41,31,47,325,42,1*6B
$GPGSV,2,2,05,32,61,089,44,,,,,,,,,,,,,1*56
$GPRMC,024239.09,A,2218.2782582,N,11410.7891175,E,3.71,210.85,271224,0.0,E,A*31
$GPGGA,024239.09,2218.2782582,N,11410.7891175,E,1,05,1.0,43.302,M,0.000,M,0.0,*4F
$GPGSA,A,3,26,28,29,31,32,,,,,,,,4.2,2.1,3.7,1*28
$GPGSV,2,1,05,26,68,239,42,28,47,010,44,29,22,080,41,31,47,325,42,1*6B
$GPGSV,2,2,05,32,61,089,44,,,,,,,,,,,,,1*56
$GPRMC,024239.19,A,2218.2775984,N,11410.7886022,E,6.51,282.81,271224,0.0,E,A*3F
$GPGGA,024239.19,2218.2775984,N,11410.7886022,E,1,05,1.0,48.426,M,0.000,M,0.0,*43
$GPGSA,A,3,26,28,29,31,32,,,,,,,,4.2,2.1,3.7,1*28
$GPGSV,2,1,05,26,68,239,42,28,47,010,44,29,22,080,41,31,47,325,42,1*6B
$GPGSV,2,2,05,32,61,089,44,,,,,,,,,,,,,1*56
$GPRMC,024239.29,A,2218.2761693,N,11410.7895341,E,2.39,84.50,271224,0.0,E,A*06
$GPGGA,024239.29,2218.2761693,N,11410.7895341,E,1,05,1.0,49.630,M,0.000,M,0.0,*4C
$GPGSA,A,3,26,28,29,31,32,,,,,,,,4.2,2.1,3.7,1*28
$GPGSV,2,1,05,26,68,239,42,28,47,010,44,29,22,080,41,31,47,325,42,1*6B
$GPGSV,2,2,05,32,61,089,44,,,,,,,,,,,,,1*56
$GPRMC,024239.39,A,2218.2741162,N,11410.7886788,E,0.90,84.50,271224,0.0,E,A*0E
$GPGGA,024239.39,2218.2741162,N,11410.7886788,E,1,05,1.0,49.283,M,0.000,M,0.0,*49
$GPGSA,A,3,26,28,29,31,32,,,,,,,,4.2,2.1,3.7,1*28
$GPGSV,2,1,05,26,68,239,42,28,47,010,44,29,22,080,41,31,47,325,42,1*6B
$GPGSV,2,2,05,32,61,089,44,,,,,,,,,,,,,1*56
$GPRMC,024239.49,A,2218.2745333,N,11410.7883718,E,6.41,243.02,271224,0.0,E,A*33
$GPGGA,024239.49,2218.2745333,N,11410.7883718,E,1,05,1.0,48.402,M,0.000,M,0.0,*4E
$GPGSA,A,3,26,28,29,31,32,,,,,,,,4.2,2.1,3.7,1*28
$GPGSV,2,1,05,26,68,239,42,28,47,010,44,29,22,080,41,31,47,325,42,1*6B
$GPGSV,2,2,05,32,61,089,44,,,,,,,,,,,,,1*56
$GPRMC,024239.59,A,2218.2744780,N,11410.7870756,E,3.99,344.37,271224,0.0,E,A*39
$GPGGA,024239.59,2218.2744780,N,11410.7870756,E,1,05,1.0,45.431,M,0.000,M,0.0,*49
$GPGSA,A,3,26,28,29,31,32,,,,,,,,4.2,2.1,3.7,1*28
$GPGSV,2,1,05,26,68,239,42,28,47,010,44,29,22,080,41,31,47,325,42,1*6B
$GPGSV,2,2,05,32,61,089,44,,,,,,,,,,,,,1*56
$GPRMC,024239.69,A,2218.2748961,N,11410.7845888,E,4.56,193.30,271224,0.0,E,A*36
$GPGGA,024239.69,2218.2748961,N,11410.7845888,E,1,05,1.0,42.201,M,0.000,M,0.0,*4F
$GPGSA,A,3,26,28,29,31,32,,,,,,,,4.2,2.1,3.7,1*28
$GPGSV,2,1,05,26,68,239,42,28,47,010,44,29,22,080,41,31,47,325,42,1*6B
$GPGSV,2,2,05,32,61,089,44,,,,,,,,,,,,,1*56
$GPRMC,024239.79,A,2218.2751320,N,11410.7835839,E,2.23,248.01,271224,0.0,E,A*3E
$GPGGA,024239.79,2218.2751320,N,11410.7835839,E,1,05,1.0,36.899,M,0.000,M,0.0,*4C
$GPGSA,A,3,26,28,29,31,32,,,,,,,,4.2,2.1,3.7,1*28
$GPGSV,2,1,05,26,68,239,42,28,47,010,44,29,22,080,41,31,47,325,42,1*6B
$GPGSV,2,2,05,32,61,089,44,,,,,,,,,,,,,1*56
$GPRMC,024239.89,A,2218.2749883,N,11410.7862899,E,2.60,242.38,271224,0.0,E,A*35
$GPGGA,024239.89,2218.2749883,N,11410.7862899,E,1,05,1.0,42.243,M,0.000,M,0.0,*4E
$GPGSA,A,3,26,28,29,31,32,,,,,,,,4.2,2.1,3.7,1*28
$GPGSV,2,1,05,26,68,239,42,28,47,010,44,29,22,080,41,31,47,325,42,1*6B
$GPGSV,2,2,05,32,61,089,44,,,,,,,,,,,,,1*56
$GPRMC,024239.99,A,2218.2756199,N,11410.7877112,E,5.40,321.50,271224,0.0,E,A*39
$GPGGA,024239.99,2218.2756199,N,11410.7877112,E,1,05,1.0,47.863,M,0.000,M,0.0,*40
$GPGSA,A,3,26,28,29,31,32,,,,,,,,4.2,2.1,3.7,1*28
$GPGSV,2,1,05,26,68,239,42,28,47,010,44,29,22,080,41,31,47,325,42,1*6B
$GPGSV,2,2,05,32,61,089,44,,,,,,,,,,,,,1*56
$GPRMC,024240.09,A,2218.2753186,N,11410.7874247,E,4.40,7.80,271224,0.0,E,A*3E
$GPGGA,024240.09,2218.2753186,N,11410.7874247,E,1,05,1.0,39.397,M,0.000,M,0.0,*45
$GPGSA,A,3,26,28,29,31,32,,,,,,,,4.2,2.1,3.7,1*28
$GPGSV,2,1,05,26,68,239,42,28,47,010,44,29,22,080,41,31,47,325,42,1*6B
$GPGSV,2,2,05,32,61,089,45,,,,,,,,,,,,,1*57
$GPRMC,024240.19,A,2218.2747425,N,11410.7878551,E,3.30,68.17,271224,0.0,E,A*0D
$GPGGA,024240.19,2218.2747425,N,11410.7878551,E,1,05,1.0,46.490,M,0.000,M,0.0,*49
$GPGSA,A,3,26,28,29,31,32,,,,,,,,4.2,2.1,3.7,1*28
$GPGSV,2,1,05,26,68,239,42,28,47,010,44,29,22,080,41,31,47,325,42,1*6B
$GPGSV,2,2,05,32,60,089,45,,,,,,,,,,,,,1*56
$GPRMC,024240.29,A,2218.2738984,N,11410.7875683,E,5.06,50.45,271224,0.0,E,A*0E
$GPGGA,024240.29,2218.2738984,N,11410.7875683,E,1,05,1.0,48.452,M,0.000,M,0.0,*45
$GPGSA,A,3,26,28,29,31,32,,,,,,,,4.2,2.1,3.7,1*28
$GPGSV,2,1,05,26,68,239,41,28,47,010,44,29,22,080,41,31,47,325,42,1*68
$GPGSV,2,2,05,32,60,089,45,,,,,,,,,,,,,1*56
$GPRMC,024240.39,A,2218.2756958,N,11410.7888920,E,5.07,115.66,271224,0.0,E,A*32
$GPGGA,024240.39,2218.2756958,N,11410.7888920,E,1,05,1.0,50.983,M,0.000,M,0.0,*41
$GPGSA,A,3,26,28,29,31,32,,,,,,,,4.2,2.1,3.7,1*28
$GPGSV,2,1,05,26,68,239,41,28,47,010,44,29,22,080,41,31,47,325,42,1*68
$GPGSV,2,2,05,32,60,089,45,,,,,,,,,,,,,1*56
$GPRMC,024240.49,A,2218.2771468,N,11410.7907033,E,2.40,197.77,271224,0.0,E,A*3D
$GPGGA,024240.49,2218.2771468,N,11410.7907033,E,1,05,1.0,60.279,M,0.000,M,0.0,*4D
$GPGSA,A,3,26,28,29,31,32,,,,,,,,4.2,2.1,3.7,1*28
$GPGSV,2,1,05,26,68,239,41,28,47,010,44,29,22,080,41,31,47,325,42,1*68
$GPGSV,2,2,05,32,60,089,45,,,,,,,,,,,,,1*56
$GPRMC,024240.59,A,2218.2765310,N,11410.7904380,E,9.18,47.97,271224,0.0,E,A*0D
$GPGGA,024240.59,2218.2765310,N,11410.7904380,E,1,05,1.0,58.728,M,0.000,M,0.0,*43
$GPGSA,A,3,26,28,29,31,32,,,,,,,,4.2,2.1,3.7,1*28
$GPGSV,2,1,05,26,68,239,41,28,47,010,44,29,22,080,41,31,47,325,42,1*68
$GPGSV,2,2,05,32,60,089,44,,,,,,,,,,,,,1*57
$GPRMC,024240.69,A,2218.2763231,N,11410.7890498,E,2.96,343.67,271224,0.0,E,A*3D
$GPGGA,024240.69,2218.2763231,N,11410.7890498,E,1,05,1.0,47.836,M,0.000,M,0.0,*48
$GPGSA,A,3,26,28,29,31,32,,,,,,,,4.2,2.1,3.7,1*28
$GPGSV,2,1,05,26,68,239,42,28,47,010,44,29,22,080,41,31,47,325,42,1*6B
$GPGSV,2,2,05,32,60,089,44,,,,,,,,,,,,,1*57
$GPRMC,024240.79,A,2218.2725470,N,11410.7883184,E,4.40,29.33,271224,0.0,E,A*04
$GPGGA,024240.79,2218.2725470,N,11410.7883184,E,1,05,1.0,38.382,M,0.000,M,0.0,*4E
$GPGSA,A,3,26,28,29,31,32,,,,,,,,4.2,2.1,3.7,1*28
$GPGSV,2,1,05,26,68,239,41,28,47,010,44,29,22,080,41,31,47,325,42,1*68
$GPGSV,2,2,05,32,60,089,44,,,,,,,,,,,,,1*57
$GPRMC,024240.89,A,2218.2734888,N,11410.7895297,E,3.08,157.74,271224,0.0,E,A*36
$GPGGA,024240.89,2218.2734888,N,11410.7895297,E,1,05,1.0,43.520,M,0.000,M,0.0,*4E
$GPGSA,A,3,26,28,29,31,32,,,,,,,,4.2,2.1,3.7,1*28
$GPGSV,2,1,05,26,68,239,41,28,47,010,44,29,22,080,40,31,47,325,42,1*69
$GPGSV,2,2,05,32,60,089,44,,,,,,,,,,,,,1*57
$GPRMC,024240.99,A,2218.2715413,N,11410.7877931,E,0.78,157.74,271224,0.0,E,A*35
$GPGGA,024240.99,2218.2715413,N,11410.7877931,E,1,05,1.0,35.461,M,0.000,M,0.0,*4C
$GPGSA,A,3,26,28,29,31,32,,,,,,,,4.2,2.1,3.7,1*28
$GPGSV,2,1,05,26,68,239,41,28,47,010,44,29,22,080,41,31,47,325,42,1*68
$GPGSV,2,2,05,32,60,089,44,,,,,,,,,,,,,1*57
$GPRMC,024241.09,A,2218.2733524,N,11410.7859872,E,0.52,157.74,271224,0.0,E,A*3E
$GPGGA,024241.09,2218.2733524,N,11410.7859872,E,1,05,1.0,33.357,M,0.000,M,0.0,*4B
$GPGSA,A,3,26,28,29,31,32,,,,,,,,4.2,2.1,3.7,1*28
$GPGSV,2,1,05,26,68,239,41,28,47,010,44,29,22,080,41,31,47,325,42,1*68
$GPGSV,2,2,05,32,60,089,44,,,,,,,,,,,,,1*57
$GPRMC,024241.19,A,2218.2760524,N,11410.7876156,E,2.91,28.59,271224,0.0,E,A*00
$GPGGA,024241.19,2218.2760524,N,11410.7876156,E,1,05,1.0,37.782,M,0.000,M,0.0,*46
$GPGSA,A,3,26,28,29,31,32,,,,,,,,4.2,2.1,3.7,1*28
$GPGSV,2,1,05,26,68,239,41,28,47,010,44,29,22,080,41,31,47,325,42,1*68
$GPGSV,2,2,05,32,60,089,44,,,,,,,,,,,,,1*57
$GPRMC,024241.29,A,2218.2785667,N,11410.7868154,E,2.78,82.85,271224,0.0,E,A*07
$GPGGA,024241.29,2218.2785667,N,11410.7868154,E,1,05,1.0,46.260,M,0.000,M,0.0,*48
$GPGSA,A,3,26,28,29,31,32,,,,,,,,4.2,2.1,3.7,1*28
$GPGSV,2,1,05,26,68,239,41,28,47,010,44,29,22,080,40,31,47,325,42,1*69
$GPGSV,2,2,05,32,60,089,44,,,,,,,,,,,,,1*57
$GPRMC,024241.39,A,2218.2736789,N,11410.7851276,E,1.22,82.85,271224,0.0,E,A*0A
$GPGGA,024241.39,2218.2736789,N,11410.7851276,E,1,05,1.0,36.122,M,0.000,M,0.0,*4B
$GPGSA,A,3,26,28,29,31,32,,,,,,,,4.2,2.1,3.7,1*28
$GPGSV,2,1,05,26,68,239,41,28,47,010,44,29,22,080,40,31,47,325,42,1*69
$GPGSV,2,2,05,32,60,089,44,,,,,,,,,,,,,1*57
$GPRMC,024241.49,A,2218.2728775,N,11410.7861907,E,1.58,82.85,271224,0.0,E,A*02
$GPGGA,024241.49,2218.2728775,N,11410.7861907,E,1,05,1.0,38.492,M,0.000,M,0.0,*4E
$GPGSA,A,3,26,28,29,31,32,,,,,,,,4.2,2.1,3.7,1*28
$GPGSV,2,1,05,26,68,239,41,28,47,010,44,29,22,080,40,31,47,325,42,1*69
$GPGSV,2,2,05,32,60,089,44,,,,,,,,,,,,,1*57
$GPRMC,024241.59,A,2218.2761226,N,11410.7851697,E,1.49,82.85,271224,0.0,E,A*08
$GPGGA,024241.59,2218.2761226,N,11410.7851697,E,1,05,1.0,33.105,M,0.000,M,0.0,*44
$GPGSA,A,3,26,28,29,31,32,,,,,,,,4.2,2.1,3.7,1*28
$GPGSV,2,1,05,26,68,239,41,28,47,010,44,29,22,080,40,31,47,325,42,1*69
$GPGSV,2,2,05,32,60,089,44,,,,,,,,,,,,,1*57
$GPRMC,024241.69,A,2218.2776682,N,11410.7875355,E,4.85,331.57,271224,0.0,E,A*3B
$GPGGA,024241.69,2218.2776682,N,11410.7875355,E,1,05,1.0,50.599,M,0.000,M,0.0,*42
$GPGSA,A,3,26,28,29,31,32,,,,,,,,4.2,2.1,3.7,1*28
$GPGSV,2,1,05,26,68,239,41,28,47,010,44,29,22,080,40,31,47,325,42,1*69
$GPGSV,2,2,05,32,60,089,44,,,,,,,,,,,,,1*57
$GPRMC,024241.79,A,2218.2727107,N,11410.7849216,E,2.31,13.37,271224,0.0,E,A*01
$GPGGA,024241.79,2218.2727107,N,11410.7849216,E,1,05,1.0,38.261,M,0.000,M,0.0,*4A
$GPGSA,A,3,26,28,29,31,32,,,,,,,,4.2,2.1,3.7,1*28
$GPGSV,2,1,05,26,68,239,42,28,47,010,44,29,22,080,41,31,47,325,42,1*6B
$GPGSV,2,2,05,32,60,089,44,,,,,,,,,,,,,1*57
$GPRMC,024241.89,A,2218.2757974,N,11410.7880908,E,5.70,116.16,271224,0.0,E,A*31
$GPGGA,024241.89,2218.2757974,N,11410.7880908,E,1,05,1.0,44.804,M,0.000,M,0.0,*4D
$GPGSA,A,3,26,28,29,31,32,,,,,,,,4.2,2.1,3.7,1*28
$GPGSV,2,1,05,26,68,239,41,28,47,010,44,29,22,080,40,31,47,325,42,1*69
$GPGSV,2,2,05,32,60,089,44,,,,,,,,,,,,,1*57
$GPRMC,024241.99,A,2218.2792406,N,11410.7877247,E,6.88,73.43,271224,0.0,E,A*0F
$GPGGA,024241.99,2218.2792406,N,11410.7877247,E,1,05,1.0,49.968,M,0.000,M,0.0,*43
$GPGSA,A,3,26,28,29,31,32,,,,,,,,4.2,2.1,3.7,1*28
$GPGSV,2,1,05,26,68,239,41,28,47,010,44,29,22,080,40,31,47,325,42,1*69
$GPGSV,2,2,05,32,60,089,44,,,,,,,,,,,,,1*57
$GPRMC,024242.09,A,2218.2758414,N,11410.7863931,E,8.40,217.14,271224,0.0,E,A*37
$GPGGA,024242.09,2218.2758414,N,11410.7863931,E,1,05,1.0,42.162,M,0.000,M,0.0,*4A
$GPGSA,A,3,26,28,29,31,32,,,,,,,,4.2,2.1,3.7,1*28
$GPGSV,2,1,05,26,68,239,41,28,47,010,44,29,22,080,40,31,47,325,42,1*69
$GPGSV,2,2,05,32,60,089,44,,,,,,,,,,,,,1*57
$GPRMC,024242.19,A,2218.2734021,N,11410.7867316,E,6.35,207.72,271224,0.0,E,A*38
$GPGGA,024242.19,2218.2734021,N,11410.7867316,E,1,05,1.0,34.167,M,0.000,M,0.0,*4C
$GPGSA,A,3,26,28,29,31,32,,,,,,,,4.2,2.1,3.7,1*28
$GPGSV,2,1,05,26,68,239,41,28,47,010,44,29,22,080,40,31,47,325,42,1*69
$GPGSV,2,2,05,32,60,089,44,,,,,,,,,,,,,1*57
$GPRMC,024242.29,A,2218.2743317,N,11410.7866746,E,1.33,207.72,271224,0.0,E,A*3C
$GPGGA,024242.29,2218.2743317,N,11410.7866746,E,1,05,1.0,36.299,M,0.000,M,0.0,*49
$GPGSA,A,3,26,28,29,31,32,,,,,,,,4.2,2.1,3.7,1*28
$GPGSV,2,1,05,26,68,239,41,28,47,010,44,29,22,080,40,31,47,325,42,1*69
$GPGSV,2,2,05,32,60,089,44,,,,,,,,,,,,,1*57
$GPRMC,024242.39,A,2218.2738075,N,11410.7871499,E,9.63,213.61,271224,0.0,E,A*3B
$GPGGA,024242.39,2218.2738075,N,11410.7871499,E,1,05,1.0,32.648,M,0.000,M,0.0,*48
$GPGSA,A,3,26,28,29,31,32,,,,,,,,4.2,2.1,3.7,1*28
$GPGSV,2,1,05,26,68,239,41,28,47,010,44,29,22,080,41,31,47,325,42,1*68
$GPGSV,2,2,05,32,60,089,44,,,,,,,,,,,,,1*57
$GPRMC,024242.49,A,2218.2787048,N,11410.7904460,E,4.08,214.45,271224,0.0,E,A*32
$GPGGA,024242.49,2218.2787048,N,11410.7904460,E,1,05,1.0,48.928,M,0.000,M,0.0,*44
$GPGSA,A,3,26,28,29,31,32,,,,,,,,4.2,2.1,3.7,1*28
$GPGSV,2,1,05,26,68,239,41,28,47,010,44,29,22,080,41,31,47,325,42,1*68
$GPGSV,2,2,05,32,60,089,44,,,,,,,,,,,,,1*57
$GPRMC,024242.59,A,2218.2784288,N,11410.7862383,E,1.80,214.45,271224,0.0,E,A*30
$GPGGA,024242.59,2218.2784288,N,11410.7862383,E,1,05,1.0,35.525,M,0.000,M,0.0,*48
$GPGSA,A,3,26,28,29,31,32,,,,,,,,4.2,2.1,3.7,1*28
$GPGSV,2,1,05,26,68,239,41,28,47,010,44,29,22,080,41,31,47,325,42,1*68
$GPGSV,2,2,05,32,60,089,44,,,,,,,,,,,,,1*57
$GPRMC,024242.69,A,2218.2779936,N,11410.7848794,E,2.68,45.35,271224,0.0,E,A*01
$GPGGA,024242.69,2218.2779936,N,11410.7848794,E,1,05,1.0,41.522,M,0.000,M,0.0,*49
$GPGSA,A,3,26,28,29,31,32,,,,,,,,4.2,2.1,3.7,1*28
$GPGSV,2,1,05,26,68,239,41,28,47,010,44,29,22,080,41,31,47,325,42,1*68
$GPGSV,2,2,05,32,60,089,44,,,,,,,,,,,,,1*57
$GPRMC,024242.79,A,2218.2757311,N,11410.7858104,E,5.47,253.11,271224,0.0,E,A*34
$GPGGA,024242.79,2218.2757311,N,11410.7858104,E,1,05,1.0,30.619,M,0.000,M,0.0,*48
$GPGSA,A,3,26,28,29,31,32,,,,,,,,4.2,2.1,3.7,1*28
$GPGSV,2,1,05,26,68,239,41,28,47,010,44,29,22,080,41,31,47,326,42,1*6B
$GPGSV,2,2,05,32,60,089,44,,,,,,,,,,,,,1*57
$GPRMC,024242.89,A,2218.2719004,N,11410.7854736,E,6.58,281.35,271224,0.0,E,A*39
$GPGGA,024242.89,2218.2719004,N,11410.7854736,E,1,05,1.0,25.028,M,0.000,M,0.0,*41
$GPGSA,A,3,26,28,29,31,32,,,,,,,,4.2,2.1,3.7,1*28
$GPGSV,2,1,05,26,68,239,41,28,47,010,44,29,22,080,41,31,47,326,42,1*6B
$GPGSV,2,2,05,32,60,089,44,,,,,,,,,,,,,1*57
$GPRMC,024242.99,A,2218.2736366,N,11410.7849124,E,7.01,33.17,271224,0.0,E,A*0D
$GPGGA,024242.99,2218.2736366,N,11410.7849124,E,1,05,1.0,28.116,M,0.000,M,0.0,*42
$GPGSA,A,3,26,28,29,31,32,,,,,,,,4.2,2.1,3.7,1*28
$GPGSV,2,1,05,26,68,239,41,28,47,010,44,29,22,080,41,31,47,326,42,1*6B
$GPGSV,2,2,05,32,60,089,44,,,,,,,,,,,,,1*57
