     3.02           OBSERVATION DATA    G                   RINEX VERSION / TYPE
G = GPS  R = GLONASS  E = GALILEO  S = GEO  M = MIXED       COMMENT             
GNSS-SDR            tagsys-g1           20241227 030904 UTC PGM / RUN BY / DATE 
GPS OBSERVATION DATA FILE GENERATED BY GNSS-SDR             COMMENT             
GNSS-SDR VERSION 0.0.19.git-next-dc55847ae                  COMMENT             
See https://gnss-sdr.org                                    COMMENT             
DEFAULT MARKER NAME                                         MARKER NAME         
tagsys-g1           CTTC                                    OBSERVER / AGENCY   
GNSS-SDR            Software Receiver   0.0.19.gi           REC # / TYPE / VERS 
Antenna number      Antenna type                            ANT # / TYPE        
        0.0000        0.0000        0.0000                  APPROX POSITION XYZ 
        0.0000        0.0000        0.0000                  ANTENNA: DELTA H/E/N
G    4 C1C L1C D1C S1C                                      SYS / # / OBS TYPES 
DBHZ                                                        SIGNAL STRENGTH UNIT
  2024    12    27    02    42   48.1800000     GPS         TIME OF FIRST OBS   
                                                            END OF HEADER       
> 2024 12 27 02 42 49.0000000  0  4                                             
G29  27820833.704 6 146199421.915 6       288.491 6        41.197               
G26  24390589.324 6 128173395.460 6      1119.844 6        39.417               
G28  25781912.032 7 135484859.353 7      -621.016 7        42.057               
G32  25063304.610 7 131708548.814 7      -429.140 7        44.458               
> 2024 12 27 02 42 50.0000000  0  4                                             
G29  27820783.867 6 146199137.864 6       290.687 6        40.551               
G26  24390376.522 6 128172280.550 6      1112.057 6        39.333               
G28  25782027.323 7 135485477.723 7      -616.764 7        42.356               
G32  25063382.644 7 131708974.444 7      -425.660 7        44.975               
> 2024 12 27 02 42 51.0000000  0  4                                             
G29  27820721.987 6 146198854.312 6       287.951 6        40.991               
G26  24390160.253 6 128171166.176 6      1113.881 6        39.022               
G28  25782146.260 7 135486096.117 7      -622.063 7        42.110               
G32  25063465.306 7 131709400.487 7      -427.036 7        45.101               
> 2024 12 27 02 42 52.0000000  0  4                                             
G29  27820675.134 6 146198571.237 6       280.263 6        40.559               
G26  24389953.294 6 128170052.364 6      1117.290 6        39.269               
G28  25782263.713 6 135486714.522 6      -613.866 6        41.616               
G32  25063545.038 7 131709826.971 7      -428.762 7        45.357               
> 2024 12 27 02 42 53.0000000  0  4                                             
G29  27820623.582 6 146198288.622 6       282.723 6        41.266               
G26  24389735.149 6 128168939.148 6      1111.493 6        39.519               
G28  25782381.988 6 135487332.973 6      -623.174 6        41.876               
G32  25063629.701 7 131710253.917 7      -425.342 7        45.281               
> 2024 12 27 02 42 54.0000000  0  4                                             
G29  27820565.561 6 146198006.528 6       281.389 6        41.550               
G26  24389525.974 6 128167826.489 6      1112.516 6        39.542               
G28  25782503.122 6 135487951.456 6      -622.722 6        41.823               
G32  25063709.951 7 131710681.315 7      -427.099 7        44.958               
> 2024 12 27 02 42 55.0000000  0  4                                             
G29  27820514.063 6 146197724.911 6       278.286 6        41.024               
G26  24389307.525 6 128166714.398 6      1116.797 6        38.974               
G28  25782618.770 6 135488569.987 6      -614.727 6        41.761               
G32  25063790.469 7 131711109.174 7      -426.359 7        45.667               
> 2024 12 27 02 42 56.0000000  0  4                                             
G29  27820449.931 6 146197443.777 6       278.251 6        41.014               
G26  24389102.049 6 128165602.921 6      1110.697 6        38.949               
G28  25782736.295 7 135489188.577 7      -617.622 7        42.028               
G32  25063870.754 7 131711537.502 7      -424.141 7        45.192               
> 2024 12 27 02 42 57.0000000  0  4                                             
G29  27820394.037 6 146197163.145 6       282.471 6        40.914               
G26  24388885.923 6 128164492.017 6      1104.169 6        38.900               
G28  25782858.036 6 135489807.195 6      -619.695 6        41.328               
G32  25063948.681 7 131711966.264 7      -429.179 7        45.417               
> 2024 12 27 02 42 58.0000000  0  4                                             
G29  27820345.254 6 146196883.007 6       275.627 6        40.618               
G26  24388678.679 6 128163381.707 6      1112.672 6        39.136               
G28  25782969.896 6 135490425.853 6      -620.661 6        41.345               
G32  25064029.270 7 131712395.480 7      -425.375 7        45.143               
> 2024 12 27 02 42 59.0000000  0  4                                             
G29  27820292.648 6 146196603.392 6       278.406 6        41.079               
G26  24388466.716 6 128162271.978 6      1102.853 6        39.894               
G28  25783089.119 6 135491044.564 6      -623.131 6        41.877               
G32  25064113.058 7 131712825.180 7      -426.695 7        44.934               
> 2024 12 27 02 43 00.0000000  0  4                                             
G29  27820241.793 6 146196324.245 6       281.152 6        41.155               
G26  24388263.492 6 128161162.814 6      1101.094 6        39.938               
G28  25783212.111 6 135491663.305 6      -614.424 6        40.917               
G32  25064190.610 7 131713255.312 7      -432.997 7        44.386               
> 2024 12 27 02 43 01.0000000  0  4                                             
G29  27820177.589 6 146196045.572 6       280.959 6        40.625               
G26  24388048.956 6 128160054.213 6      1094.490 6        39.839               
G28  25783324.007 6 135492282.093 6      -623.037 6        40.952               
G32  25064272.557 7 131713685.915 7      -434.198 7        44.330               
> 2024 12 27 02 43 02.0000000  0  4                                             
G29  27820122.088 6 146195767.430 6       276.109 6        40.885               
G26  24387839.371 6 128158946.243 6      1103.594 6        39.949               
G28  25783439.888 6 135492900.935 6      -616.985 6        40.980               
G32  25064357.381 7 131714116.971 7      -430.869 7        45.039               
> 2024 12 27 02 43 03.0000000  0  4                                             
G29  27820063.192 6 146195489.791 6       281.420 6        39.986               
G26  24387620.028 6 128157838.811 6      1112.279 6        39.559               
G28  25783556.286 6 135493519.812 6      -613.732 6        41.054               
G32  25064436.684 7 131714548.473 7      -435.336 7        44.888               
> 2024 12 27 02 43 04.0000000  0  4                                             
G29  27820009.853 6 146195212.605 6       274.149 6        39.749               
G26  24387414.481 6 128156731.948 6      1113.554 6        39.462               
G28  25783677.903 6 135494138.699 6      -614.529 6        40.866               
G32  25064522.223 7 131714980.426 7      -432.308 7        45.085               
> 2024 12 27 02 43 05.0000000  0  4                                             
G29  27819958.426 6 146194935.922 6       277.119 6        39.212               
G26  24387203.948 6 128155625.667 6      1112.557 6        39.356               
G28  25783794.659 6 135494757.644 6      -617.611 6        41.054               
G32  25064604.206 7 131715412.827 7      -432.966 7        45.107               
> 2024 12 27 02 43 06.0000000  0  4                                             
G29  27819907.141 6 146194659.728 6       274.446 6        39.128               
G26  24386991.021 6 128154519.956 6      1109.230 6        39.360               
G28  25783916.311 6 135495376.606 6      -622.285 6        40.802               
G32  25064685.689 7 131715845.680 7      -432.792 7        44.972               
> 2024 12 27 02 43 07.0000000  0  4                                             
G29  27819855.714 6 146194384.000 6       273.547 6        39.412               
G26  24386782.936 6 128153414.842 6      1097.247 6        39.567               
G28  25784032.460 6 135495995.615 6      -620.560 6        41.161               
G32  25064766.189 7 131716278.993 7      -432.129 7        44.289               
> 2024 12 27 02 43 08.0000000  0  4                                             
G29  27819807.182 6 146194108.795 6       275.359 6        40.206               
G26  24386570.741 6 128152310.289 6      1104.945 6        39.447               
G28  25784148.609 6 135496614.661 6      -618.740 6        40.964               
G32  25064848.476 7 131716712.754 7      -432.040 7        44.281               
> 2024 12 27 02 43 09.0000000  0  4                                             
G29  27819755.255 6 146193834.076 6       271.763 6        40.306               
G26  24386369.697 6 128151206.345 6      1103.485 6        39.985               
G28  25784269.761 6 135497233.775 6      -618.450 6        40.759               
G32  25064929.440 7 131717147.004 7      -433.408 7        44.179               
> 2024 12 27 02 43 10.0000000  0  4                                             
G29  27819710.010 6 146193559.846 6       272.458 6        40.914               
G26  24386152.767 6 128150102.967 6      1107.862 6        39.772               
G28  25784387.375 6 135497852.923 6      -618.451 6        40.895               
G32  25065013.103 7 131717581.700 7      -434.545 7        44.331               
> 2024 12 27 02 43 11.0000000  0  4                                             
G29  27819663.390 6 146193286.111 6       278.935 6        41.820               
G26  24385948.828 6 128149000.171 6      1108.149 6        40.257               
G28  25784503.720 6 135498472.116 6      -622.514 6        41.310               
G32  25065094.282 7 131718016.849 7      -433.631 7        44.406               
> 2024 12 27 02 43 12.0000000  0  4                                             
G29  27819614.536 7 146193012.867 7       270.864 7        42.399               
G26  24385737.956 6 128147897.959 6      1101.556 6        40.089               
G28  25784626.659 6 135499091.346 6      -619.336 6        41.362               
G32  25065177.766 7 131718452.466 7      -432.799 7        44.127               
> 2024 12 27 02 43 13.0000000  0  4                                             
G29  27819562.091 7 146192740.096 7       271.928 7        42.133               
G26  24385539.163 6 128146796.298 6      1106.266 6        39.904               
G28  25784740.949 6 135499710.604 6      -623.575 6        41.207               
G32  25065261.786 7 131718888.521 7      -437.829 7        44.844               
> 2024 12 27 02 43 14.0000000  0  4                                             
G29  27819515.202 7 146192467.802 7       273.158 7        42.793               
G26  24385313.477 6 128145695.246 6      1099.882 6        38.890               
G28  25784859.796 6 135500329.883 6      -614.232 6        41.206               
G32  25065344.681 7 131719325.018 7      -436.037 7        44.186               
> 2024 12 27 02 43 15.0000000  0  4                                             
G29  27819462.131 7 146192196.001 7       272.181 7        42.607               
G26  24385109.216 6 128144594.743 6      1095.086 6        39.704               
G28  25784975.426 6 135500949.188 6      -614.747 6        41.137               
G32  25065430.059 7 131719761.959 7      -435.689 7        45.157               
> 2024 12 27 02 43 16.0000000  0  4                                             
G29  27819412.491 7 146191924.702 7       269.171 7        42.402               
G26  24384896.396 6 128143494.820 6      1097.441 6        39.095               
G28  25785092.861 6 135501568.565 6      -621.049 6        41.610               
G32  25065517.456 7 131720199.377 7      -437.344 7        44.757               
> 2024 12 27 02 43 17.0000000  0  4                                             
G29  27819356.436 7 146191653.858 7       268.942 7        42.040               
G26  24384680.681 6 128142395.462 6      1116.431 6        38.411               
G28  25785213.442 6 135502187.948 6      -615.419 6        41.135               
G32  25065602.549 7 131720637.215 7      -440.285 7        46.012               
> 2024 12 27 02 43 18.0000000  0  4                                             
G29  27819300.631 7 146191383.654 7       274.958 7        42.142               
G26  24384472.972 6 128141296.804 6      1107.931 6        38.487               
G28  25785332.700 6 135502807.490 6      -620.520 6        41.640               
G32  25065685.568 7 131721075.629 7      -437.356 7        45.326               
> 2024 12 27 02 43 19.0000000  0  4                                             
G29  27819250.669 6 146191114.056 6       268.499 6        41.179               
G26  24384263.690 6 128140198.846 6      1118.143 6        37.999               
G28  25785451.135 7 135503427.192 7      -619.538 7        42.109               
G32  25065772.751 7 131721514.631 7      -437.060 7        45.993               
> 2024 12 27 02 43 20.0000000  0  4                                             
G29  27819198.277 6 146190844.958 6       268.170 6        40.669               
G26  24384049.208 6 128139101.521 6      1106.810 6        36.806               
G28  25785564.890 6 135504046.970 6      -619.513 6        41.946               
G32  25065857.218 7 131721954.094 7      -436.161 7        46.184               
> 2024 12 27 02 43 21.0000000  0  4                                             
G29  27819134.807 6 146190576.358 6       268.093 6        40.465               
G26  24383841.695 6 128138004.707 6      1082.703 6        36.492               
G28  25785688.382 6 135504666.762 6      -617.210 6        41.915               
G32  25065941.149 7 131722394.001 7      -441.302 7        46.314               
> 2024 12 27 02 43 22.0000000  0  4                                             
G29  27819082.790 6 146190308.228 6       267.334 6        40.300               
G26  24383642.330 6 128136908.490 6      1107.756 6        36.194               
G28  25785805.478 6 135505286.585 6      -621.729 6        41.987               
G32  25066025.884 7 131722834.364 7      -439.807 7        46.447               
> 2024 12 27 02 43 23.0000000  0  4                                             
G29  27819030.201 6 146190040.606 6       262.481 6        40.479               
G26  24383422.863 6 128135812.829 6      1105.214 6        36.976               
G28  25785919.268 6 135505906.444 6      -624.100 6        41.926               
G32  25066109.493 7 131723275.177 7      -441.738 7        46.149               
> 2024 12 27 02 43 24.0000000  0  4                                             
G29  27818978.202 6 146189773.450 6       273.513 6        39.657               
G26  24383226.661 6 128134717.764 6      1078.743 6        36.345               
G28  25786039.830 7 135506526.351 7      -621.039 7        42.368               
G32  25066191.726 7 131723716.446 7      -443.554 7        46.669               
> 2024 12 27 02 43 25.0000000  0  4                                             
G29  27818925.328 6 146189506.803 6       262.708 6        39.710               
G26  24383015.681 6 128133623.247 6      1096.413 6        37.353               
G28  25786158.856 7 135507146.275 7      -616.931 7        42.454               
G32  25066277.158 7 131724158.156 7      -441.669 7        46.850               
> 2024 12 27 02 43 26.0000000  0  4                                             
G29  27818870.506 6 146189240.645 6       266.679 6        40.197               
G26  24382811.528 6 128132529.295 6      1102.907 6        36.810               
G28  25786273.200 7 135507766.254 7      -619.367 7        42.442               
G32  25066356.318 7 131724600.335 7      -444.987 7        46.661               
> 2024 12 27 02 43 27.0000000  0  4                                             
G29  27818827.960 6 146188974.963 6       267.366 6        39.798               
G26  24382599.065 6 128131435.982 6      1101.586 6        37.523               
G28  25786396.853 7 135508386.265 7      -620.644 7        42.348               
G32  25066442.589 7 131725042.952 7      -441.187 7        46.538               
> 2024 12 27 02 43 28.0000000  0  4                                             
G29  27818772.709 6 146188709.766 6       266.036 6        39.562               
G26  24382396.716 6 128130343.191 6      1084.296 6        37.906               
G28  25786513.878 7 135509006.300 7      -615.841 7        42.474               
G32  25066526.288 7 131725486.031 7      -440.764 7        46.962               
> 2024 12 27 02 43 29.0000000  0  4                                             
G29  27818730.198 6 146188445.104 6       267.405 6        40.386               
G26  24382193.760 6 128129251.029 6      1089.326 6        37.516               
G28  25786628.222 7 135509626.410 7      -624.380 7        43.253               
G32  25066610.415 7 131725929.563 7      -441.433 7        46.731               
> 2024 12 27 02 43 30.0000000  0  4                                             
G29  27818683.739 6 146188180.962 6       261.301 6        41.331               
G26  24381983.370 6 128128159.416 6      1093.241 6        37.476               
G28  25786747.497 7 135510246.559 7      -620.181 7        42.583               
G32  25066695.829 7 131726373.578 7      -443.482 7        46.517               
> 2024 12 27 02 43 31.0000000  0  4                                             
G29  27818637.637 6 146187917.226 6       263.974 6        40.355               
G26  24381781.718 6 128127068.386 6      1089.842 6        37.454               
G28  25786865.486 7 135510866.699 7      -620.055 7        42.042               
G32  25066782.208 7 131726818.031 7      -444.200 7        46.979               
> 2024 12 27 02 43 32.0000000  0  4                                             
G29  27818585.173 6 146187654.057 6       258.585 6        41.187               
G26  24381570.095 6 128125977.954 6      1081.287 6        38.329               
G28  25786979.920 6 135511486.916 6      -619.561 6        41.573               
G32  25066867.193 7 131727262.941 7      -445.217 7        47.102               
> 2024 12 27 02 43 33.0000000  0  4                                             
G29  27818538.732 6 146187391.316 6       259.549 6        41.716               
G26  24381363.887 6 128124888.061 6      1086.934 6        37.201               
G28  25787103.984 6 135512107.162 6      -618.261 6        41.560               
G32  25066952.017 7 131727708.292 7      -445.917 7        47.148               
> 2024 12 27 02 43 34.0000000  0  4                                             
G29  27818492.773 7 146187129.095 7       262.020 7        42.029               
G26  24381154.533 6 128123798.739 6      1091.152 6        37.290               
G28  25787222.724 6 135512727.449 6      -612.724 6        41.969               
G32  25067038.342 7 131728154.107 7      -444.793 7        46.789               
> 2024 12 27 02 43 35.0000000  0  4                                             
G29  27818444.276 7 146186867.336 7       258.714 7        42.364               
G26  24380951.273 6 128122709.987 6      1087.885 6        37.736               
G28  25787337.211 6 135513347.751 6      -622.637 6        41.373               
G32  25067120.772 7 131728600.345 7      -445.417 7        46.789               
> 2024 12 27 02 43 36.0000000  0  4                                             
G29  27818397.924 7 146186606.053 7       260.269 7        42.057               
G26  24380731.752 6 128121621.832 6      1080.107 6        37.275               
G28  25787452.537 6 135513968.063 6      -620.173 6        41.200               
G32  25067205.489 7 131729047.049 7      -448.375 7        46.639               
> 2024 12 27 02 43 37.0000000  0  4                                             
G29  27818347.837 7 146186345.261 7       258.500 7        42.224               
G26  24380524.329 6 128120534.253 6      1072.156 6        36.799               
G28  25787569.722 6 135514588.420 6      -617.000 6        41.165               
G32  25067287.294 7 131729494.184 7      -443.033 7        46.357               
> 2024 12 27 02 43 38.0000000  0  4                                             
G29  27818301.395 7 146186084.952 7       259.919 7        42.831               
G26  24380320.497 6 128119447.246 6      1083.348 6        36.480               
G28  25787688.855 6 135515208.825 6      -620.660 6        41.144               
G32  25067373.369 7 131729941.798 7      -447.257 7        46.339               
> 2024 12 27 02 43 39.0000000  0  4                                             
G29  27818248.146 7 146185825.168 7       260.916 7        43.285               
G26  24380105.586 5 128118360.828 5      1101.308 5        35.995               
G28  25787808.667 6 135515829.295 6      -621.073 6        40.569               
G32  25067455.548 7 131730389.871 7      -450.078 7        46.238               
> 2024 12 27 02 43 40.0000000  0  4                                             
G29  27818199.345 7 146185565.867 7       263.973 7        42.900               
G26  24379899.449 6 128117274.989 6      1082.922 6        36.451               
G28  25787924.101 6 135516449.799 6      -620.912 6        40.272               
G32  25067535.619 7 131730838.395 7      -447.370 7        46.166               
> 2024 12 27 02 43 41.0000000  0  4                                             
G29  27818144.237 7 146185307.064 7       260.642 7        42.929               
G26  24379684.020 5 128116189.765 5      1072.759 5        35.306               
G28  25788035.532 6 135517070.338 6      -621.227 6        40.258               
G32  25067624.053 7 131731287.381 7      -447.164 7        46.253               
> 2024 12 27 02 43 42.0000000  0  4                                             
G29  27818090.952 7 146185048.740 7       257.102 7        42.491               
G26  24379476.650 5 128115105.003 5      1097.732 5        34.699               
G28  25788160.544 6 135517690.887 6      -622.364 6        40.694               
G32  25067709.753 7 131731736.808 7      -449.527 7        46.310               
> 2024 12 27 02 43 43.0000000  0  4                                             
G29  27818043.706 7 146184790.905 7       257.182 7        42.232               
G26  24379276.713 5 128114020.918 5      1084.664 5        35.268               
G28  25788274.620 6 135518311.498 6      -619.376 6        40.207               
G32  25067795.649 7 131732186.686 7      -446.362 7        46.314               
> 2024 12 27 02 43 44.0000000  0  4                                             
G29  27817992.994 6 146184533.597 6       259.614 6        41.934               
G26  24379073.668 5 128112937.377 5      1095.890 5        34.590               
G28  25788393.788 6 135518932.153 6      -625.650 6        40.512               
G32  25067882.689 7 131732637.051 7      -451.443 7        46.154               
> 2024 12 27 02 43 45.0000000  0  4                                             
G29  27817931.864 6 146184276.783 6       255.297 6        41.092               
G26  24378873.338 5 128111854.416 5      1095.290 5        34.429               
G28  25788509.311 6 135519552.856 6      -620.924 6        40.084               
G32  25067969.033 7 131733087.880 7      -451.615 7        46.563               
> 2024 12 27 02 43 46.0000000  0  4                                             
G29  27817879.794 6 146184020.434 6       255.682 6        40.864               
G26  24378668.255 5 128110772.040 5      1061.390 5        34.682               
G28  25788628.069 6 135520173.565 6      -619.344 6        40.168               
G32  25068056.269 7 131733539.121 7      -450.533 7        46.333               
> 2024 12 27 02 43 47.0000000  0  4                                             
G29  27817834.942 6 146183764.563 6       252.936 6        40.439               
G26  24378468.355 5 128109690.216 5      1084.732 5        35.506               
G28  25788741.198 6 135520794.308 6      -622.409 6        39.826               
G32  25068141.308 7 131733990.837 7      -455.521 7        46.228               
> 2024 12 27 02 44 37.0000000  0  4                                             
G29  27815523.245 7 146171572.002 7       230.791 7        42.833               
G28  25794673.588 6 135551911.291 6      -623.401 6        41.940               
G16  26226096.292 6 137819060.474 6      3160.553 6        40.867               
G32  25072546.004 7 131757135.124 7      -479.816 7        43.561               
> 2024 12 27 02 44 38.0000000  0  4                                             
G29  27815482.182 7 146171341.840 7       227.157 7        43.078               
G28  25794792.042 6 135552534.510 6      -625.116 6        41.689               
G16  26225496.983 6 137815902.168 6      3161.561 6        40.805               
G32  25072634.617 7 131757610.675 7      -481.214 7        43.698               
> 2024 12 27 02 44 39.0000000  0  4                                             
G29  27815443.191 7 146171112.187 7       230.366 7        43.725               
G28  25794905.743 6 135553157.752 6      -620.460 6        41.917               
G16  26224895.601 6 137812744.217 6      3159.511 6        41.617               
G32  25072730.412 7 131758086.671 7      -476.620 7        43.426               
> 2024 12 27 02 44 40.0000000  0  4                                             
G29  27815394.230 7 146170883.010 7       233.461 7        42.984               
G28  25795023.071 6 135553781.059 6      -632.104 6        41.647               
G16  26224296.077 6 137809586.623 6      3157.085 6        41.778               
G32  25072818.078 7 131758563.119 7      -480.444 7        44.037               
> 2024 12 27 02 44 41.0000000  0  4                                             
G29  27815354.829 7 146170654.334 7       233.470 7        42.543               
G28  25795144.991 6 135554404.355 6      -620.009 6        41.183               
G16  26223688.941 6 137806429.423 6      3150.814 6        41.775               
G32  25072907.745 7 131759040.021 7      -478.872 7        44.178               
> 2024 12 27 02 44 42.0000000  0  4                                             
G29  27815311.407 6 146170426.142 6       228.481 6        41.970               
G28  25795257.101 6 135555027.713 6      -625.696 6        41.057               
G16  26223092.366 6 137803272.565 6      3157.922 6        41.797               
G32  25073001.771 7 131759517.357 7      -473.418 7        44.183               
> 2024 12 27 02 44 43.0000000  0  4                                             
G29  27815268.754 7 146170198.440 7       223.912 7        42.463               
G28  25795379.593 6 135555651.088 6      -623.435 6        41.094               
G16  26222489.555 6 137800116.096 6      3160.159 6        41.564               
G32  25073091.831 7 131759995.155 7      -475.307 7        44.917               
> 2024 12 27 02 44 44.0000000  0  4                                             
G29  27815228.638 7 146169971.214 7       230.129 7        42.549               
G28  25795499.405 6 135556274.494 6      -618.755 6        41.436               
G16  26221888.602 6 137796960.000 6      3155.733 6        41.699               
G32  25073183.106 7 131760473.406 7      -479.411 7        44.934               
> 2024 12 27 02 44 45.0000000  0  4                                             
G29  27815181.571 7 146169744.474 7       224.390 7        43.039               
G28  25795620.915 6 135556897.911 6      -620.804 6        41.784               
G16  26221290.329 6 137793804.245 6      3157.808 6        41.494               
G32  25073273.095 7 131760952.107 7      -478.577 7        44.730               
> 2024 12 27 02 44 46.0000000  0  4                                             
G29  27815142.724 7 146169518.253 7       218.252 7        42.991               
G28  25795738.386 6 135557521.394 6      -621.098 6        41.727               
G16  26220686.731 6 137790648.908 6      3157.759 6        40.793               
G32  25073366.657 7 131761431.266 7      -483.619 7        44.637               
> 2024 12 27 02 44 47.0000000  0  4                                             
G29  27815097.301 7 146169292.481 7       224.849 7        43.018               
G28  25795860.485 7 135558144.902 7      -626.085 7        42.122               
G16  26220082.758 6 137787493.916 6      3154.842 6        40.280               
G32  25073457.539 7 131761910.857 7      -480.924 7        45.055               
> 2024 12 27 02 44 48.0000000  0  4                                             
G29  27815054.790 7 146169067.196 7       226.787 7        43.013               
G28  25795977.312 6 135558768.414 6      -621.598 6        41.559               
G16  26219486.665 6 137784339.287 6      3156.645 6        40.453               
G32  25073544.918 7 131762390.878 7      -479.858 7        45.196               
> 2024 12 27 02 44 49.0000000  0  4                                             
G29  27815007.956 7 146168842.445 7       227.723 7        43.056               
G28  25796096.105 7 135559392.000 7      -628.486 7        42.253               
G16  26218881.120 6 137781185.092 6      3151.406 6        40.199               
G32  25073636.658 7 131762871.429 7      -482.281 7        44.972               
> 2024 12 27 02 44 50.0000000  0  4                                             
G29  27814965.588 7 146168618.203 7       222.758 7        42.752               
G28  25796215.167 6 135560015.649 6      -625.268 6        41.312               
G16  26218284.313 6 137778031.257 6      3151.582 6        40.300               
G32  25073727.075 7 131763352.422 7      -483.993 7        44.497               
> 2024 12 27 02 44 51.0000000  0  4                                             
G29  27814924.436 7 146168394.449 7       226.429 7        42.735               
G28  25796334.478 6 135560639.292 6      -623.993 6        41.446               
G16  26217674.693 6 137774877.818 6      3151.240 6        39.895               
G32  25073816.420 7 131763833.875 7      -481.615 7        44.566               
> 2024 12 27 02 44 52.0000000  0  4                                             
G29  27814882.783 7 146168171.206 7       221.072 7        42.402               
G28  25796448.733 6 135561262.992 6      -617.569 6        41.533               
G16  26217074.741 6 137771724.731 6      3144.511 6        40.085               
G32  25073910.572 7 131764315.778 7      -485.193 7        44.585               
> 2024 12 27 02 44 53.0000000  0  4                                             
G29  27814839.093 7 146167948.454 7       216.735 7        42.023               
G28  25796571.314 6 135561886.755 6      -625.190 6        41.707               
G16  26216473.877 6 137768572.047 6      3148.652 6        38.997               
G32  25074003.009 7 131764798.153 7      -476.619 7        44.904               
> 2024 12 27 02 44 54.0000000  0  4                                             
G29  27814789.543 7 146167726.205 7       220.211 7        42.161               
G28  25796691.162 6 135562510.547 6      -619.097 6        41.758               
G16  26215868.206 6 137765419.758 6      3150.021 6        38.509               
G32  25074097.303 7 131765281.001 7      -485.123 7        45.417               
> 2024 12 27 02 44 55.0000000  0  4                                             
G29  27814748.587 7 146167504.422 7       221.345 7        43.020               
G28  25796807.257 7 135563134.341 7      -621.237 7        42.134               
G16  26215265.395 6 137762267.793 6      3148.868 6        38.615               
G32  25074188.578 7 131765764.267 7      -482.361 7        44.700               
> 2024 12 27 02 44 56.0000000  0  4                                             
G29  27814708.417 7 146167283.139 7       227.724 7        42.634               
G28  25796920.725 6 135563758.178 6      -622.078 6        41.840               
G16  26214665.281 6 137759116.222 6      3148.601 6        38.296               
G32  25074284.106 7 131766247.995 7      -484.540 7        45.495               
> 2024 12 27 02 44 57.0000000  0  4                                             
G29  27814665.335 7 146167062.381 7       222.104 7        42.455               
G28  25797046.380 6 135564382.060 6      -624.032 6        41.890               
G16  26214069.707 6 137755965.050 6      3148.554 6        38.587               
G32  25074379.598 7 131766732.198 7      -486.735 7        45.764               
> 2024 12 27 02 44 58.0000000  0  4                                             
G29  27814629.061 7 146166842.088 7       220.953 7        42.032               
G28  25797160.956 6 135565005.979 6      -622.315 6        41.954               
G16  26213466.878 6 137752814.249 6      3149.324 6        38.177               
G32  25074470.176 7 131767216.837 7      -484.348 7        45.467               
> 2024 12 27 02 44 59.0000000  0  4                                             
G29  27814579.635 7 146166622.294 7       219.375 7        42.230               
G28  25797281.018 7 135565629.923 7      -619.456 7        42.737               
G16  26212873.233 6 137749663.813 6      3142.234 6        38.705               
G32  25074565.508 7 131767701.958 7      -486.773 7        45.841               
> 2024 12 27 02 45 00.0000000  0  4                                             
G29  27814537.857 7 146166402.968 7       217.072 7        42.318               
G28  25797399.758 7 135566253.889 7      -628.110 7        42.591               
G16  26212273.942 6 137746513.722 6      3151.813 6        39.036               
G32  25074658.873 7 131768187.484 7      -483.966 7        45.681               
> 2024 12 27 02 45 01.0000000  0  4                                             
G29  27814494.471 7 146166184.131 7       210.330 7        42.037               
G28  25797512.654 7 135566877.863 7      -627.445 7        42.534               
G16  26211679.725 6 137743364.010 6      3149.961 6        39.336               
G32  25074749.165 7 131768673.473 7      -490.334 7        45.959               
> 2024 12 27 02 45 02.0000000  0  4                                             
G29  27814459.538 6 146165965.804 6       217.425 6        41.916               
G28  25797634.360 7 135567501.899 7      -621.959 7        42.219               
G16  26211079.254 6 137740214.703 6      3145.187 6        39.090               
G32  25074841.906 7 131769159.946 7      -489.305 7        45.429               
> 2024 12 27 02 45 03.0000000  0  4                                             
G29  27814414.472 6 146165747.988 6       217.943 6        41.733               
G28  25797751.152 7 135568125.974 7      -625.341 7        42.851               
G16  26210485.056 6 137737065.760 6      3151.220 6        39.241               
G32  25074931.465 7 131769646.869 7      -486.642 7        45.497               
> 2024 12 27 02 45 04.0000000  0  4                                             
G29  27814376.732 6 146165530.672 6       218.985 6        41.176               
G28  25797869.803 7 135568750.111 7      -628.309 7        42.672               
G16  26209882.763 6 137733917.216 6      3149.865 6        40.459               
G32  25075021.471 7 131770134.262 7      -489.506 7        45.011               
> 2024 12 27 02 45 05.0000000  0  4                                             
G29  27814337.617 6 146165313.865 6       215.670 6        41.514               
G28  25797990.007 7 135569374.276 7      -626.549 7        42.302               
G16  26209285.991 6 137730769.064 6      3152.957 6        40.540               
G32  25075114.104 7 131770622.130 7      -485.919 7        44.833               
> 2024 12 27 02 45 06.0000000  0  4                                             
G29  27814299.753 6 146165097.572 6       216.471 6        41.998               
G28  25798107.246 7 135569998.507 7      -621.573 7        42.283               
G16  26208686.110 6 137727621.297 6      3146.211 6        40.091               
G32  25075204.879 7 131771110.463 7      -482.813 7        44.573               
> 2024 12 27 02 45 07.0000000  0  4                                             
G29  27814249.987 7 146164881.776 7       216.821 7        42.246               
G28  25798226.879 7 135570622.765 7      -624.824 7        42.112               
G16  26208089.517 6 137724473.923 6      3141.527 6        40.402               
G32  25075295.582 7 131771599.255 7      -488.578 7        44.613               
> 2024 12 27 02 45 08.0000000  0  4                                             
G29  27814218.627 7 146164666.466 7       213.382 7        42.400               
G28  25798344.511 7 135571247.047 7      -622.981 7        42.298               
G16  26207485.865 6 137721326.905 6      3144.590 6        40.766               
G32  25075389.323 7 131772088.489 7      -489.966 7        44.356               
> 2024 12 27 02 45 09.0000000  0  4                                             
G29  27814179.601 7 146164451.638 7       216.935 7        42.449               
G28  25798465.163 6 135571871.378 6      -624.386 6        41.874               
G16  26206889.505 6 137718180.287 6      3146.395 6        40.685               
G32  25075480.330 7 131772578.189 7      -486.296 7        44.318               
> 2024 12 27 02 45 10.0000000  0  4                                             
G29  27814139.861 7 146164237.303 7       213.695 7        42.221               
G28  25798582.920 6 135572495.734 6      -622.543 6        41.886               
G16  26206294.716 6 137715034.012 6      3144.776 6        40.838               
G32  25075578.020 7 131773068.330 7      -488.212 7        44.583               
> 2024 12 27 02 45 11.0000000  0  4                                             
G29  27814099.745 7 146164023.460 7       213.829 7        42.253               
G28  25798701.052 6 135573120.111 6      -624.769 6        41.648               
G16  26205692.655 6 137711888.122 6      3148.426 6        40.145               
G32  25075674.888 7 131773558.941 7      -489.697 7        44.948               
> 2024 12 27 02 45 12.0000000  0  5                                             
G29  27814055.644 7 146163810.160 7       209.704 7        42.635               
G31  25431890.662 6 133645492.449 6       192.024 6        39.266               
G28  25798820.435 6 135573744.582 6      -628.452 6        41.722               
G16  26205093.936 6 137708742.653 6      3147.018 6        39.935               
G32  25075771.559 7 131774050.061 7      -492.149 7        44.655               
> 2024 12 27 02 45 13.0000000  0  5                                             
G29  27814019.263 7 146163597.319 7       216.633 7        42.975               
G31  25431859.195 6 133645307.296 6       180.259 6        38.578               
G28  25798937.745 6 135574369.069 6      -623.856 6        41.673               
G16  26204489.445 6 137705597.558 6      3144.938 6        39.235               
G32  25075862.459 7 131774541.604 7      -492.915 7        44.947               
> 2024 12 27 02 45 14.0000000  0  5                                             
G29  27813974.143 7 146163384.984 7       211.007 7        42.805               
G31  25431817.774 6 133645122.262 6       186.178 6        38.737               
G28  25799051.374 6 135574993.582 6      -626.556 6        41.708               
G16  26203889.867 6 137702452.837 6      3147.455 6        38.932               
G32  25075960.900 7 131775033.602 7      -492.206 7        45.625               
> 2024 12 27 02 45 15.0000000  0  5                                             
G29  27813933.045 7 146163173.146 7       210.310 7        42.442               
G31  25431781.447 6 133644937.392 6       186.826 6        38.244               
G28  25799174.295 6 135575618.138 6      -626.593 6        41.380               
G16  26203298.188 6 137699308.512 6      3149.839 6        39.323               
G32  25076055.230 7 131775526.068 7      -496.030 7        45.683               
> 2024 12 27 02 45 16.0000000  0  5                                             
G29  27813886.907 7 146162961.803 7       213.879 7        42.427               
G31  25431746.066 6 133644752.642 6       184.907 6        37.227               
G28  25799291.248 6 135576242.743 6      -627.677 6        41.462               
G16  26202688.926 6 137696164.555 6      3151.473 6        39.504               
G32  25076151.741 7 131776019.010 7      -490.962 7        45.661               
> 2024 12 27 02 45 17.0000000  0  5                                             
G29  27813845.218 7 146162750.965 7       211.053 7        42.447               
G31  25431704.521 6 133644568.012 6       179.542 6        37.552               
G28  25799405.306 6 135576867.357 6      -625.374 6        41.092               
G16  26202082.916 6 137693020.966 6      3140.724 6        38.655               
G32  25076240.603 7 131776512.393 7      -494.781 7        45.280               
> 2024 12 27 02 45 18.0000000  0  5                                             
G29  27813805.370 6 146162540.608 6       207.565 6        41.770               
G31  25431678.289 6 133644383.520 6       181.519 6        37.261               
G28  25799527.315 6 135577492.013 6      -627.719 6        41.238               
G16  26201488.271 6 137689877.757 6      3147.502 6        38.251               
G32  25076337.078 7 131777006.243 7      -495.085 7        45.474               
> 2024 12 27 02 45 19.0000000  0  5                                             
G29  27813763.217 6 146162330.740 6       211.561 6        41.530               
G31  25431639.442 6 133644199.143 6       183.544 6        37.349               
G28  25799644.125 6 135578116.695 6      -627.974 6        41.124               
G16  26200887.782 6 137686734.938 6      3143.244 6        37.909               
G32  25076428.407 7 131777500.524 7      -493.650 7        45.261               
> 2024 12 27 02 45 20.0000000  0  5                                             
G29  27813723.209 6 146162121.366 6       211.713 6        41.395               
G31  25431602.614 6 133644014.885 6       188.944 6        37.587               
G28  25799763.848 6 135578741.426 6      -623.046 6        40.823               
G16  26200292.905 6 137683592.498 6      3136.773 6        37.923               
G32  25076524.024 7 131777995.285 7      -495.457 7        45.646               
> 2024 12 27 02 45 21.0000000  0  5                                             
G29  27813679.537 6 146161912.523 6       204.930 6        41.483               
G31  25431564.445 6 133643830.784 6       185.416 6        37.545               
G28  25799882.069 6 135579366.194 6      -630.541 6        41.194               
G16  26199693.864 6 137680450.413 6      3144.246 6        38.414               
G32  25076616.568 7 131778490.471 7      -497.842 7        45.106               
> 2024 12 27 02 45 22.0000000  0  5                                             
G29  27813641.976 6 146161704.172 6       209.592 6        41.343               
G31  25431526.688 6 133643646.854 6       193.846 6        37.387               
G28  25799999.343 6 135579991.008 6      -623.592 6        40.955               
G16  26199100.755 6 137677308.749 6      3134.125 6        38.223               
G32  25076710.666 7 131778986.177 7      -496.961 7        44.739               
> 2024 12 27 02 45 23.0000000  0  5                                             
G29  27813608.275 6 146161496.354 6       207.443 6        41.132               
G31  25431503.762 6 133643463.031 6       181.527 6        37.682               
G28  25800122.836 6 135580615.880 6      -620.825 6        41.392               
G16  26198498.033 6 137674167.477 6      3148.767 6        38.334               
G32  25076802.441 7 131779482.326 7      -494.832 7        44.784               
> 2024 12 27 02 45 24.0000000  0  5                                             
G29  27813570.965 6 146161288.988 6       204.746 6        41.307               
G31  25431475.690 6 133643279.319 6       191.357 6        37.439               
G28  25800241.272 6 135581240.781 6      -621.341 6        40.867               
G16  26197905.978 6 137671026.561 6      3140.375 6        39.030               
G32  25076895.610 7 131779978.943 7      -496.476 7        44.748               
> 2024 12 27 02 45 25.0000000  0  5                                             
G29  27813528.043 6 146161082.120 6       209.714 6        41.574               
G31  25431430.124 6 133643095.733 6       182.765 6        37.041               
G28  25800360.101 6 135581865.711 6      -621.479 6        40.603               
G16  26197309.225 6 137667886.042 6      3142.817 6        39.208               
G32  25076991.960 7 131780475.996 7      -501.068 7        44.671               
> 2024 12 27 02 45 26.0000000  0  5                                             
G29  27813494.735 6 146160875.767 6       202.157 6        41.491               
G31  25431401.230 6 133642912.291 6       188.121 6        37.184               
G28  25800474.767 6 135582490.673 6      -627.912 6        40.072               
G16  26196717.688 6 137664745.903 6      3142.689 6        39.776               
G32  25077085.254 7 131780973.526 7      -499.942 7        44.353               
> 2024 12 27 02 45 27.0000000  0  5                                             
G29  27813454.548 6 146160669.912 6       206.566 6        41.762               
G31  25431360.864 6 133642729.000 6       183.617 6        38.048               
G28  25800602.637 6 135583115.665 6      -623.040 6        40.420               
G16  26196120.184 6 137661606.144 6      3132.865 6        40.179               
G32  25077181.693 7 131781471.508 7      -496.642 7        44.830               
> 2024 12 27 02 45 28.0000000  0  5                                             
G29  27813422.330 6 146160464.563 6       204.381 6        41.529               
G31  25431325.036 6 133642545.841 6       183.740 6        37.752               
G28  25800717.214 6 135583740.742 6      -622.906 6        40.050               
G16  26195527.522 6 137658466.774 6      3135.173 6        40.546               
G32  25077275.130 7 131781969.978 7      -499.387 7        44.793               
> 2024 12 27 02 45 29.0000000  0  5                                             
G29  27813381.428 6 146160259.723 6       205.590 6        41.544               
G31  25431289.941 6 133642362.843 6       173.982 6        37.574               
G28  25800839.456 6 135584365.862 6      -622.508 6        40.137               
G16  26194929.089 6 137655327.818 6      3144.317 6        40.584               
G32  25077368.442 7 131782468.934 7      -501.906 7        45.277               
> 2024 12 27 02 45 30.0000000  0  5                                             
G29  27813342.098 6 146160055.405 6       208.445 6        41.509               
G31  25431252.738 6 133642179.982 6       181.459 6        38.178               
G28  25800956.247 6 135584991.033 6      -626.716 6        39.511               
G16  26194329.904 6 137652189.236 6      3143.546 6        40.543               
G32  25077465.882 7 131782968.338 7      -504.373 7        44.681               
> 2024 12 27 02 45 31.0000000  0  5                                             
G29  27813298.230 6 146159851.580 6       201.194 6        41.752               
G31  25431224.523 6 133641997.244 6       180.094 6        38.327               
G28  25801073.093 6 135585616.243 6      -625.614 6        39.732               
G16  26193737.046 6 137649051.044 6      3143.527 6        41.360               
G32  25077559.587 7 131783468.215 7      -499.365 7        44.914               
> 2024 12 27 02 45 32.0000000  0  5                                             
G29  27813265.369 6 146159648.222 6       204.775 6        41.388               
G31  25431191.358 6 133641814.637 6       179.186 6        38.948               
G28  25801195.657 6 135586241.494 6      -626.359 6        39.613               
G16  26193142.401 6 137645913.237 6      3134.396 6        41.559               
G32  25077656.866 7 131783968.541 7      -501.858 7        44.592               
> 2024 12 27 02 45 33.0000000  0  5                                             
G29  27813223.323 6 146159445.400 6       202.565 6        41.740               
G31  25431157.496 6 133641632.164 6       181.703 6        38.766               
G28  25801306.981 6 135586866.783 6      -627.053 6        39.693               
G16  26192542.502 6 137642775.826 6      3136.650 6        41.163               
G32  25077751.662 7 131784469.337 7      -498.315 7        44.942               
> 2024 12 27 02 45 34.0000000  0  5                                             
G29  27813190.587 6 146159243.075 6       199.989 6        41.332               
G31  25431126.136 6 133641449.833 6       181.286 6        39.137               
G28  25801431.027 6 135587492.102 6      -621.677 6        39.620               
G16  26191949.894 6 137639638.769 6      3136.805 6        41.532               
G32  25077848.011 7 131784970.605 7      -499.440 7        44.874               
> 2024 12 27 02 45 35.0000000  0  5                                             
G29  27813150.399 6 146159041.220 6       200.868 6        41.915               
G31  25431092.435 6 133641267.623 6       186.990 6        39.305               
G28  25801548.427 6 135588117.444 6      -624.839 6        40.291               
G16  26191351.424 6 137636502.098 6      3131.438 6        41.939               
G32  25077946.076 7 131785472.303 7      -502.986 7        45.072               
> 2024 12 27 02 45 36.0000000  0  5                                             
G29  27813112.231 7 146158839.892 7       200.965 7        42.372               
G31  25431063.505 6 133641085.572 6       179.432 6        39.652               
G28  25801672.098 6 135588742.831 6      -626.348 6        40.477               
G16  26190753.026 7 137633365.833 7      3135.506 7        42.117               
G32  25078041.158 7 131785974.494 7      -499.980 7        45.704               
> 2024 12 27 02 45 37.0000000  0  5                                             
G29  27813069.792 7 146158639.021 7       201.770 7        42.040               
G31  25431029.500 6 133640903.612 6       180.085 6        40.327               
G28  25801790.606 6 135589368.244 6      -618.694 6        40.535               
G16  26190157.112 6 137630229.923 6      3134.161 6        41.693               
G32  25078138.204 7 131786477.125 7      -502.197 7        46.068               
> 2024 12 27 02 45 38.0000000  0  5                                             
G29  27813032.499 7 146158438.716 7       201.187 7        42.077               
G31  25430992.780 6 133640721.810 6       185.175 6        39.836               
G28  25801910.346 6 135589993.763 6      -630.631 6        40.778               
G16  26189560.019 6 137627094.441 6      3139.842 6        41.766               
G32  25078230.766 7 131786980.249 7      -502.150 7        46.116               
> 2024 12 27 02 45 39.0000000  0  5                                             
G29  27812987.344 6 146158238.948 6       194.547 6        41.888               
G31  25430952.735 6 133640540.210 6       174.680 6        39.531               
G28  25802033.464 6 135590619.316 6      -626.458 6        41.253               
G16  26188962.550 6 137623959.386 6      3135.740 6        41.815               
G32  25078330.493 7 131787483.898 7      -503.769 7        46.021               
> 2024 12 27 02 45 40.0000000  0  5                                             
G29  27812948.086 6 146158039.676 6       197.213 6        41.254               
G31  25430918.659 6 133640358.741 6       177.329 6        39.449               
G28  25802147.325 6 135591244.946 6      -621.762 6        40.464               
G16  26188363.902 6 137620824.727 6      3130.629 6        41.510               
G32  25078425.377 7 131787987.996 7      -501.332 7        45.729               
> 2024 12 27 02 45 41.0000000  0  5                                             
G29  27812906.273 6 146157840.925 6       196.724 6        41.318               
G31  25430888.424 6 133640177.384 6       181.138 6        39.416               
G28  25802268.441 6 135591870.595 6      -624.218 6        40.984               
G16  26187769.025 6 137617690.429 6      3135.062 6        40.850               
G32  25078520.780 7 131788492.557 7      -502.549 7        46.068               
> 2024 12 27 02 45 42.0000000  0  5                                             
G29  27812865.281 6 146157642.648 6       195.868 6        41.119               
G31  25430850.346 6 133639996.158 6       176.424 6        38.962               
G28  25802393.721 6 135592496.289 6      -626.155 6        41.281               
G16  26187170.823 6 137614556.540 6      3131.806 6        40.591               
G32  25078615.861 7 131788997.570 7      -504.562 7        45.675               
> 2024 12 27 02 45 43.0000000  0  5                                             
G29  27812829.883 6 146157444.904 6       198.882 6        40.883               
G31  25430810.533 6 133639815.071 6       171.929 6        38.926               
G28  25802512.657 6 135593121.997 6      -625.562 6        41.723               
G16  26186566.833 6 137611423.036 6      3129.254 6        40.284               
G32  25078708.119 7 131789503.028 7      -506.811 7        45.795               
> 2024 12 27 02 45 44.0000000  0  5                                             
G29  27812786.675 6 146157247.624 6       194.403 6        40.665               
G31  25430778.673 6 133639634.077 6       185.399 6        39.188               
G28  25802627.912 7 135593747.745 7      -627.862 7        42.046               
G16  26185978.477 6 137608289.895 6      3130.826 6        40.616               
G32  25078803.736 7 131790008.948 7      -502.980 7        45.917               
> 2024 12 27 02 45 45.0000000  0  5                                             
G29  27812748.239 6 146157050.817 6       201.470 6        40.714               
G31  25430745.794 6 133639453.240 6       181.527 6        39.693               
G28  25802746.688 7 135594373.514 7      -624.619 7        42.489               
G16  26185374.861 6 137605157.120 6      3131.237 6        40.638               
G32  25078900.300 7 131790515.306 7      -507.359 7        45.488               
> 2024 12 27 02 45 46.0000000  0  5                                             
G29  27812717.397 6 146156854.518 6       193.168 6        41.208               
G31  25430708.859 6 133639272.495 6       185.481 6        40.212               
G28  25802871.360 7 135594999.328 7      -630.994 7        42.357               
G16  26184780.288 6 137602024.746 6      3132.195 6        40.024               
G32  25078996.042 7 131791022.121 7      -506.131 7        45.491               
> 2024 12 27 02 45 47.0000000  0  5                                             
G29  27812687.592 6 146156658.696 6       193.598 6        41.751               
G31  25430684.432 6 133639091.912 6       172.830 6        39.735               
G28  25802989.724 7 135595625.125 7      -630.717 7        42.536               
G16  26184175.171 6 137598892.732 6      3129.277 6        39.802               
G32  25079091.856 7 131791529.395 7      -508.682 7        45.256               
> 2024 12 27 02 45 48.0000000  0  5                                             
G29  27812656.374 6 146156463.390 6       194.723 6        41.874               
G31  25430642.386 6 133638911.422 6       181.268 6        40.501               
G28  25803105.855 7 135596250.998 7      -628.849 7        42.542               
G16  26183589.353 6 137595761.086 6      3133.626 6        40.014               
G32  25079191.261 7 131792037.121 7      -510.416 7        45.752               
> 2024 12 27 02 45 49.0000000  0  5                                             
G29  27812627.248 7 146156268.544 7       191.282 7        42.256               
G31  25430612.402 6 133638731.076 6       184.796 6        40.103               
G28  25803224.577 7 135596876.883 7      -624.255 7        43.049               
G16  26182987.739 6 137592629.819 6      3132.908 6        39.879               
G32  25079287.790 7 131792545.309 7      -510.507 7        45.595               
> 2024 12 27 02 45 50.0000000  0  5                                             
G29  27812592.207 7 146156074.202 7       193.922 7        42.794               
G31  25430579.112 6 133638550.847 6       174.222 6        40.722               
G28  25803344.603 7 135597502.808 7      -625.929 7        43.046               
G16  26182394.702 6 137589498.944 6      3127.445 6        39.838               
G32  25079388.446 7 131793053.953 7      -507.032 7        45.215               
> 2024 12 27 02 45 51.0000000  0  5                                             
G29  27812556.487 7 146155880.349 7       193.269 7        43.053               
G31  25430546.161 6 133638370.758 6       180.930 6        40.556               
G28  25803465.505 7 135598128.761 7      -625.653 7        43.390               
G16  26181799.341 6 137586368.423 6      3130.229 6        40.135               
G32  25079485.314 7 131793563.042 7      -509.457 7        45.283               
> 2024 12 27 02 45 52.0000000  0  5                                             
G29  27812524.876 7 146155687.005 7       194.605 7        43.706               
G31  25430512.639 6 133638190.784 6       179.152 6        40.959               
G28  25803582.636 7 135598754.756 7      -629.288 7        43.166               
G16  26181210.468 6 137583238.314 6      3124.447 6        40.822               
G32  25079582.879 7 131794072.617 7      -508.313 7        46.082               
> 2024 12 27 02 45 53.0000000  0  5                                             
G29  27812483.492 7 146155494.132 7       193.518 7        43.960               
G31  25430480.993 6 133638010.959 6       172.365 6        41.105               
G28  25803701.412 7 135599380.771 7      -626.880 7        43.487               
G16  26180617.734 6 137580108.567 6      3133.048 6        41.164               
G32  25079682.159 7 131794582.620 7      -509.736 7        46.427               
> 2024 12 27 02 45 54.0000000  0  5                                             
G29  27812448.397 7 146155301.769 7       189.270 7        43.538               
