$GPRMC,024230.19,A,2218.2757672,N,11410.7796987,E,4.44,343.37,271224,0.0,E,A*3F
$GPGGA,024230.19,2218.2757672,N,11410.7796987,E,1,04,1.0,4.994,M,0.000,M,0.0,*79
$GPGSA,A,3,26,28,29,32,,,,,,,,,4.8,2.5,4.1,1*25
$GPGSV,1,1,04,26,68,239,40,28,47,010,42,29,22,080,41,32,61,088,45,1*69
$GPRMC,024230.29,A,2218.2729781,N,11410.7746345,E,1.20,343.37,271224,0.0,E,A*36
$GPGGA,024230.29,2218.2729781,N,11410.7746345,E,1,04,1.0,-2.082,M,0.000,M,0.0,*52
$GPGSA,A,3,26,28,29,32,,,,,,,,,4.8,2.5,4.1,1*25
$GPGSV,1,1,04,26,68,239,39,28,47,010,42,29,22,080,41,32,61,088,45,1*67
$GPRMC,024230.39,A,2218.2729805,N,11410.7773635,E,4.13,245.74,271224,0.0,E,A*35
$GPGGA,024230.39,2218.2729805,N,11410.7773635,E,1,04,1.0,10.632,M,0.000,M,0.0,*47
$GPGSA,A,3,26,28,29,32,,,,,,,,,4.8,2.5,4.1,1*25
$GPGSV,1,1,04,26,68,239,39,28,47,010,42,29,22,080,41,32,61,088,45,1*67
$GPRMC,024230.49,A,2218.2712539,N,11410.7739837,E,6.24,304.91,271224,0.0,E,A*33
$GPGGA,024230.49,2218.2712539,N,11410.7739837,E,1,04,1.0,-1.459,M,0.000,M,0.0,*5A
$GPGSA,A,3,26,28,29,32,,,,,,,,,4.8,2.5,4.1,1*25
$GPGSV,1,1,04,26,68,239,39,28,47,010,42,29,22,080,41,32,61,088,45,1*67
$GPRMC,024230.59,A,2218.2753423,N,11410.7800162,E,1.16,304.91,271224,0.0,E,A*37
$GPGGA,024230.59,2218.2753423,N,11410.7800162,E,1,04,1.0,23.294,M,0.000,M,0.0,*42
$GPGSA,A,3,26,28,29,32,,,,,,,,,4.8,2.5,4.1,1*25
$GPGSV,1,1,04,26,68,239,39,28,47,010,42,29,22,080,41,32,61,089,44,1*67
$GPRMC,024230.69,A,2218.2791735,N,11410.7833089,E,5.92,185.94,271224,0.0,E,A*3C
$GPGGA,024230.69,2218.2791735,N,11410.7833089,E,1,04,1.0,35.634,M,0.000,M,0.0,*46
$GPGSA,A,3,26,28,29,32,,,,,,,,,4.8,2.5,4.1,1*25
$GPGSV,1,1,04,26,68,239,39,28,47,010,42,29,22,080,41,32,61,089,44,1*67
$GPRMC,024230.79,A,2218.2742183,N,11410.7764374,E,3.09,209.69,271224,0.0,E,A*35
$GPGGA,024230.79,2218.2742183,N,11410.7764374,E,1,04,1.0,13.617,M,0.000,M,0.0,*4B
$GPGSA,A,3,26,28,29,32,,,,,,,,,4.8,2.5,4.1,1*25
$GPGSV,1,1,04,26,68,239,39,28,47,010,42,29,22,080,40,32,61,089,44,1*66
$GPRMC,024230.89,A,2218.2758523,N,11410.7771209,E,3.06,32.45,271224,0.0,E,A*0B
$GPGGA,024230.89,2218.2758523,N,11410.7771209,E,1,04,1.0,20.310,M,0.000,M,0.0,*4C
$GPGSA,A,3,26,28,29,32,,,,,,,,,4.8,2.5,4.1,1*25
$GPGSV,1,1,04,26,68,239,39,28,47,010,42,29,22,080,41,32,61,089,44,1*67
$GPRMC,024230.99,A,2218.2782773,N,11410.7800290,E,11.26,225.44,271224,0.0,E,A*07
$GPGGA,024230.99,2218.2782773,N,11410.7800290,E,1,04,1.0,23.920,M,0.000,M,0.0,*4E
$GPGSA,A,3,26,28,29,32,,,,,,,,,4.8,2.5,4.1,1*25
$GPGSV,1,1,04,26,68,239,40,28,47,010,42,29,22,080,41,32,61,089,44,1*69
$GPRMC,024231.09,A,2218.2760459,N,11410.7759285,E,2.53,135.66,271224,0.0,E,A*3D
$GPGGA,024231.09,2218.2760459,N,11410.7759285,E,1,04,1.0,10.025,M,0.000,M,0.0,*4A
$GPGSA,A,3,26,28,29,32,,,,,,,,,4.8,2.5,4.1,1*25
$GPGSV,1,1,04,26,68,239,39,28,47,010,42,29,22,080,41,32,61,089,45,1*66
$GPRMC,024231.19,A,2218.2780446,N,11410.7817659,E,0.98,135.66,271224,0.0,E,A*39
$GPGGA,024231.19,2218.2780446,N,11410.7817659,E,1,04,1.0,24.215,M,0.000,M,0.0,*4D
$GPGSA,A,3,26,28,29,32,,,,,,,,,4.8,2.5,4.1,1*25
$GPGSV,1,1,04,26,68,239,39,28,47,010,42,29,22,080,41,32,61,089,45,1*66
$GPRMC,024231.29,A,2218.2769061,N,11410.7789255,E,2.68,144.05,271224,0.0,E,A*32
$GPGGA,024231.29,2218.2769061,N,11410.7789255,E,1,04,1.0,26.053,M,0.000,M,0.0,*4A
$GPGSA,A,3,26,28,29,32,,,,,,,,,4.8,2.5,4.1,1*25
$GPGSV,1,1,04,26,68,239,39,28,47,010,42,29,22,080,41,32,61,089,44,1*67
$GPRMC,024231.39,A,2218.2795241,N,11410.7798940,E,4.51,257.34,271224,0.0,E,A*30
$GPGGA,024231.39,2218.2795241,N,11410.7798940,E,1,04,1.0,28.458,M,0.000,M,0.0,*46
$GPGSA,A,3,26,28,29,32,,,,,,,,,4.8,2.5,4.1,1*25
$GPGSV,1,1,04,26,68,239,39,28,47,010,42,29,22,080,41,32,61,089,44,1*67
$GPRMC,024231.49,A,2218.2772583,N,11410.7797508,E,9.04,74.35,271224,0.0,E,A*07
$GPGGA,024231.49,2218.2772583,N,11410.7797508,E,1,04,1.0,34.635,M,0.000,M,0.0,*4A
$GPGSA,A,3,26,28,29,32,,,,,,,,,4.8,2.5,4.1,1*25
$GPGSV,1,1,04,26,68,239,39,28,47,010,42,29,22,080,41,32,61,089,45,1*66
$GPRMC,024231.59,A,2218.2747046,N,11410.7811779,E,4.24,331.11,271224,0.0,E,A*32
$GPGGA,024231.59,2218.2747046,N,11410.7811779,E,1,04,1.0,21.228,M,0.000,M,0.0,*48
$GPGSA,A,3,26,28,29,32,,,,,,,,,4.8,2.5,4.1,1*25
$GPGSV,1,1,04,26,68,239,39,28,47,010,42,29,22,080,41,32,61,089,45,1*66
$GPRMC,024231.69,A,2218.2754594,N,11410.7812416,E,2.79,227.41,271224,0.0,E,A*3D
$GPGGA,024231.69,2218.2754594,N,11410.7812416,E,1,04,1.0,27.928,M,0.000,M,0.0,*47
$GPGSA,A,3,26,28,29,32,,,,,,,,,4.8,2.5,4.1,1*25
$GPGSV,1,1,04,26,68,239,40,28,47,010,42,29,22,080,41,32,61,089,45,1*68
$GPRMC,024231.79,A,2218.2775947,N,11410.7801668,E,3.67,313.46,271224,0.0,E,A*3B
$GPGGA,024231.79,2218.2775947,N,11410.7801668,E,1,04,1.0,20.570,M,0.000,M,0.0,*48
$GPGSA,A,3,26,28,29,32,,,,,,,,,4.8,2.5,4.1,1*25
$GPGSV,1,1,04,26,68,239,39,28,47,010,42,29,22,080,40,32,61,089,45,1*67
$GPRMC,024231.89,A,2218.2772419,N,11410.7809701,E,6.36,14.64,271224,0.0,E,A*06
$GPGGA,024231.89,2218.2772419,N,11410.7809701,E,1,04,1.0,23.512,M,0.000,M,0.0,*47
$GPGSA,A,3,26,28,29,32,,,,,,,,,4.8,2.5,4.1,1*25
$GPGSV,1,1,04,26,68,239,39,28,47,010,42,29,22,080,40,32,61,089,45,1*67
$GPRMC,024231.99,A,2218.2808189,N,11410.7817615,E,4.20,62.10,271224,0.0,E,A*05
$GPGGA,024231.99,2218.2808189,N,11410.7817615,E,1,04,1.0,42.329,M,0.000,M,0.0,*4A
$GPGSA,A,3,26,28,29,32,,,,,,,,,4.8,2.5,4.1,1*25
$GPGSV,1,1,04,26,68,239,39,28,47,010,42,29,22,080,40,32,61,089,45,1*67
$GPRMC,024232.09,A,2218.2821484,N,11410.7811507,E,1.67,62.10,271224,0.0,E,A*0C
$GPGGA,024232.09,2218.2821484,N,11410.7811507,E,1,04,1.0,37.750,M,0.000,M,0.0,*4D
$GPGSA,A,3,26,28,29,32,,,,,,,,,4.8,2.5,4.1,1*25
$GPGSV,1,1,04,26,68,239,39,28,47,010,42,29,22,080,40,32,61,089,45,1*67
$GPRMC,024232.19,A,2218.2799643,N,11410.7797854,E,10.64,63.86,271224,0.0,E,A*3F
$GPGGA,024232.19,2218.2799643,N,11410.7797854,E,1,04,1.0,39.166,M,0.000,M,0.0,*4E
$GPGSA,A,3,26,28,29,32,,,,,,,,,4.8,2.5,4.1,1*25
$GPGSV,1,1,04,26,68,239,39,28,47,010,42,29,22,080,40,32,61,089,45,1*67
$GPRMC,024232.29,A,2218.2734304,N,11410.7747844,E,7.53,71.67,271224,0.0,E,A*0F
$GPGGA,024232.29,2218.2734304,N,11410.7747844,E,1,04,1.0,23.512,M,0.000,M,0.0,*4C
$GPGSA,A,3,26,28,29,32,,,,,,,,,4.8,2.5,4.1,1*25
$GPGSV,1,1,04,26,68,239,39,28,47,010,42,29,22,080,40,32,61,089,45,1*67
$GPRMC,024232.39,A,2218.2775594,N,11410.7808286,E,3.38,120.62,271224,0.0,E,A*3D
$GPGGA,024232.39,2218.2775594,N,11410.7808286,E,1,04,1.0,39.132,M,0.000,M,0.0,*4A
$GPGSA,A,3,26,28,29,32,,,,,,,,,4.8,2.5,4.1,1*25
$GPGSV,1,1,04,26,68,239,39,28,47,010,42,29,22,080,41,32,61,089,45,1*66
$GPRMC,024232.49,A,2218.2778794,N,11410.7792344,E,5.75,60.66,271224,0.0,E,A*08
$GPGGA,024232.49,2218.2778794,N,11410.7792344,E,1,04,1.0,28.627,M,0.000,M,0.0,*42
$GPGSA,A,3,26,28,29,32,,,,,,,,,4.8,2.5,4.1,1*25
$GPGSV,1,1,04,26,68,239,39,28,47,010,42,29,22,080,41,32,61,089,45,1*66
$GPRMC,024232.59,A,2218.2808080,N,11410.7789978,E,3.70,269.71,271224,0.0,E,A*32
$GPGGA,024232.59,2218.2808080,N,11410.7789978,E,1,04,1.0,38.455,M,0.000,M,0.0,*40
$GPGSA,A,3,26,28,29,32,,,,,,,,,4.8,2.5,4.1,1*25
$GPGSV,1,1,04,26,68,239,39,28,47,010,42,29,22,080,41,32,61,089,45,1*66
$GPRMC,024232.69,A,2218.2827660,N,11410.7801377,E,4.85,88.20,271224,0.0,E,A*0A
$GPGGA,024232.69,2218.2827660,N,11410.7801377,E,1,04,1.0,38.472,M,0.000,M,0.0,*49
$GPGSA,A,3,26,28,29,32,,,,,,,,,4.8,2.5,4.1,1*25
$GPGSV,1,1,04,26,68,239,39,28,47,010,42,29,22,080,41,32,61,089,45,1*66
$GPRMC,024232.79,A,2218.2770305,N,11410.7779284,E,4.38,233.15,271224,0.0,E,A*3F
$GPGGA,024232.79,2218.2770305,N,11410.7779284,E,1,04,1.0,19.878,M,0.000,M,0.0,*4B
$GPGSA,A,3,26,28,29,32,,,,,,,,,4.8,2.5,4.1,1*25
$GPGSV,1,1,04,26,68,239,39,28,47,010,42,29,22,080,41,32,61,089,45,1*66
$GPRMC,024232.89,A,2218.2792301,N,11410.7779057,E,6.18,47.50,271224,0.0,E,A*04
$GPGGA,024232.89,2218.2792301,N,11410.7779057,E,1,04,1.0,13.261,M,0.000,M,0.0,*48
$GPGSA,A,3,26,28,29,32,,,,,,,,,4.8,2.5,4.1,1*25
$GPGSV,1,1,04,26,68,239,39,28,47,010,42,29,22,080,41,32,61,089,45,1*66
$GPRMC,024232.99,A,2218.2758357,N,11410.7778182,E,5.36,178.48,271224,0.0,E,A*33
$GPGGA,024232.99,2218.2758357,N,11410.7778182,E,1,04,1.0,14.629,M,0.000,M,0.0,*4B
$GPGSA,A,3,26,28,29,32,,,,,,,,,4.8,2.5,4.1,1*25
$GPGSV,1,1,04,26,68,239,39,28,47,010,42,29,22,080,41,32,61,089,45,1*66
$GPRMC,024233.09,A,2218.2751772,N,11410.7792437,E,3.31,210.08,271224,0.0,E,A*36
$GPGGA,024233.09,2218.2751772,N,11410.7792437,E,1,04,1.0,12.938,M,0.000,M,0.0,*4F
$GPGSA,A,3,26,28,29,32,,,,,,,,,4.8,2.5,4.1,1*25
$GPGSV,1,1,04,26,68,239,39,28,47,010,42,29,22,080,41,32,61,089,45,1*66
$GPRMC,024233.19,A,2218.2771802,N,11410.7774499,E,10.73,50.06,271224,0.0,E,A*3D
$GPGGA,024233.19,2218.2771802,N,11410.7774499,E,1,04,1.0,12.523,M,0.000,M,0.0,*4E
$GPGSA,A,3,26,28,29,32,,,,,,,,,4.8,2.5,4.1,1*25
$GPGSV,1,1,04,26,68,239,39,28,47,010,42,29,22,080,41,32,61,089,45,1*66
$GPRMC,024233.29,A,2218.2773016,N,11410.7775051,E,9.57,229.97,271224,0.0,E,A*3A
$GPGGA,024233.29,2218.2773016,N,11410.7775051,E,1,04,1.0,19.214,M,0.000,M,0.0,*4B
$GPGSA,A,3,26,28,29,32,,,,,,,,,4.8,2.5,4.1,1*25
$GPGSV,1,1,04,26,68,239,39,28,47,010,42,29,22,080,41,32,61,089,45,1*66
$GPRMC,024233.39,A,2218.2798503,N,11410.7816066,E,3.38,61.46,271224,0.0,E,A*00
$GPGGA,024233.39,2218.2798503,N,11410.7816066,E,1,04,1.0,33.599,M,0.000,M,0.0,*4A
$GPGSA,A,3,26,28,29,32,,,,,,,,,4.8,2.5,4.1,1*25
$GPGSV,1,1,04,26,68,239,39,28,47,010,42,29,22,080,41,32,61,089,45,1*66
$GPRMC,024233.49,A,2218.2804479,N,11410.7807809,E,8.73,191.41,271224,0.0,E,A*3D
$GPGGA,024233.49,2218.2804479,N,11410.7807809,E,1,04,1.0,32.074,M,0.000,M,0.0,*4D
$GPGSA,A,3,26,28,29,32,,,,,,,,,4.8,2.5,4.1,1*25
$GPGSV,1,1,04,26,68,239,39,28,47,010,42,29,22,080,41,32,61,089,45,1*66
$GPRMC,024233.59,A,2218.2787110,N,11410.7826026,E,1.30,191.41,271224,0.0,E,A*3A
$GPGGA,024233.59,2218.2787110,N,11410.7826026,E,1,04,1.0,33.159,M,0.000,M,0.0,*4B
$GPGSA,A,3,26,28,29,32,,,,,,,,,4.8,2.5,4.1,1*25
$GPGSV,1,1,04,26,68,239,39,28,47,010,42,29,22,080,41,32,61,089,45,1*66
$GPRMC,024233.69,A,2218.2761165,N,11410.7797762,E,2.15,312.72,271224,0.0,E,A*3C
$GPGGA,024233.69,2218.2761165,N,11410.7797762,E,1,04,1.0,26.125,M,0.000,M,0.0,*4F
$GPGSA,A,3,26,28,29,32,,,,,,,,,4.8,2.5,4.1,1*25
$GPGSV,1,1,04,26,68,239,39,28,47,010,42,29,22,080,41,32,61,089,45,1*66
$GPRMC,024233.79,A,2218.2763566,N,11410.7798252,E,2.89,226.34,271224,0.0,E,A*30
$GPGGA,024233.79,2218.2763566,N,11410.7798252,E,1,04,1.0,23.836,M,0.000,M,0.0,*4C
$GPGSA,A,3,26,28,29,32,,,,,,,,,4.8,2.5,4.1,1*25
$GPGSV,1,1,04,26,68,239,39,28,47,010,42,29,22,080,41,32,61,089,45,1*66
$GPRMC,024233.89,A,2218.2778107,N,11410.7768367,E,2.06,129.02,271224,0.0,E,A*30
$GPGGA,024233.89,2218.2778107,N,11410.7768367,E,1,04,1.0,30.050,M,0.000,M,0.0,*48
$GPGSA,A,3,26,28,29,32,,,,,,,,,4.8,2.5,4.1,1*25
$GPGSV,1,1,04,26,68,239,39,28,47,010,42,29,22,080,41,32,61,089,45,1*66
$GPRMC,024233.99,A,2218.2802039,N,11410.7823146,E,3.94,295.99,271224,0.0,E,A*32
$GPGGA,024233.99,2218.2802039,N,11410.7823146,E,1,04,1.0,40.663,M,0.000,M,0.0,*47
$GPGSA,A,3,26,28,29,32,,,,,,,,,4.8,2.5,4.1,1*25
$GPGSV,1,1,04,26,68,239,39,28,47,010,42,29,22,080,40,32,61,089,45,1*67
$GPRMC,024234.09,A,2218.2770600,N,11410.7771517,E,4.77,214.51,271224,0.0,E,A*35
$GPGGA,024234.09,2218.2770600,N,11410.7771517,E,1,04,1.0,23.218,M,0.000,M,0.0,*4A
$GPGSA,A,3,26,28,29,32,,,,,,,,,4.8,2.5,4.1,1*25
$GPGSV,1,1,04,26,68,239,39,28,47,010,42,29,22,080,40,32,61,089,45,1*67
$GPRMC,024234.19,A,2218.2819061,N,11410.7812692,E,3.56,18.83,271224,0.0,E,A*04
$GPGGA,024234.19,2218.2819061,N,11410.7812692,E,1,04,1.0,39.826,M,0.000,M,0.0,*42
$GPGSA,A,3,26,28,29,32,,,,,,,,,4.8,2.5,4.1,1*25
$GPGSV,1,1,04,26,68,239,39,28,47,010,42,29,22,080,41,32,61,089,45,1*66
$GPRMC,024234.29,A,2218.2805229,N,11410.7834568,E,2.20,153.90,271224,0.0,E,A*3A
$GPGGA,024234.29,2218.2805229,N,11410.7834568,E,1,04,1.0,40.021,M,0.000,M,0.0,*41
$GPGSA,A,3,26,28,29,32,,,,,,,,,4.8,2.5,4.1,1*25
$GPGSV,1,1,04,26,68,239,39,28,47,010,41,29,22,080,41,32,61,089,45,1*65
$GPRMC,024234.39,A,2218.2749734,N,11410.7765202,E,8.29,88.52,271224,0.0,E,A*0F
$GPGGA,024234.39,2218.2749734,N,11410.7765202,E,1,04,1.0,14.131,M,0.000,M,0.0,*4F
$GPGSA,A,3,26,28,29,32,,,,,,,,,4.8,2.5,4.1,1*25
$GPGSV,1,1,04,26,68,239,39,28,47,010,42,29,22,080,41,32,61,089,45,1*66
$GPRMC,024234.49,A,2218.2749173,N,11410.7739464,E,8.57,71.23,271224,0.0,E,A*0B
$GPGGA,024234.49,2218.2749173,N,11410.7739464,E,1,04,1.0,11.094,M,0.000,M,0.0,*49
$GPGSA,A,3,26,28,29,32,,,,,,,,,4.8,2.5,4.1,1*25
$GPGSV,1,1,04,26,68,239,39,28,47,010,42,29,22,080,41,32,61,089,45,1*66
$GPRMC,024234.59,A,2218.2724286,N,11410.7740009,E,2.73,81.07,271224,0.0,E,A*0C
$GPGGA,024234.59,2218.2724286,N,11410.7740009,E,1,04,1.0,12.993,M,0.000,M,0.0,*46
$GPGSA,A,3,26,28,29,32,,,,,,,,,4.8,2.5,4.1,1*25
$GPGSV,1,1,04,26,68,239,39,28,47,010,42,29,22,080,41,32,61,089,45,1*66
$GPRMC,024234.69,A,2218.2744473,N,11410.7762836,E,6.07,54.37,271224,0.0,E,A*0D
$GPGGA,024234.69,2218.2744473,N,11410.7762836,E,1,04,1.0,12.836,M,0.000,M,0.0,*45
$GPGSA,A,3,26,28,29,32,,,,,,,,,4.8,2.5,4.1,1*25
$GPGSV,1,1,04,26,68,239,39,28,47,010,42,29,22,080,41,32,61,089,45,1*66
$GPRMC,024234.79,A,2218.2737268,N,11410.7766702,E,6.47,45.53,271224,0.0,E,A*0E
$GPGGA,024234.79,2218.2737268,N,11410.7766702,E,1,04,1.0,15.822,M,0.000,M,0.0,*42
$GPGSA,A,3,26,28,29,32,,,,,,,,,4.8,2.5,4.1,1*25
$GPGSV,1,1,04,26,68,239,39,28,47,010,42,29,22,080,41,32,61,089,45,1*66
$GPRMC,024234.89,A,2218.2756090,N,11410.7753982,E,5.58,18.71,271224,0.0,E,A*06
$GPGGA,024234.89,2218.2756090,N,11410.7753982,E,1,04,1.0,13.292,M,0.000,M,0.0,*48
$GPGSA,A,3,26,28,29,32,,,,,,,,,4.8,2.5,4.1,1*25
$GPGSV,1,1,04,26,68,239,39,28,47,010,42,29,22,080,41,32,61,089,45,1*66
$GPRMC,024234.99,A,2218.2773430,N,11410.7755359,E,3.73,131.64,271224,0.0,E,A*35
$GPGGA,024234.99,2218.2773430,N,11410.7755359,E,1,04,1.0,26.775,M,0.000,M,0.0,*40
$GPGSA,A,3,26,28,29,32,,,,,,,,,4.8,2.5,4.1,1*25
$GPGSV,1,1,04,26,68,239,40,28,47,010,42,29,22,080,41,32,61,089,45,1*68
$GPRMC,024235.09,A,2218.2769653,N,11410.7756989,E,4.45,198.52,271224,0.0,E,A*31
$GPGGA,024235.09,2218.2769653,N,11410.7756989,E,1,04,1.0,28.801,M,0.000,M,0.0,*42
$GPGSA,A,3,26,28,29,32,,,,,,,,,4.8,2.5,4.1,1*25
$GPGSV,1,1,04,26,68,239,40,28,47,010,42,29,22,080,41,32,61,089,45,1*68
$GPRMC,024235.19,A,2218.2759457,N,11410.7793637,E,5.13,220.08,271224,0.0,E,A*3B
$GPGGA,024235.19,2218.2759457,N,11410.7793637,E,1,04,1.0,26.489,M,0.000,M,0.0,*47
$GPGSA,A,3,26,28,29,32,,,,,,,,,4.8,2.5,4.1,1*25
$GPGSV,1,1,04,26,68,239,39,28,47,010,42,29,22,080,41,32,61,089,45,1*66
$GPRMC,024235.29,A,2218.2769766,N,11410.7804585,E,3.97,219.75,271224,0.0,E,A*3B
$GPGGA,024235.29,2218.2769766,N,11410.7804585,E,1,04,1.0,37.979,M,0.000,M,0.0,*4F
$GPGSA,A,3,26,28,29,32,,,,,,,,,4.8,2.5,4.1,1*25
$GPGSV,1,1,04,26,68,239,39,28,47,010,42,29,22,080,41,32,61,089,45,1*66
$GPRMC,024235.39,A,2218.2739940,N,11410.7803183,E,9.77,216.53,271224,0.0,E,A*3F
$GPGGA,024235.39,2218.2739940,N,11410.7803183,E,1,04,1.0,33.514,M,0.000,M,0.0,*47
$GPGSA,A,3,26,28,29,32,,,,,,,,,4.8,2.5,4.1,1*25
$GPGSV,1,1,04,26,68,239,39,28,47,010,42,29,22,080,42,32,61,089,45,1*65
$GPRMC,024235.49,A,2218.2737123,N,11410.7764993,E,6.03,34.35,271224,0.0,E,A*02
$GPGGA,024235.49,2218.2737123,N,11410.7764993,E,1,04,1.0,25.330,M,0.000,M,0.0,*43
$GPGSA,A,3,26,28,29,32,,,,,,,,,4.8,2.5,4.1,1*25
$GPGSV,1,1,04,26,68,239,40,28,47,010,42,29,22,080,42,32,61,089,45,1*6B
$GPRMC,024235.59,A,2218.2770642,N,11410.7778196,E,3.43,31.34,271224,0.0,E,A*05
$GPGGA,024235.59,2218.2770642,N,11410.7778196,E,1,04,1.0,28.417,M,0.000,M,0.0,*4E
$GPGSA,A,3,26,28,29,32,,,,,,,,,4.8,2.5,4.1,1*25
$GPGSV,1,1,04,26,68,239,40,28,47,010,42,29,22,080,42,32,61,089,45,1*6B
$GPRMC,024235.69,A,2218.2756446,N,11410.7777695,E,5.96,108.61,271224,0.0,E,A*3A
$GPGGA,024235.69,2218.2756446,N,11410.7777695,E,1,04,1.0,33.034,M,0.000,M,0.0,*4B
$GPGSA,A,3,26,28,29,32,,,,,,,,,4.8,2.5,4.1,1*25
$GPGSV,1,1,04,26,68,239,39,28,47,010,42,29,22,080,42,32,61,089,45,1*65
$GPRMC,024235.79,A,2218.2740415,N,11410.7802134,E,6.23,77.05,271224,0.0,E,A*0D
$GPGGA,024235.79,2218.2740415,N,11410.7802134,E,1,04,1.0,28.754,M,0.000,M,0.0,*41
$GPGSA,A,3,26,28,29,32,,,,,,,,,4.8,2.5,4.1,1*25
$GPGSV,1,1,04,26,68,239,40,28,47,010,42,29,22,080,42,32,61,089,45,1*6B
$GPRMC,024235.89,A,2218.2751142,N,11410.7815658,E,7.51,45.11,271224,0.0,E,A*0E
$GPGGA,024235.89,2218.2751142,N,11410.7815658,E,1,04,1.0,37.762,M,0.000,M,0.0,*49
$GPGSA,A,3,26,28,29,32,,,,,,,,,4.8,2.5,4.1,1*25
$GPGSV,1,1,04,26,68,239,40,28,47,010,42,29,22,080,42,32,61,089,45,1*6B
$GPRMC,024235.99,A,2218.2749167,N,11410.7786747,E,2.32,159.91,271224,0.0,E,A*3F
$GPGGA,024235.99,2218.2749167,N,11410.7786747,E,1,04,1.0,23.414,M,0.000,M,0.0,*4B
$GPGSA,A,3,26,28,29,32,,,,,,,,,4.8,2.5,4.1,1*25
$GPGSV,1,1,04,26,68,239,40,28,47,010,42,29,22,080,42,32,61,089,45,1*6B
$GPRMC,024236.09,A,2218.2744080,N,11410.7782363,E,1.58,159.91,271224,0.0,E,A*39
$GPGGA,024236.09,2218.2744080,N,11410.7782363,E,1,04,1.0,22.508,M,0.000,M,0.0,*4F
$GPGSA,A,3,26,28,29,32,,,,,,,,,4.8,2.5,4.1,1*25
$GPGSV,1,1,04,26,68,239,40,28,47,010,42,29,22,080,42,32,61,089,45,1*6B
$GPRMC,024236.19,A,2218.2764317,N,11410.7780992,E,0.56,159.91,271224,0.0,E,A*3E
$GPGGA,024236.19,2218.2764317,N,11410.7780992,E,1,04,1.0,23.224,M,0.000,M,0.0,*4F
$GPGSA,A,3,26,28,29,32,,,,,,,,,4.8,2.5,4.1,1*25
$GPGSV,1,1,04,26,68,239,39,28,47,010,42,29,22,080,42,32,61,089,45,1*65
$GPRMC,024236.29,A,2218.2785937,N,11410.7805593,E,10.16,97.99,271224,0.0,E,A*3B
$GPGGA,024236.29,2218.2785937,N,11410.7805593,E,1,04,1.0,40.405,M,0.000,M,0.0,*44
$GPGSA,A,3,26,28,29,32,,,,,,,,,4.8,2.5,4.1,1*25
$GPGSV,1,1,04,26,68,239,39,28,47,010,42,29,22,080,42,32,61,089,45,1*65
$GPRMC,024236.39,A,2218.2811782,N,11410.7816523,E,6.15,226.83,271224,0.0,E,A*36
$GPGGA,024236.39,2218.2811782,N,11410.7816523,E,1,04,1.0,48.453,M,0.000,M,0.0,*45
$GPGSA,A,3,26,28,29,32,,,,,,,,,4.8,2.5,4.1,1*25
$GPGSV,1,1,04,26,68,239,39,28,47,010,42,29,22,080,42,32,61,089,45,1*65
$GPRMC,024236.49,A,2218.2764373,N,11410.7813835,E,2.79,257.53,271224,0.0,E,A*3C
$GPGGA,024236.49,2218.2764373,N,11410.7813835,E,1,04,1.0,33.436,M,0.000,M,0.0,*45
$GPGSA,A,3,26,28,29,32,,,,,,,,,4.8,2.5,4.1,1*25
$GPGSV,1,1,04,26,68,239,39,28,47,010,42,29,22,080,41,32,61,089,46,1*65
$GPRMC,024236.59,A,2218.2744866,N,11410.7779201,E,7.16,191.95,271224,0.0,E,A*31
$GPGGA,024236.59,2218.2744866,N,11410.7779201,E,1,04,1.0,21.363,M,0.000,M,0.0,*43
$GPGSA,A,3,26,28,29,32,,,,,,,,,4.8,2.5,4.1,1*25
$GPGSV,1,1,04,26,68,239,39,28,47,010,42,29,22,080,41,32,61,089,46,1*65
$GPRMC,024236.69,A,2218.2724213,N,11410.7765342,E,5.16,89.11,271224,0.0,E,A*01
$GPGGA,024236.69,2218.2724213,N,11410.7765342,E,1,04,1.0,4.760,M,0.000,M,0.0,*75
$GPGSA,A,3,26,28,29,32,,,,,,,,,4.8,2.5,4.1,1*25
$GPGSV,1,1,04,26,68,239,39,28,47,010,42,29,22,080,41,32,61,089,46,1*65
$GPRMC,024236.79,A,2218.2748680,N,11410.7787272,E,2.80,134.85,271224,0.0,E,A*38
$GPGGA,024236.79,2218.2748680,N,11410.7787272,E,1,04,1.0,17.068,M,0.000,M,0.0,*43
$GPGSA,A,3,26,28,29,32,,,,,,,,,4.8,2.5,4.1,1*25
$GPGSV,1,1,04,26,68,239,39,28,47,010,42,29,22,080,41,32,61,089,46,1*65
$GPRMC,024236.89,A,2218.2757003,N,11410.7769554,E,5.17,158.39,271224,0.0,E,A*33
$GPGGA,024236.89,2218.2757003,N,11410.7769554,E,1,04,1.0,17.321,M,0.000,M,0.0,*42
$GPGSA,A,3,26,28,29,32,,,,,,,,,4.8,2.5,4.1,1*25
$GPGSV,1,1,04,26,68,239,39,28,47,010,42,29,22,080,41,32,61,089,46,1*65
$GPRMC,024236.99,A,2218.2737190,N,11410.7747241,E,3.11,299.24,271224,0.0,E,A*32
$GPGGA,024236.99,2218.2737190,N,11410.7747241,E,1,04,1.0,23.014,M,0.000,M,0.0,*43
$GPGSA,A,3,26,28,29,32,,,,,,,,,4.8,2.5,4.1,1*25
$GPGSV,1,1,04,26,68,239,39,28,47,010,42,29,22,080,41,32,61,089,46,1*65
$GPRMC,024237.09,A,2218.2761918,N,11410.7752393,E,3.39,259.65,271224,0.0,E,A*38
$GPGGA,024237.09,2218.2761918,N,11410.7752393,E,1,04,1.0,29.726,M,0.000,M,0.0,*46
$GPGSA,A,3,26,28,29,32,,,,,,,,,4.8,2.5,4.1,1*25
$GPGSV,1,1,04,26,68,239,39,28,47,010,42,29,22,080,41,32,61,089,46,1*65
$GPRMC,024237.19,A,2218.2726884,N,11410.7725875,E,6.32,359.34,271224,0.0,E,A*36
$GPGGA,024237.19,2218.2726884,N,11410.7725875,E,1,04,1.0,24.902,M,0.000,M,0.0,*46
$GPGSA,A,3,26,28,29,32,,,,,,,,,4.8,2.5,4.1,1*25
$GPGSV,1,1,04,26,68,239,39,28,47,010,42,29,22,080,42,32,61,089,46,1*66
$GPRMC,024237.29,A,2218.2760922,N,11410.7791384,E,7.08,68.08,271224,0.0,E,A*06
$GPGGA,024237.29,2218.2760922,N,11410.7791384,E,1,04,1.0,31.206,M,0.000,M,0.0,*4B
$GPGSA,A,3,26,28,29,32,,,,,,,,,4.8,2.5,4.1,1*25
$GPGSV,1,1,04,26,68,239,39,28,47,010,42,29,22,080,42,32,61,089,46,1*66
$GPRMC,024237.39,A,2218.2753881,N,11410.7863106,E,1.80,68.08,271224,0.0,E,A*03
$GPGGA,024237.39,2218.2753881,N,11410.7863106,E,1,04,1.0,46.272,M,0.000,M,0.0,*4B
$GPGSA,A,3,26,28,29,32,,,,,,,,,4.8,2.5,4.1,1*25
$GPGSV,1,1,04,26,68,239,39,28,47,010,42,29,22,080,42,32,61,089,46,1*66
$GPRMC,024237.49,A,2218.2781577,N,11410.7853172,E,0.92,68.08,271224,0.0,E,A*0D
$GPGGA,024237.49,2218.2781577,N,11410.7853172,E,1,04,1.0,39.937,M,0.000,M,0.0,*45
$GPGSA,A,3,26,28,29,32,,,,,,,,,4.8,2.5,4.1,1*25
$GPGSV,1,1,04,26,68,239,39,28,47,010,42,29,22,080,42,32,61,089,46,1*66
$GPRMC,024237.59,A,2218.2767720,N,11410.7839352,E,3.03,8.92,271224,0.0,E,A*36
$GPGGA,024237.59,2218.2767720,N,11410.7839352,E,1,04,1.0,34.130,M,0.000,M,0.0,*42
$GPGSA,A,3,26,28,29,32,,,,,,,,,4.8,2.5,4.1,1*25
$GPGSV,1,1,04,26,68,239,39,28,47,010,42,29,22,080,42,32,61,089,45,1*65
$GPRMC,024237.69,A,2218.2781298,N,11410.7849628,E,8.06,217.67,271224,0.0,E,A*3C
$GPGGA,024237.69,2218.2781298,N,11410.7849628,E,1,04,1.0,44.952,M,0.000,M,0.0,*4B
$GPGSA,A,3,26,28,29,32,,,,,,,,,4.8,2.5,4.1,1*25
$GPGSV,1,1,04,26,68,239,39,28,47,010,42,29,22,080,42,32,61,089,45,1*65
$GPRMC,024237.79,A,2218.2764488,N,11410.7787987,E,2.26,147.63,271224,0.0,E,A*3C
$GPGGA,024237.79,2218.2764488,N,11410.7787987,E,1,04,1.0,34.644,M,0.000,M,0.0,*4E
$GPGSA,A,3,26,28,29,32,,,,,,,,,4.8,2.5,4.1,1*25
$GPGSV,1,1,04,26,68,239,39,28,47,010,42,29,22,080,41,32,61,089,45,1*66
$GPRMC,024237.89,A,2218.2712295,N,11410.7756274,E,5.31,141.27,271224,0.0,E,A*34
$GPGGA,024237.89,2218.2712295,N,11410.7756274,E,1,04,1.0,19.117,M,0.000,M,0.0,*4F
$GPGSA,A,3,26,28,29,32,,,,,,,,,4.8,2.5,4.1,1*25
$GPGSV,1,1,04,26,68,239,39,28,47,010,42,29,22,080,41,32,61,089,45,1*66
$GPRMC,024237.99,A,2218.2739700,N,11410.7793681,E,8.19,65.39,271224,0.0,E,A*0D
$GPGGA,024237.99,2218.2739700,N,11410.7793681,E,1,04,1.0,10.941,M,0.000,M,0.0,*4B
$GPGSA,A,3,26,28,29,32,,,,,,,,,4.8,2.5,4.1,1*25
$GPGSV,1,1,04,26,68,239,39,28,47,010,42,29,22,080,41,32,61,089,45,1*66
$GPRMC,024238.09,A,2218.2735560,N,11410.7789940,E,4.32,239.82,271224,0.0,E,A*34
$GPGGA,024238.09,2218.2735560,N,11410.7789940,E,1,04,1.0,16.625,M,0.000,M,0.0,*47
$GPGSA,A,3,26,28,29,32,,,,,,,,,4.8,2.5,4.1,1*25
$GPGSV,1,1,04,26,68,239,39,28,47,010,42,29,22,080,41,32,61,089,45,1*66
$GPRMC,024238.19,A,2218.2713591,N,11410.7814326,E,1.58,239.82,271224,0.0,E,A*37
$GPGGA,024238.19,2218.2713591,N,11410.7814326,E,1,04,1.0,20.850,M,0.000,M,0.0,*44
$GPGSA,A,3,26,28,29,32,,,,,,,,,4.8,2.5,4.1,1*25
$GPGSV,1,1,04,26,68,239,39,28,47,010,42,29,22,080,41,32,61,089,45,1*66
$GPRMC,024238.29,A,2218.2705508,N,11410.7798461,E,10.28,40.66,271224,0.0,E,A*3D
$GPGGA,024238.29,2218.2705508,N,11410.7798461,E,1,04,1.0,18.277,M,0.000,M,0.0,*4B
$GPGSA,A,3,26,28,29,32,,,,,,,,,4.8,2.5,4.1,1*25
$GPGSV,1,1,04,26,68,239,39,28,47,010,42,29,22,080,41,32,61,089,45,1*66
$GPRMC,024238.39,A,2218.2723969,N,11410.7819777,E,3.01,68.35,271224,0.0,E,A*04
$GPGGA,024238.39,2218.2723969,N,11410.7819777,E,1,04,1.0,17.154,M,0.000,M,0.0,*4A
$GPGSA,A,3,26,28,29,32,,,,,,,,,4.8,2.5,4.1,1*25
$GPGSV,1,1,04,26,68,239,39,28,47,010,42,29,22,080,41,32,61,089,45,1*66
$GPRMC,024238.49,A,2218.2718820,N,11410.7784680,E,3.53,38.59,271224,0.0,E,A*0D
$GPGGA,024238.49,2218.2718820,N,11410.7784680,E,1,04,1.0,23.077,M,0.000,M,0.0,*4C
$GPGSA,A,3,26,28,29,32,,,,,,,,,4.8,2.5,4.1,1*25
$GPGSV,1,1,04,26,68,239,39,28,47,010,42,29,22,080,41,32,61,089,45,1*66
$GPRMC,024238.59,A,2218.2723793,N,11410.7777172,E,1.75,38.59,271224,0.0,E,A*03
$GPGGA,024238.59,2218.2723793,N,11410.7777172,E,1,04,1.0,19.187,M,0.000,M,0.0,*43
$GPGSA,A,3,26,28,29,32,,,,,,,,,4.8,2.5,4.1,1*25
$GPGSV,1,1,04,26,68,239,39,28,47,010,42,29,22,080,41,32,61,089,46,1*65
$GPRMC,024238.69,A,2218.2720431,N,11410.7768442,E,7.25,80.75,271224,0.0,E,A*0E
$GPGGA,024238.69,2218.2720431,N,11410.7768442,E,1,04,1.0,15.256,M,0.000,M,0.0,*43
$GPGSA,A,3,26,28,29,32,,,,,,,,,4.8,2.5,4.1,1*25
$GPGSV,1,1,04,26,68,239,39,28,47,010,42,29,22,080,41,32,61,089,45,1*66
$GPRMC,024238.79,A,2218.2742062,N,11410.7844129,E,4.16,63.95,271224,0.0,E,A*00
$GPGGA,024238.79,2218.2742062,N,11410.7844129,E,1,04,1.0,36.094,M,0.000,M,0.0,*40
$GPGSA,A,3,26,28,29,32,,,,,,,,,4.8,2.5,4.1,1*25
$GPGSV,1,1,04,26,68,239,39,28,47,010,41,29,22,080,41,32,61,089,45,1*65
$GPRMC,024238.89,A,2218.2720421,N,11410.7831658,E,4.05,355.30,271224,0.0,E,A*30
$GPGGA,024238.89,2218.2720421,N,11410.7831658,E,1,04,1.0,27.911,M,0.000,M,0.0,*4F
$GPGSA,A,3,26,28,29,32,,,,,,,,,4.8,2.5,4.1,1*25
$GPGSV,1,1,04,26,68,239,39,28,47,010,41,29,22,080,41,32,61,089,45,1*65
$GPRMC,024238.99,A,2218.2681276,N,11410.7802020,E,3.02,65.09,271224,0.0,E,A*0C
$GPGGA,024238.99,2218.2681276,N,11410.7802020,E,1,04,1.0,11.188,M,0.000,M,0.0,*44
$GPGSA,A,3,26,28,29,32,,,,,,,,,4.8,2.5,4.1,1*25
$GPGSV,1,1,04,26,68,239,39,28,47,010,41,29,22,080,41,32,61,089,46,1*66
$GPRMC,024239.09,A,2218.2739887,N,11410.7808240,E,4.58,0.62,271224,0.0,E,A*3A
$GPGGA,024239.09,2218.2739887,N,11410.7808240,E,1,04,1.0,22.547,M,0.000,M,0.0,*43
$GPGSA,A,3,26,28,29,32,,,,,,,,,4.8,2.5,4.1,1*25
$GPGSV,1,1,04,26,68,239,39,28,47,010,41,29,22,080,41,32,61,089,45,1*65
$GPRMC,024239.19,A,2218.2749060,N,11410.7790677,E,2.66,40.62,271224,0.0,E,A*0C
$GPGGA,024239.19,2218.2749060,N,11410.7790677,E,1,04,1.0,26.581,M,0.000,M,0.0,*44
$GPGSA,A,3,26,28,29,32,,,,,,,,,4.8,2.5,4.1,1*25
$GPGSV,1,1,04,26,68,239,39,28,47,010,41,29,22,080,41,32,61,089,45,1*65
$GPRMC,024239.29,A,2218.2743130,N,11410.7811957,E,8.83,61.78,271224,0.0,E,A*03
$GPGGA,024239.29,2218.2743130,N,11410.7811957,E,1,04,1.0,24.602,M,0.000,M,0.0,*48
$GPGSA,A,3,26,28,29,32,,,,,,,,,4.8,2.5,4.1,1*25
$GPGSV,1,1,04,26,68,239,39,28,47,010,41,29,22,080,41,32,61,089,45,1*65
$GPRMC,024239.39,A,2218.2755673,N,11410.7826452,E,7.26,35.33,271224,0.0,E,A*07
$GPGGA,024239.39,2218.2755673,N,11410.7826452,E,1,04,1.0,24.237,M,0.000,M,0.0,*40
$GPGSA,A,3,26,28,29,32,,,,,,,,,4.8,2.5,4.1,1*25
$GPGSV,1,1,04,26,68,239,39,28,47,010,41,29,22,080,40,32,61,089,46,1*67
$GPRMC,024239.49,A,2218.2714827,N,11410.7807081,E,6.45,36.95,271224,0.0,E,A*08
$GPGGA,024239.49,2218.2714827,N,11410.7807081,E,1,04,1.0,16.617,M,0.000,M,0.0,*43
$GPGSA,A,3,26,28,29,32,,,,,,,,,4.8,2.5,4.1,1*25
$GPGSV,1,1,04,26,68,239,39,28,47,010,41,29,22,080,41,32,61,089,46,1*66
$GPRMC,024239.59,A,2218.2704284,N,11410.7783097,E,4.84,19.37,271224,0.0,E,A*05
$GPGGA,024239.59,2218.2704284,N,11410.7783097,E,1,04,1.0,2.562,M,0.000,M,0.0,*70
$GPGSA,A,3,26,28,29,32,,,,,,,,,4.8,2.5,4.1,1*25
$GPGSV,1,1,04,26,68,239,39,28,47,010,41,29,22,080,41,32,61,089,45,1*65
$GPRMC,024239.69,A,2218.2715361,N,11410.7775562,E,2.74,138.38,271224,0.0,E,A*3E
$GPGGA,024239.69,2218.2715361,N,11410.7775562,E,1,04,1.0,9.425,M,0.000,M,0.0,*76
$GPGSA,A,3,26,28,29,32,,,,,,,,,4.8,2.5,4.1,1*25
$GPGSV,1,1,04,26,68,239,39,28,47,010,41,29,22,080,41,32,61,089,45,1*65
$GPRMC,024239.79,A,2218.2779918,N,11410.7801291,E,2.86,301.64,271224,0.0,E,A*3A
$GPGGA,024239.79,2218.2779918,N,11410.7801291,E,1,04,1.0,32.323,M,0.000,M,0.0,*47
$GPGSA,A,3,26,28,29,32,,,,,,,,,4.8,2.5,4.1,1*25
$GPGSV,1,1,04,26,68,239,40,28,47,010,41,29,22,080,41,32,61,089,45,1*6B
$GPRMC,024239.89,A,2218.2777952,N,11410.7848108,E,7.58,31.31,271224,0.0,E,A*0D
$GPGGA,024239.89,2218.2777952,N,11410.7848108,E,1,04,1.0,36.915,M,0.000,M,0.0,*4D
$GPGSA,A,3,26,28,29,32,,,,,,,,,4.8,2.5,4.1,1*25
$GPGSV,1,1,04,26,68,239,39,28,47,010,41,29,22,080,40,32,61,089,45,1*64
$GPRMC,024239.99,A,2218.2755408,N,11410.7826759,E,7.35,126.39,271224,0.0,E,A*30
$GPGGA,024239.99,2218.2755408,N,11410.7826759,E,1,04,1.0,30.338,M,0.000,M,0.0,*47
$GPGSA,A,3,26,28,29,32,,,,,,,,,4.8,2.5,4.1,1*25
$GPGSV,1,1,04,26,68,239,39,28,47,010,41,29,22,080,40,32,61,089,45,1*64
$GPRMC,024240.09,A,2218.2748320,N,11410.7810747,E,12.20,48.27,271224,0.0,E,A*3A
$GPGGA,024240.09,2218.2748320,N,11410.7810747,E,1,04,1.0,25.060,M,0.000,M,0.0,*41
$GPGSA,A,3,26,28,29,32,,,,,,,,,4.8,2.5,4.1,1*25
$GPGSV,1,1,04,26,68,239,39,28,47,010,42,29,22,080,40,32,61,089,45,1*67
$GPRMC,024240.19,A,2218.2737898,N,11410.7836187,E,5.53,258.22,271224,0.0,E,A*31
$GPGGA,024240.19,2218.2737898,N,11410.7836187,E,1,04,1.0,18.781,M,0.000,M,0.0,*48
$GPGSA,A,3,26,28,29,32,,,,,,,,,4.8,2.5,4.1,1*25
$GPGSV,1,1,04,26,68,239,39,28,47,010,42,29,22,080,40,32,60,089,45,1*66
$GPRMC,024240.29,A,2218.2748314,N,11410.7821100,E,1.06,258.22,271224,0.0,E,A*38
$GPGGA,024240.29,2218.2748314,N,11410.7821100,E,1,04,1.0,22.814,M,0.000,M,0.0,*4F
$GPGSA,A,3,26,28,29,32,,,,,,,,,4.8,2.5,4.1,1*25
$GPGSV,1,1,04,26,68,239,39,28,47,010,41,29,22,080,41,32,60,089,45,1*64
$GPRMC,024240.39,A,2218.2746590,N,11410.7822099,E,5.08,107.30,271224,0.0,E,A*3F
$GPGGA,024240.39,2218.2746590,N,11410.7822099,E,1,04,1.0,28.278,M,0.000,M,0.0,*42
$GPGSA,A,3,26,28,29,32,,,,,,,,,4.8,2.5,4.1,1*25
$GPGSV,1,1,04,26,68,239,39,28,47,010,42,29,22,080,41,32,60,089,45,1*67
$GPRMC,024240.49,A,2218.2793935,N,11410.7828937,E,7.31,244.43,271224,0.0,E,A*3C
$GPGGA,024240.49,2218.2793935,N,11410.7828937,E,1,04,1.0,35.596,M,0.000,M,0.0,*42
$GPGSA,A,3,26,28,29,32,,,,,,,,,4.8,2.5,4.1,1*25
$GPGSV,1,1,04,26,68,239,40,28,47,010,42,29,22,080,41,32,60,089,45,1*69
$GPRMC,024240.59,A,2218.2752583,N,11410.7802245,E,5.18,115.53,271224,0.0,E,A*38
$GPGGA,024240.59,2218.2752583,N,11410.7802245,E,1,04,1.0,25.579,M,0.000,M,0.0,*49
$GPGSA,A,3,26,28,29,32,,,,,,,,,4.8,2.5,4.1,1*25
$GPGSV,1,1,04,26,68,239,40,28,47,010,42,29,22,080,41,32,60,089,45,1*69
$GPRMC,024240.69,A,2218.2760221,N,11410.7843290,E,3.63,194.62,271224,0.0,E,A*39
$GPGGA,024240.69,2218.2760221,N,11410.7843290,E,1,04,1.0,36.470,M,0.000,M,0.0,*43
$GPGSA,A,3,26,28,29,32,,,,,,,,,4.8,2.5,4.1,1*25
$GPGSV,1,1,04,26,68,239,40,28,47,010,42,29,22,080,41,32,60,089,45,1*69
$GPRMC,024240.79,A,2218.2762573,N,11410.7863000,E,4.69,82.53,271224,0.0,E,A*0A
$GPGGA,024240.79,2218.2762573,N,11410.7863000,E,1,04,1.0,32.787,M,0.000,M,0.0,*46
$GPGSA,A,3,26,28,29,32,,,,,,,,,4.8,2.5,4.1,1*25
$GPGSV,1,1,04,26,68,239,40,28,47,010,42,29,22,080,41,32,60,089,45,1*69
$GPRMC,024240.89,A,2218.2761525,N,11410.7821279,E,4.89,213.10,271224,0.0,E,A*3C
$GPGGA,024240.89,2218.2761525,N,11410.7821279,E,1,04,1.0,29.263,M,0.000,M,0.0,*46
$GPGSA,A,3,26,28,29,32,,,,,,,,,4.8,2.5,4.1,1*25
$GPGSV,1,1,04,26,68,239,40,28,47,010,42,29,22,080,41,32,60,089,45,1*69
$GPRMC,024240.99,A,2218.2742300,N,11410.7807485,E,8.93,88.38,271224,0.0,E,A*01
$GPGGA,024240.99,2218.2742300,N,11410.7807485,E,1,04,1.0,23.936,M,0.000,M,0.0,*47
$GPGSA,A,3,26,28,29,32,,,,,,,,,4.8,2.5,4.1,1*25
$GPGSV,1,1,04,26,68,239,40,28,47,010,42,29,22,080,41,32,60,089,45,1*69
$GPRMC,024241.09,A,2218.2746711,N,11410.7829910,E,4.51,220.64,271224,0.0,E,A*3F
$GPGGA,024241.09,2218.2746711,N,11410.7829910,E,1,04,1.0,26.889,M,0.000,M,0.0,*42
$GPGSA,A,3,26,28,29,32,,,,,,,,,4.8,2.5,4.1,1*25
$GPGSV,1,1,04,26,68,239,40,28,47,010,42,29,22,080,41,32,60,089,45,1*69
$GPRMC,024241.19,A,2218.2716526,N,11410.7863083,E,1.39,220.64,271224,0.0,E,A*3B
$GPGGA,024241.19,2218.2716526,N,11410.7863083,E,1,04,1.0,28.848,M,0.000,M,0.0,*4E
$GPGSA,A,3,26,28,29,32,,,,,,,,,4.8,2.5,4.1,1*25
$GPGSV,1,1,04,26,68,239,40,28,47,010,41,29,22,080,41,32,60,089,45,1*6A
$GPRMC,024241.29,A,2218.2714813,N,11410.7844845,E,6.18,234.04,271224,0.0,E,A*31
$GPGGA,024241.29,2218.2714813,N,11410.7844845,E,1,04,1.0,21.786,M,0.000,M,0.0,*47
$GPGSA,A,3,26,28,29,32,,,,,,,,,4.8,2.5,4.1,1*25
$GPGSV,1,1,04,26,68,239,40,28,47,010,41,29,22,080,41,32,60,089,45,1*6A
$GPRMC,024241.39,A,2218.2741585,N,11410.7830928,E,9.66,34.99,271224,0.0,E,A*0B
$GPGGA,024241.39,2218.2741585,N,11410.7830928,E,1,04,1.0,16.480,M,0.000,M,0.0,*4C
$GPGSA,A,3,26,28,29,32,,,,,,,,,4.8,2.5,4.1,1*25
$GPGSV,1,1,04,26,68,239,40,28,47,010,42,29,22,080,41,32,60,089,44,1*68
$GPRMC,024241.49,A,2218.2755248,N,11410.7827326,E,1.45,34.99,271224,0.0,E,A*04
$GPGGA,024241.49,2218.2755248,N,11410.7827326,E,1,04,1.0,13.545,M,0.000,M,0.0,*47
$GPGSA,A,3,26,28,29,32,,,,,,,,,4.8,2.5,4.1,1*25
$GPGSV,1,1,04,26,68,239,40,28,47,010,42,29,22,080,41,32,60,089,44,1*68
$GPRMC,024241.59,A,2218.2748450,N,11410.7835386,E,2.94,40.00,271224,0.0,E,A*03
$GPGGA,024241.59,2218.2748450,N,11410.7835386,E,1,04,1.0,23.455,M,0.000,M,0.0,*4F
$GPGSA,A,3,26,28,29,32,,,,,,,,,4.8,2.5,4.1,1*25
$GPGSV,1,1,04,26,68,239,40,28,47,010,41,29,22,080,41,32,60,089,44,1*6B
$GPRMC,024241.69,A,2218.2749463,N,11410.7883129,E,5.65,94.56,271224,0.0,E,A*08
$GPGGA,024241.69,2218.2749463,N,11410.7883129,E,1,04,1.0,41.208,M,0.000,M,0.0,*4D
$GPGSA,A,3,26,28,29,32,,,,,,,,,4.8,2.5,4.1,1*25
$GPGSV,1,1,04,26,68,239,40,28,47,010,41,29,22,080,41,32,60,089,44,1*6B
$GPRMC,024241.79,A,2218.2755088,N,11410.7917574,E,5.77,19.23,271224,0.0,E,A*01
$GPGGA,024241.79,2218.2755088,N,11410.7917574,E,1,04,1.0,47.924,M,0.000,M,0.0,*43
$GPGSA,A,3,26,28,29,32,,,,,,,,,4.8,2.5,4.1,1*25
$GPGSV,1,1,04,26,68,239,40,28,47,010,41,29,22,080,41,32,60,089,44,1*6B
$GPRMC,024241.89,A,2218.2729634,N,11410.7891211,E,3.48,97.05,271224,0.0,E,A*07
$GPGGA,024241.89,2218.2729634,N,11410.7891211,E,1,04,1.0,40.191,M,0.000,M,0.0,*4C
$GPGSA,A,3,26,28,29,32,,,,,,,,,4.8,2.5,4.1,1*25
$GPGSV,1,1,04,26,68,239,40,28,47,010,41,29,22,080,41,32,60,089,44,1*6B
$GPRMC,024241.99,A,2218.2747127,N,11410.7905027,E,4.66,15.26,271224,0.0,E,A*00
$GPGGA,024241.99,2218.2747127,N,11410.7905027,E,1,04,1.0,51.646,M,0.000,M,0.0,*46
$GPGSA,A,3,26,28,29,32,,,,,,,,,4.8,2.5,4.1,1*25
$GPGSV,1,1,04,26,68,239,40,28,47,010,41,29,22,080,41,32,60,089,44,1*6B
$GPRMC,024242.09,A,2218.2760747,N,11410.7879482,E,0.54,15.26,271224,0.0,E,A*0B
$GPGGA,024242.09,2218.2760747,N,11410.7879482,E,1,04,1.0,45.660,M,0.000,M,0.0,*49
$GPGSA,A,3,26,28,29,32,,,,,,,,,4.8,2.5,4.1,1*25
$GPGSV,1,1,04,26,68,239,40,28,47,010,41,29,22,080,41,32,60,089,44,1*6B
$GPRMC,024242.19,A,2218.2719958,N,11410.7863931,E,4.26,159.68,271224,0.0,E,A*38
$GPGGA,024242.19,2218.2719958,N,11410.7863931,E,1,04,1.0,30.226,M,0.000,M,0.0,*4C
$GPGSA,A,3,26,28,29,32,,,,,,,,,4.8,2.5,4.1,1*25
$GPGSV,1,1,04,26,68,239,40,28,47,010,41,29,22,080,41,32,60,089,44,1*6B
$GPRMC,024242.29,A,2218.2732095,N,11410.7866982,E,3.99,161.63,271224,0.0,E,A*34
$GPGGA,024242.29,2218.2732095,N,11410.7866982,E,1,04,1.0,35.809,M,0.000,M,0.0,*41
$GPGSA,A,3,26,28,29,32,,,,,,,,,4.8,2.5,4.1,1*25
$GPGSV,1,1,04,26,68,239,40,28,47,010,41,29,22,080,41,32,60,089,44,1*6B
$GPRMC,024242.39,A,2218.2746940,N,11410.7872042,E,5.48,25.95,271224,0.0,E,A*05
$GPGGA,024242.39,2218.2746940,N,11410.7872042,E,1,04,1.0,37.805,M,0.000,M,0.0,*4C
$GPGSA,A,3,26,28,29,32,,,,,,,,,4.8,2.5,4.1,1*25
$GPGSV,1,1,04,26,68,239,40,28,47,010,41,29,22,080,41,32,60,089,44,1*6B
$GPRMC,024242.49,A,2218.2727894,N,11410.7855863,E,7.01,272.95,271224,0.0,E,A*3C
$GPGGA,024242.49,2218.2727894,N,11410.7855863,E,1,04,1.0,29.433,M,0.000,M,0.0,*4C
$GPGSA,A,3,26,28,29,32,,,,,,,,,4.8,2.5,4.1,1*25
$GPGSV,1,1,04,26,68,239,40,28,47,010,41,29,22,080,41,32,60,089,44,1*6B
$GPRMC,024242.59,A,2218.2712112,N,11410.7869583,E,2.19,262.28,271224,0.0,E,A*3B
$GPGGA,024242.59,2218.2712112,N,11410.7869583,E,1,04,1.0,24.050,M,0.000,M,0.0,*4C
$GPGSA,A,3,26,28,29,32,,,,,,,,,4.8,2.5,4.1,1*25
$GPGSV,1,1,04,26,68,239,40,28,47,010,41,29,22,080,41,32,60,089,44,1*6B
$GPRMC,024242.69,A,2218.2697116,N,11410.7840693,E,5.72,44.92,271224,0.0,E,A*04
$GPGGA,024242.69,2218.2697116,N,11410.7840693,E,1,04,1.0,15.250,M,0.000,M,0.0,*4E
$GPGSA,A,3,26,28,29,32,,,,,,,,,4.8,2.5,4.1,1*25
$GPGSV,1,1,04,26,68,239,40,28,47,010,41,29,22,080,41,32,60,089,44,1*6B
$GPRMC,024242.79,A,2218.2711219,N,11410.7814097,E,4.82,166.15,271224,0.0,E,A*35
$GPGGA,024242.79,2218.2711219,N,11410.7814097,E,1,04,1.0,21.855,M,0.000,M,0.0,*47
$GPGSA,A,3,26,28,29,32,,,,,,,,,4.8,2.5,4.1,1*25
$GPGSV,1,1,04,26,68,239,40,28,47,010,41,29,22,080,41,32,60,089,44,1*6B
$GPRMC,024242.89,A,2218.2708476,N,11410.7837645,E,4.29,216.60,271224,0.0,E,A*32
$GPGGA,024242.89,2218.2708476,N,11410.7837645,E,1,04,1.0,10.328,M,0.000,M,0.0,*44
$GPGSA,A,3,26,28,29,32,,,,,,,,,4.8,2.5,4.1,1*25
$GPGSV,1,1,04,26,68,239,40,28,47,010,41,29,22,080,41,32,60,089,44,1*6B
$GPRMC,024242.99,A,2218.2743979,N,11410.7868408,E,4.69,65.67,271224,0.0,E,A*0A
$GPGGA,024242.99,2218.2743979,N,11410.7868408,E,1,04,1.0,23.590,M,0.000,M,0.0,*4C
$GPGSA,A,3,26,28,29,32,,,,,,,,,4.8,2.5,4.1,1*25
$GPGSV,1,1,04,26,68,239,40,28,47,010,41,29,22,080,41,32,60,089,44,1*6B
$GPRMC,024243.09,A,2218.2751290,N,11410.7847246,E,6.07,251.87,271224,0.0,E,A*3D
$GPGGA,024243.09,2218.2751290,N,11410.7847246,E,1,04,1.0,23.752,M,0.000,M,0.0,*46
$GPGSA,A,3,26,28,29,32,,,,,,,,,4.8,2.5,4.1,1*25
$GPGSV,1,1,04,26,68,239,40,28,47,010,41,29,22,080,40,32,60,089,44,1*6A
$GPRMC,024243.19,A,2218.2752522,N,11410.7817163,E,4.91,321.39,271224,0.0,E,A*3E
$GPGGA,024243.19,2218.2752522,N,11410.7817163,E,1,04,1.0,17.691,M,0.000,M,0.0,*42
$GPGSA,A,3,26,28,29,32,,,,,,,,,4.8,2.5,4.1,1*25
$GPGSV,1,1,04,26,68,239,40,28,47,010,41,29,22,080,41,32,60,089,45,1*6A
$GPRMC,024243.29,A,2218.2783784,N,11410.7816788,E,8.41,75.33,271224,0.0,E,A*04
$GPGGA,024243.29,2218.2783784,N,11410.7816788,E,1,04,1.0,24.991,M,0.000,M,0.0,*4E
$GPGSA,A,3,26,28,29,32,,,,,,,,,4.8,2.5,4.1,1*25
$GPGSV,1,1,04,26,68,239,40,28,47,010,41,29,22,080,40,32,60,089,44,1*6A
$GPRMC,024243.39,A,2218.2759715,N,11410.7865641,E,2.91,277.55,271224,0.0,E,A*3D
$GPGGA,024243.39,2218.2759715,N,11410.7865641,E,1,04,1.0,19.702,M,0.000,M,0.0,*4A
$GPGSA,A,3,26,28,29,32,,,,,,,,,4.8,2.5,4.1,1*25
$GPGSV,1,1,04,26,68,239,40,28,47,010,41,29,22,080,40,32,60,089,44,1*6A
$GPRMC,024243.49,A,2218.2722172,N,11410.7830187,E,6.80,284.36,271224,0.0,E,A*31
$GPGGA,024243.49,2218.2722172,N,11410.7830187,E,1,04,1.0,9.261,M,0.000,M,0.0,*7A
$GPGSA,A,3,26,28,29,32,,,,,,,,,4.8,2.5,4.1,1*25
$GPGSV,1,1,04,26,68,239,40,28,47,010,41,29,22,080,41,32,60,089,44,1*6B
$GPRMC,024243.59,A,2218.2747003,N,11410.7864891,E,2.87,44.87,271224,0.0,E,A*0C
$GPGGA,024243.59,2218.2747003,N,11410.7864891,E,1,04,1.0,24.754,M,0.000,M,0.0,*4C
$GPGSA,A,3,26,28,29,32,,,,,,,,,4.8,2.5,4.1,1*25
$GPGSV,1,1,04,26,68,239,40,28,47,010,41,29,22,080,41,32,60,089,44,1*6B
$GPRMC,024243.69,A,2218.2703072,N,11410.7844829,E,3.21,65.02,271224,0.0,E,A*0B
$GPGGA,024243.69,2218.2703072,N,11410.7844829,E,1,04,1.0,16.616,M,0.000,M,0.0,*4E
$GPGSA,A,3,26,28,29,32,,,,,,,,,4.8,2.5,4.1,1*25
$GPGSV,1,1,04,26,68,239,40,28,47,010,40,29,22,080,41,32,60,089,44,1*6A
$GPRMC,024243.79,A,2218.2689551,N,11410.7804536,E,2.20,46.49,271224,0.0,E,A*04
$GPGGA,024243.79,2218.2689551,N,11410.7804536,E,1,04,1.0,4.293,M,0.000,M,0.0,*75
$GPGSA,A,3,26,28,29,32,,,,,,,,,4.8,2.5,4.1,1*25
$GPGSV,1,1,04,26,68,239,40,28,47,010,41,29,22,080,41,32,60,089,44,1*6B
$GPRMC,024243.89,A,2218.2687654,N,11410.7796518,E,3.79,273.76,271224,0.0,E,A*3E
$GPGGA,024243.89,2218.2687654,N,11410.7796518,E,1,04,1.0,-2.267,M,0.000,M,0.0,*5A
$GPGSA,A,3,26,28,29,32,,,,,,,,,4.8,2.5,4.1,1*25
$GPGSV,1,1,04,26,68,239,40,28,47,010,41,29,22,080,41,32,60,089,45,1*6A
$GPRMC,024243.99,A,2218.2757032,N,11410.7848425,E,5.01,32.96,271224,0.0,E,A*06
$GPGGA,024243.99,2218.2757032,N,11410.7848425,E,1,04,1.0,10.616,M,0.000,M,0.0,*4E
$GPGSA,A,3,26,28,29,32,,,,,,,,,4.8,2.5,4.1,1*25
$GPGSV,1,1,04,26,68,239,40,28,47,010,41,29,22,080,41,32,60,089,45,1*6A
$GPRMC,024244.09,A,2218.2742639,N,11410.7867128,E,9.38,255.42,271224,0.0,E,A*38
$GPGGA,024244.09,2218.2742639,N,11410.7867128,E,1,04,1.0,17.525,M,0.000,M,0.0,*48
$GPGSA,A,3,26,28,29,32,,,,,,,,,4.8,2.5,4.1,1*25
$GPGSV,1,1,04,26,68,239,40,28,47,010,41,29,22,080,41,32,60,089,45,1*6A
$GPRMC,024244.19,A,2218.2723275,N,11410.7834871,E,2.64,289.39,271224,0.0,E,A*3E
$GPGGA,024244.19,2218.2723275,N,11410.7834871,E,1,04,1.0,-1.746,M,0.000,M,0.0,*5C
$GPGSA,A,3,26,28,29,32,,,,,,,,,4.8,2.5,4.1,1*25
$GPGSV,1,1,04,26,68,239,40,28,47,010,41,29,22,080,41,32,60,089,45,1*6A
$GPRMC,024244.29,A,2218.2656706,N,11410.7804596,E,5.55,120.60,271224,0.0,E,A*31
$GPGGA,024244.29,2218.2656706,N,11410.7804596,E,1,04,1.0,-11.982,M,0.000,M,0.0,*6D
$GPGSA,A,3,26,28,29,32,,,,,,,,,4.8,2.5,4.1,1*25
$GPGSV,1,1,04,26,68,239,40,28,47,010,41,29,22,080,41,32,60,089,45,1*6A
$GPRMC,024244.39,A,2218.2681297,N,11410.7858272,E,2.58,24.75,271224,0.0,E,A*08
$GPGGA,024244.39,2218.2681297,N,11410.7858272,E,1,04,1.0,14.640,M,0.000,M,0.0,*46
$GPGSA,A,3,26,28,29,32,,,,,,,,,4.8,2.5,4.1,1*25
$GPGSV,1,1,04,26,68,239,40,28,47,010,41,29,22,080,40,32,60,089,45,1*6B
$GPRMC,024244.49,A,2218.2713356,N,11410.7890017,E,4.42,203.66,271224,0.0,E,A*34
$GPGGA,024244.49,2218.2713356,N,11410.7890017,E,1,04,1.0,28.643,M,0.000,M,0.0,*4E
$GPGSA,A,3,26,28,29,32,,,,,,,,,4.8,2.5,4.1,1*25
$GPGSV,1,1,04,26,68,239,40,28,47,010,41,29,22,080,40,32,60,089,45,1*6B
$GPRMC,024244.59,A,2218.2698544,N,11410.7865409,E,1.84,203.66,271224,0.0,E,A*3C
$GPGGA,024244.59,2218.2698544,N,11410.7865409,E,1,04,1.0,11.896,M,0.000,M,0.0,*45
$GPGSA,A,3,26,28,29,32,,,,,,,,,4.8,2.5,4.1,1*25
$GPGSV,1,1,04,26,68,239,40,28,47,010,41,29,22,080,40,32,60,089,45,1*6B
$GPRMC,024244.69,A,2218.2733576,N,11410.7867234,E,1.59,203.66,271224,0.0,E,A*34
$GPGGA,024244.69,2218.2733576,N,11410.7867234,E,1,04,1.0,8.783,M,0.000,M,0.0,*7E
$GPGSA,A,3,26,28,29,32,,,,,,,,,4.8,2.5,4.1,1*25
$GPGSV,1,1,04,26,68,239,40,28,47,010,41,29,22,080,40,32,60,089,45,1*6B
$GPRMC,024244.79,A,2218.2749275,N,11410.7859866,E,9.59,231.19,271224,0.0,E,A*3D
$GPGGA,024244.79,2218.2749275,N,11410.7859866,E,1,04,1.0,8.696,M,0.000,M,0.0,*73
$GPGSA,A,3,26,28,29,32,,,,,,,,,4.8,2.5,4.1,1*25
$GPGSV,1,1,04,26,68,239,40,28,47,010,41,29,22,080,40,32,60,089,45,1*6B
$GPRMC,024244.89,A,2218.2732374,N,11410.7838482,E,2.81,294.70,271224,0.0,E,A*31
$GPGGA,024244.89,2218.2732374,N,11410.7838482,E,1,04,1.0,-0.137,M,0.000,M,0.0,*58
$GPGSA,A,3,26,28,29,32,,,,,,,,,4.8,2.5,4.1,1*25
$GPGSV,1,1,04,26,68,239,40,28,47,010,41,29,22,080,40,32,60,089,45,1*6B
$GPRMC,024244.99,A,2218.2710348,N,11410.7813351,E,10.70,272.59,271224,0.0,E,A*01
$GPGGA,024244.99,2218.2710348,N,11410.7813351,E,1,04,1.0,-3.718,M,0.000,M,0.0,*5E
$GPGSA,A,3,26,28,29,32,,,,,,,,,4.8,2.5,4.1,1*25
$GPGSV,1,1,04,26,68,239,40,28,47,010,41,29,22,080,40,32,60,089,45,1*6B
$GPRMC,024245.09,A,2218.2738172,N,11410.7839517,E,7.61,46.63,271224,0.0,E,A*0E
$GPGGA,024245.09,2218.2738172,N,11410.7839517,E,1,04,1.0,10.488,M,0.000,M,0.0,*4E
$GPGSA,A,3,26,28,29,32,,,,,,,,,4.8,2.5,4.1,1*25
$GPGSV,1,1,04,26,68,239,40,28,47,010,41,29,22,080,40,32,60,089,45,1*6B
$GPRMC,024245.19,A,2218.2698178,N,11410.7855687,E,1.75,46.63,271224,0.0,E,A*0D
$GPGGA,024245.19,2218.2698178,N,11410.7855687,E,1,04,1.0,-1.996,M,0.000,M,0.0,*51
$GPGSA,A,3,26,28,29,32,,,,,,,,,4.8,2.5,4.1,1*25
$GPGSV,1,1,04,26,68,239,40,28,47,010,41,29,22,080,40,32,60,089,45,1*6B
$GPRMC,024245.29,A,2218.2667229,N,11410.7827688,E,3.08,33.06,271224,0.0,E,A*0A
$GPGGA,024245.29,2218.2667229,N,11410.7827688,E,1,04,1.0,-9.245,M,0.000,M,0.0,*52
$GPGSA,A,3,26,28,29,32,,,,,,,,,4.8,2.5,4.1,1*25
$GPGSV,1,1,04,26,68,239,40,28,47,010,41,29,22,080,40,32,60,089,45,1*6B
$GPRMC,024245.39,A,2218.2698656,N,11410.7794461,E,6.99,36.93,271224,0.0,E,A*01
$GPGGA,024245.39,2218.2698656,N,11410.7794461,E,1,04,1.0,-7.900,M,0.000,M,0.0,*59
$GPGSA,A,3,26,28,29,32,,,,,,,,,4.8,2.5,4.1,1*25
$GPGSV,1,1,04,26,68,239,40,28,47,010,41,29,22,080,40,32,60,089,45,1*6B
$GPRMC,024245.49,A,2218.2664484,N,11410.7826515,E,4.54,172.14,271224,0.0,E,A*31
$GPGGA,024245.49,2218.2664484,N,11410.7826515,E,1,04,1.0,-9.345,M,0.000,M,0.0,*51
$GPGSA,A,3,26,28,29,32,,,,,,,,,4.8,2.5,4.1,1*25
$GPGSV,1,1,04,26,68,239,40,28,47,010,41,29,22,080,40,32,60,089,45,1*6B
$GPRMC,024245.59,A,2218.2685918,N,11410.7823204,E,6.03,73.29,271224,0.0,E,A*0B
$GPGGA,024245.59,2218.2685918,N,11410.7823204,E,1,04,1.0,2.433,M,0.000,M,0.0,*75
$GPGSA,A,3,26,28,29,32,,,,,,,,,4.8,2.5,4.1,1*25
$GPGSV,1,1,04,26,68,239,40,28,47,010,41,29,22,080,40,32,60,089,45,1*6B
$GPRMC,024245.69,A,2218.2694501,N,11410.7799904,E,3.74,352.21,271224,0.0,E,A*34
$GPGGA,024245.69,2218.2694501,N,11410.7799904,E,1,04,1.0,-14.781,M,0.000,M,0.0,*67
$GPGSA,A,3,26,28,29,32,,,,,,,,,4.8,2.5,4.1,1*25
$GPGSV,1,1,04,26,68,239,40,28,47,010,41,29,22,080,40,32,60,089,45,1*6B
$GPRMC,024245.79,A,2218.2699483,N,11410.7847380,E,11.19,29.79,271224,0.0,E,A*33
$GPGGA,024245.79,2218.2699483,N,11410.7847380,E,1,04,1.0,-4.529,M,0.000,M,0.0,*5B
$GPGSA,A,3,26,28,29,32,,,,,,,,,4.8,2.5,4.1,1*25
$GPGSV,1,1,04,26,68,239,40,28,47,010,41,29,22,080,40,32,60,089,45,1*6B
$GPRMC,024245.89,A,2218.2677762,N,11410.7817727,E,4.11,244.78,271224,0.0,E,A*38
$GPGGA,024245.89,2218.2677762,N,11410.7817727,E,1,04,1.0,-24.160,M,0.000,M,0.0,*6F
$GPGSA,A,3,26,28,29,32,,,,,,,,,4.8,2.5,4.1,1*25
$GPGSV,1,1,04,26,68,239,40,28,47,010,41,29,22,080,40,32,60,089,45,1*6B
$GPRMC,024245.99,A,2218.2704679,N,11410.7824585,E,3.53,277.37,271224,0.0,E,A*37
$GPGGA,024245.99,2218.2704679,N,11410.7824585,E,1,04,1.0,-10.337,M,0.000,M,0.0,*6D
$GPGSA,A,3,26,28,29,32,,,,,,,,,4.8,2.5,4.1,1*25
$GPGSV,1,1,04,26,68,239,40,28,47,010,41,29,22,080,40,32,60,089,45,1*6B
$GPRMC,024246.09,A,2218.2687181,N,11410.7809193,E,14.71,31.11,271224,0.0,E,A*39
$GPGGA,024246.09,2218.2687181,N,11410.7809193,E,1,04,1.0,-7.314,M,0.000,M,0.0,*56
$GPGSA,A,3,26,28,29,32,,,,,,,,,4.8,2.5,4.1,1*25
$GPGSV,1,1,04,26,68,239,40,28,47,010,41,29,22,080,40,32,60,089,45,1*6B
$GPRMC,024246.19,A,2218.2682318,N,11410.7802046,E,4.55,26.06,271224,0.0,E,A*0A
$GPGGA,024246.19,2218.2682318,N,11410.7802046,E,1,04,1.0,-10.824,M,0.000,M,0.0,*6C
$GPGSA,A,3,26,28,29,32,,,,,,,,,4.8,2.5,4.1,1*25
$GPGSV,1,1,04,26,68,239,40,28,47,010,41,29,22,080,40,32,60,089,45,1*6B
$GPRMC,024246.29,A,2218.2646122,N,11410.7780305,E,4.52,49.77,271224,0.0,E,A*03
$GPGGA,024246.29,2218.2646122,N,11410.7780305,E,1,04,1.0,-29.710,M,0.000,M,0.0,*6F
$GPGSA,A,3,26,28,29,32,,,,,,,,,4.8,2.5,4.1,1*25
$GPGSV,1,1,04,26,68,239,40,28,47,010,41,29,22,080,40,32,60,089,45,1*6B
$GPRMC,024246.39,A,2218.2679108,N,11410.7801789,E,7.14,189.43,271224,0.0,E,A*3B
$GPGGA,024246.39,2218.2679108,N,11410.7801789,E,1,04,1.0,-10.496,M,0.000,M,0.0,*6B
$GPGSA,A,3,26,28,29,32,,,,,,,,,4.8,2.5,4.1,1*25
$GPGSV,1,1,04,26,68,239,40,28,47,010,41,29,22,080,40,32,60,089,45,1*6B
$GPRMC,024246.49,A,2218.2654559,N,11410.7824607,E,3.98,7.57,271224,0.0,E,A*31
$GPGGA,024246.49,2218.2654559,N,11410.7824607,E,1,04,1.0,-5.677,M,0.000,M,0.0,*5A
$GPGSA,A,3,26,28,29,32,,,,,,,,,4.8,2.5,4.1,1*25
$GPGSV,1,1,04,26,68,239,40,28,47,010,41,29,22,080,39,32,60,089,45,1*65
$GPRMC,024246.59,A,2218.2635958,N,11410.7813370,E,5.24,236.46,271224,0.0,E,A*3A
$GPGGA,024246.59,2218.2635958,N,11410.7813370,E,1,04,1.0,-19.755,M,0.000,M,0.0,*6C
$GPGSA,A,3,26,28,29,32,,,,,,,,,4.8,2.5,4.1,1*25
$GPGSV,1,1,04,26,68,239,40,28,47,010,41,29,22,080,39,32,60,089,45,1*65
$GPRMC,024246.69,A,2218.2660249,N,11410.7819378,E,2.62,130.44,271224,0.0,E,A*32
$GPGGA,024246.69,2218.2660249,N,11410.7819378,E,1,04,1.0,-25.251,M,0.000,M,0.0,*68
$GPGSA,A,3,26,28,29,32,,,,,,,,,4.8,2.5,4.1,1*25
$GPGSV,1,1,04,26,68,239,39,28,47,010,41,29,22,080,39,32,60,089,45,1*6B
$GPRMC,024246.79,A,2218.2663337,N,11410.7791444,E,4.58,17.72,271224,0.0,E,A*01
$GPGGA,024246.79,2218.2663337,N,11410.7791444,E,1,04,1.0,-28.803,M,0.000,M,0.0,*65
$GPGSA,A,3,26,28,29,32,,,,,,,,,4.8,2.5,4.1,1*25
$GPGSV,1,1,04,26,68,239,40,28,47,010,41,29,22,080,39,32,60,089,45,1*65
$GPRMC,024246.89,A,2218.2705926,N,11410.7822580,E,9.57,16.03,271224,0.0,E,A*0E
$GPGGA,024246.89,2218.2705926,N,11410.7822580,E,1,04,1.0,-9.214,M,0.000,M,0.0,*50
$GPGSA,A,3,26,28,29,32,,,,,,,,,4.8,2.5,4.1,1*25
$GPGSV,1,1,04,26,68,239,40,28,47,010,41,29,22,080,39,32,60,089,45,1*65
$GPRMC,024246.99,A,2218.2715335,N,11410.7825355,E,5.10,242.75,271224,0.0,E,A*32
$GPGGA,024246.99,2218.2715335,N,11410.7825355,E,1,04,1.0,-6.534,M,0.000,M,0.0,*5B
$GPGSA,A,3,26,28,29,32,,,,,,,,,4.8,2.5,4.1,1*25
$GPGSV,1,1,04,26,68,239,39,28,47,010,41,29,22,080,39,32,60,089,45,1*6B
$GPRMC,024247.09,A,2218.2693505,N,11410.7846775,E,6.38,265.02,271224,0.0,E,A*3F
$GPGGA,024247.09,2218.2693505,N,11410.7846775,E,1,04,1.0,-0.827,M,0.000,M,0.0,*53
$GPGSA,A,3,26,28,29,32,,,,,,,,,4.8,2.5,4.1,1*25
$GPGSV,1,1,04,26,68,239,40,28,47,010,41,29,22,080,39,32,60,089,45,1*65
$GPRMC,024247.19,A,2218.2716299,N,11410.7815773,E,8.81,228.84,271224,0.0,E,A*3B
$GPGGA,024247.19,2218.2716299,N,11410.7815773,E,1,04,1.0,1.536,M,0.000,M,0.0,*7D
$GPGSA,A,3,26,28,29,32,,,,,,,,,4.8,2.5,4.1,1*25
$GPGSV,1,1,04,26,68,239,39,28,47,010,41,29,22,080,39,32,60,089,45,1*6B
$GPRMC,024247.29,A,2218.2726709,N,11410.7831719,E,4.26,315.39,271224,0.0,E,A*35
$GPGGA,024247.29,2218.2726709,N,11410.7831719,E,1,04,1.0,5.039,M,0.000,M,0.0,*75
$GPGSA,A,3,26,28,29,32,,,,,,,,,4.8,2.5,4.1,1*25
$GPGSV,1,1,04,26,68,239,39,28,47,010,41,29,22,080,39,32,60,089,45,1*6B
$GPRMC,024247.39,A,2218.2727228,N,11410.7841637,E,1.44,315.39,271224,0.0,E,A*38
$GPGGA,024247.39,2218.2727228,N,11410.7841637,E,1,04,1.0,6.515,M,0.000,M,0.0,*71
$GPGSA,A,3,26,28,29,32,,,,,,,,,4.8,2.5,4.1,1*25
$GPGSV,1,1,04,26,68,239,39,28,47,010,41,29,22,080,39,32,60,089,45,1*6B
$GPRMC,024247.49,A,2218.2712222,N,11410.7840732,E,1.94,315.39,271224,0.0,E,A*3B
$GPGGA,024247.49,2218.2712222,N,11410.7840732,E,1,04,1.0,-5.683,M,0.000,M,0.0,*5D
$GPGSA,A,3,26,28,29,32,,,,,,,,,4.8,2.5,4.1,1*25
$GPGSV,1,1,04,26,68,239,39,28,47,010,41,29,22,080,39,32,60,089,46,1*68
$GPRMC,024247.59,A,2218.2695705,N,11410.7834369,E,3.74,184.23,271224,0.0,E,A*30
$GPGGA,024247.59,2218.2695705,N,11410.7834369,E,1,04,1.0,-15.623,M,0.000,M,0.0,*60
$GPGSA,A,3,26,28,29,32,,,,,,,,,4.8,2.5,4.1,1*25
$GPGSV,1,1,04,26,68,239,39,28,47,010,41,29,22,080,39,32,60,089,46,1*68
$GPRMC,024247.69,A,2218.2679274,N,11410.7762741,E,4.63,240.76,271224,0.0,E,A*3A
$GPGGA,024247.69,2218.2679274,N,11410.7762741,E,1,04,1.0,-29.245,M,0.000,M,0.0,*6B
$GPGSA,A,3,26,28,29,32,,,,,,,,,4.8,2.5,4.1,1*25
$GPGSV,1,1,04,26,68,239,39,28,47,010,41,29,22,080,39,32,60,089,45,1*6B
$GPRMC,024247.79,A,2218.2668196,N,11410.7782588,E,8.49,57.42,271224,0.0,E,A*0A
$GPGGA,024247.79,2218.2668196,N,11410.7782588,E,1,04,1.0,-15.479,M,0.000,M,0.0,*6A
$GPGSA,A,3,26,28,29,32,,,,,,,,,4.8,2.5,4.1,1*25
$GPGSV,1,1,04,26,68,239,39,28,47,010,41,29,22,080,39,32,60,089,45,1*6B
$GPRMC,024247.89,A,2218.2654338,N,11410.7801516,E,4.55,36.91,271224,0.0,E,A*07
$GPGGA,024247.89,2218.2654338,N,11410.7801516,E,1,04,1.0,-20.657,M,0.000,M,0.0,*67
$GPGSA,A,3,26,28,29,32,,,,,,,,,4.8,2.5,4.1,1*25
$GPGSV,1,1,04,26,68,239,39,28,47,010,41,29,22,080,39,32,60,089,45,1*6B
$GPRMC,024247.99,A,2218.2678247,N,11410.7824432,E,2.81,200.74,271224,0.0,E,A*32
$GPGGA,024247.99,2218.2678247,N,11410.7824432,E,1,04,1.0,-4.456,M,0.000,M,0.0,*54
$GPGSA,A,3,26,28,29,32,,,,,,,,,4.8,2.5,4.1,1*25
$GPGSV,1,1,04,26,68,239,39,28,47,010,41,29,22,080,39,32,60,089,45,1*6B
$GPRMC,024248.09,A,2218.2692652,N,11410.7809391,E,2.64,13.90,271224,0.0,E,A*00
$GPGGA,024248.09,2218.2692652,N,11410.7809391,E,1,04,1.0,-13.149,M,0.000,M,0.0,*6A
$GPGSA,A,3,26,28,29,32,,,,,,,,,4.8,2.5,4.1,1*25
$GPGSV,1,1,04,26,68,239,40,28,47,010,41,29,22,080,39,32,60,089,45,1*65
$GPRMC,024248.19,A,2218.2735502,N,11410.7827478,E,11.90,91.50,271224,0.0,E,A*38
$GPGGA,024248.19,2218.2735502,N,11410.7827478,E,1,04,1.0,-2.780,M,0.000,M,0.0,*5E
$GPGSA,A,3,26,28,29,32,,,,,,,,,4.8,2.5,4.1,1*25
$GPGSV,1,1,04,26,68,239,39,28,47,010,41,29,22,080,39,32,60,089,44,1*6A
$GPRMC,024248.29,A,2218.2698995,N,11410.7842598,E,7.73,30.89,271224,0.0,E,A*06
$GPGGA,024248.29,2218.2698995,N,11410.7842598,E,1,04,1.0,-7.916,M,0.000,M,0.0,*51
$GPGSA,A,3,26,28,29,32,,,,,,,,,4.8,2.5,4.1,1*25
$GPGSV,1,1,04,26,68,239,39,28,47,010,41,29,22,080,39,32,60,089,45,1*6B
$GPRMC,024248.39,A,2218.2698190,N,11410.7825391,E,0.58,30.89,271224,0.0,E,A*0A
$GPGGA,024248.39,2218.2698190,N,11410.7825391,E,1,04,1.0,-8.840,M,0.000,M,0.0,*5E
$GPGSA,A,3,26,28,29,32,,,,,,,,,4.8,2.5,4.1,1*25
$GPGSV,1,1,04,26,68,239,39,28,47,010,41,29,22,080,39,32,60,089,45,1*6B
$GPRMC,024248.49,A,2218.2731310,N,11410.7822439,E,2.69,10.61,271224,0.0,E,A*03
$GPGGA,024248.49,2218.2731310,N,11410.7822439,E,1,04,1.0,5.764,M,0.000,M,0.0,*7A
$GPGSA,A,3,26,28,29,32,,,,,,,,,4.8,2.5,4.1,1*25
$GPGSV,1,1,04,26,68,239,39,28,47,010,41,29,22,080,39,32,60,089,45,1*6B
$GPRMC,024248.59,A,2218.2715082,N,11410.7830423,E,1.80,10.61,271224,0.0,E,A*00
$GPGGA,024248.59,2218.2715082,N,11410.7830423,E,1,04,1.0,2.094,M,0.000,M,0.0,*72
$GPGSA,A,3,26,28,29,32,,,,,,,,,4.8,2.5,4.1,1*25
$GPGSV,1,1,04,26,68,239,40,28,47,010,41,29,22,080,39,32,60,089,45,1*65
$GPRMC,024248.69,A,2218.2692554,N,11410.7811188,E,5.45,168.26,271224,0.0,E,A*34
$GPGGA,024248.69,2218.2692554,N,11410.7811188,E,1,04,1.0,3.903,M,0.000,M,0.0,*70
$GPGSA,A,3,26,28,29,32,,,,,,,,,4.8,2.5,4.1,1*25
$GPGSV,1,1,04,26,68,239,40,28,47,010,41,29,22,080,39,32,60,089,45,1*65
$GPRMC,024248.79,A,2218.2704835,N,11410.7834625,E,4.57,239.38,271224,0.0,E,A*3C
$GPGGA,024248.79,2218.2704835,N,11410.7834625,E,1,04,1.0,6.296,M,0.000,M,0.0,*70
$GPGSA,A,3,26,28,29,32,,,,,,,,,4.8,2.5,4.1,1*25
$GPGSV,1,1,04,26,68,239,39,28,47,010,41,29,22,080,39,32,60,089,44,1*6A
$GPRMC,024248.89,A,2218.2691112,N,11410.7853140,E,2.54,9.62,271224,0.0,E,A*3C
$GPGGA,024248.89,2218.2691112,N,11410.7853140,E,1,04,1.0,3.940,M,0.000,M,0.0,*7E
$GPGSA,A,3,26,28,29,32,,,,,,,,,4.8,2.5,4.1,1*25
$GPGSV,1,1,04,26,68,239,39,28,47,010,41,29,22,080,39,32,60,089,44,1*6A
$GPRMC,024248.99,A,2218.2703660,N,11410.7852438,E,8.01,63.08,271224,0.0,E,A*04
$GPGGA,024248.99,2218.2703660,N,11410.7852438,E,1,04,1.0,7.127,M,0.000,M,0.0,*71
$GPGSA,A,3,26,28,29,32,,,,,,,,,4.8,2.5,4.1,1*25
$GPGSV,1,1,04,26,68,239,40,28,47,010,41,29,22,080,40,32,60,089,44,1*6A
$GPRMC,024249.09,A,2218.2685487,N,11410.7844056,E,4.18,33.79,271224,0.0,E,A*04
$GPGGA,024249.09,2218.2685487,N,11410.7844056,E,1,04,1.0,-6.743,M,0.000,M,0.0,*5E
$GPGSA,A,3,26,28,29,32,,,,,,,,,4.8,2.5,4.1,1*25
$GPGSV,1,1,04,26,68,239,39,28,47,010,41,29,22,080,40,32,60,089,44,1*64
$GPRMC,024249.19,A,2218.2668130,N,11410.7817933,E,17.37,43.66,271224,0.0,E,A*35
$GPGGA,024249.19,2218.2668130,N,11410.7817933,E,1,04,1.0,-3.335,M,0.000,M,0.0,*59
$GPGSA,A,3,26,28,29,32,,,,,,,,,4.8,2.5,4.1,1*25
$GPGSV,1,1,04,26,68,239,39,28,47,010,41,29,22,080,40,32,60,089,44,1*64
$GPRMC,024249.29,A,2218.2702718,N,11410.7791978,E,1.95,157.34,271224,0.0,E,A*35
$GPGGA,024249.29,2218.2702718,N,11410.7791978,E,1,04,1.0,5.134,M,0.000,M,0.0,*7D
$GPGSA,A,3,26,28,29,32,,,,,,,,,4.8,2.5,4.1,1*25
$GPGSV,1,1,04,26,68,239,40,28,47,010,41,29,22,080,40,32,60,089,44,1*6A
$GPRMC,024249.39,A,2218.2732923,N,11410.7846266,E,7.06,192.02,271224,0.0,E,A*30
$GPGGA,024249.39,2218.2732923,N,11410.7846266,E,1,04,1.0,21.776,M,0.000,M,0.0,*4E
$GPGSA,A,3,26,28,29,32,,,,,,,,,4.8,2.5,4.1,1*25
$GPGSV,1,1,04,26,68,239,39,28,47,010,41,29,22,080,40,32,60,089,44,1*64
$GPRMC,024249.49,A,2218.2705232,N,11410.7824438,E,5.61,110.40,271224,0.0,E,A*3E
$GPGGA,024249.49,2218.2705232,N,11410.7824438,E,1,04,1.0,5.930,M,0.000,M,0.0,*75
$GPGSA,A,3,26,28,29,32,,,,,,,,,4.8,2.5,4.1,1*25
$GPGSV,1,1,04,26,68,239,39,28,47,010,41,29,22,080,40,32,60,089,44,1*64
$GPRMC,024249.59,A,2218.2689340,N,11410.7823822,E,2.43,174.26,271224,0.0,E,A*3B
$GPGGA,024249.59,2218.2689340,N,11410.7823822,E,1,04,1.0,8.954,M,0.000,M,0.0,*7A
$GPGSA,A,3,26,28,29,32,,,,,,,,,4.8,2.5,4.1,1*25
$GPGSV,1,1,04,26,68,239,39,28,47,010,41,29,22,080,40,32,60,089,44,1*64
$GPRMC,024249.69,A,2218.2668755,N,11410.7823382,E,4.39,68.91,271224,0.0,E,A*0D
$GPGGA,024249.69,2218.2668755,N,11410.7823382,E,1,04,1.0,3.621,M,0.000,M,0.0,*71
$GPGSA,A,3,26,28,29,32,,,,,,,,,4.8,2.5,4.1,1*25
$GPGSV,1,1,04,26,68,239,39,28,47,010,41,29,22,080,40,32,60,089,44,1*64
$GPRMC,024249.79,A,2218.2680342,N,11410.7850077,E,2.63,162.96,271224,0.0,E,A*30
$GPGGA,024249.79,2218.2680342,N,11410.7850077,E,1,04,1.0,8.465,M,0.000,M,0.0,*70
$GPGSA,A,3,26,28,29,32,,,,,,,,,4.8,2.5,4.1,1*25
$GPGSV,1,1,04,26,68,239,39,28,47,010,42,29,22,080,40,32,60,089,44,1*67
$GPRMC,024249.89,A,2218.2715329,N,11410.7825022,E,6.74,43.31,271224,0.0,E,A*00
$GPGGA,024249.89,2218.2715329,N,11410.7825022,E,1,04,1.0,18.715,M,0.000,M,0.0,*48
$GPGSA,A,3,26,28,29,32,,,,,,,,,4.8,2.5,4.1,1*25
$GPGSV,1,1,04,26,68,239,40,28,47,010,41,29,22,080,40,32,60,089,44,1*6A
$GPRMC,024249.99,A,2218.2716305,N,11410.7839461,E,1.93,43.31,271224,0.0,E,A*0C
$GPGGA,024249.99,2218.2716305,N,11410.7839461,E,1,04,1.0,14.240,M,0.000,M,0.0,*43
$GPGSA,A,3,26,28,29,32,,,,,,,,,4.8,2.5,4.1,1*25
$GPGSV,1,1,04,26,68,239,40,28,47,010,41,29,22,080,40,32,60,089,44,1*6A
$GPRMC,024250.09,A,2218.2730066,N,11410.7841018,E,2.60,196.47,271224,0.0,E,A*3D
$GPGGA,024250.09,2218.2730066,N,11410.7841018,E,1,04,1.0,26.945,M,0.000,M,0.0,*4A
$GPGSA,A,3,26,28,29,32,,,,,,,,,4.8,2.5,4.1,1*25
$GPGSV,1,1,04,26,68,239,40,28,47,010,41,29,22,080,40,32,60,089,44,1*6A
$GPRMC,024250.19,A,2218.2741406,N,11410.7872481,E,6.00,204.21,271224,0.0,E,A*36
$GPGGA,024250.19,2218.2741406,N,11410.7872481,E,1,04,1.0,22.521,M,0.000,M,0.0,*41
$GPGSA,A,3,26,28,29,32,,,,,,,,,4.8,2.5,4.1,1*25
$GPGSV,1,1,04,26,68,239,40,28,47,010,41,29,22,080,40,32,60,089,44,1*6A
$GPRMC,024250.29,A,2218.2740140,N,11410.7858503,E,5.63,309.68,271224,0.0,E,A*37
$GPGGA,024250.29,2218.2740140,N,11410.7858503,E,1,04,1.0,29.354,M,0.000,M,0.0,*48
$GPGSA,A,3,26,28,29,32,,,,,,,,,4.8,2.5,4.1,1*25
$GPGSV,1,1,04,26,68,239,40,28,47,010,41,29,22,080,40,32,60,089,44,1*6A
$GPRMC,024250.39,A,2218.2713255,N,11410.7857150,E,4.17,138.55,271224,0.0,E,A*36
$GPGGA,024250.39,2218.2713255,N,11410.7857150,E,1,04,1.0,33.143,M,0.000,M,0.0,*4A
$GPGSA,A,3,26,28,29,32,,,,,,,,,4.8,2.5,4.1,1*25
$GPGSV,1,1,04,26,68,239,40,28,47,010,41,29,22,080,40,32,60,089,44,1*6A
$GPRMC,024250.49,A,2218.2781871,N,11410.7891567,E,10.93,197.32,271224,0.0,E,A*01
$GPGGA,024250.49,2218.2781871,N,11410.7891567,E,1,04,1.0,39.150,M,0.000,M,0.0,*48
$GPGSA,A,3,26,28,29,32,,,,,,,,,4.8,2.5,4.1,1*25
$GPGSV,1,1,04,26,68,239,40,28,47,010,41,29,22,080,40,32,60,089,44,1*6A
$GPRMC,024250.59,A,2218.2791486,N,11410.7900771,E,2.96,92.60,271224,0.0,E,A*0C
$GPGGA,024250.59,2218.2791486,N,11410.7900771,E,1,04,1.0,37.805,M,0.000,M,0.0,*47
$GPGSA,A,3,26,28,29,32,,,,,,,,,4.8,2.5,4.1,1*25
$GPGSV,1,1,04,26,68,239,40,28,47,010,41,29,22,080,40,32,60,089,44,1*6A
$GPRMC,024250.69,A,2218.2733027,N,11410.7852576,E,2.80,241.72,271224,0.0,E,A*33
$GPGGA,024250.69,2218.2733027,N,11410.7852576,E,1,04,1.0,17.373,M,0.000,M,0.0,*48
$GPGSA,A,3,26,28,29,32,,,,,,,,,4.8,2.5,4.1,1*25
$GPGSV,1,1,04,26,68,239,40,28,47,010,41,29,22,080,40,32,60,089,44,1*6A
$GPRMC,024250.79,A,2218.2741522,N,11410.7868764,E,8.92,74.08,271224,0.0,E,A*0F
$GPGGA,024250.79,2218.2741522,N,11410.7868764,E,1,04,1.0,23.682,M,0.000,M,0.0,*48
$GPGSA,A,3,26,28,29,32,,,,,,,,,4.8,2.5,4.1,1*25
$GPGSV,1,1,04,26,68,239,40,28,47,010,41,29,22,080,40,32,60,089,44,1*6A
$GPRMC,024250.89,A,2218.2736536,N,11410.7884154,E,7.73,201.60,271224,0.0,E,A*3C
$GPGGA,024250.89,2218.2736536,N,11410.7884154,E,1,04,1.0,22.600,M,0.000,M,0.0,*4E
$GPGSA,A,3,26,28,29,32,,,,,,,,,4.8,2.5,4.1,1*25
$GPGSV,1,1,04,26,68,239,40,28,47,010,41,29,22,080,40,32,60,089,44,1*6A
$GPRMC,024250.99,A,2218.2735743,N,11410.7918162,E,3.78,33.88,271224,0.0,E,A*05
$GPGGA,024250.99,2218.2735743,N,11410.7918162,E,1,04,1.0,30.885,M,0.000,M,0.0,*4D
$GPGSA,A,3,26,28,29,32,,,,,,,,,4.8,2.5,4.1,1*25
$GPGSV,1,1,04,26,68,239,40,28,47,010,41,29,22,080,40,32,60,089,44,1*6A
$GPRMC,024251.09,A,2218.2718194,N,11410.7893495,E,4.05,222.47,271224,0.0,E,A*3D
$GPGGA,024251.09,2218.2718194,N,11410.7893495,E,1,04,1.0,34.062,M,0.000,M,0.0,*4C
$GPGSA,A,3,26,28,29,32,,,,,,,,,4.8,2.5,4.1,1*25
$GPGSV,1,1,04,26,68,239,40,28,47,010,41,29,22,080,40,32,60,089,44,1*6A
$GPRMC,024251.19,A,2218.2711993,N,11410.7891176,E,0.75,222.47,271224,0.0,E,A*33
$GPGGA,024251.19,2218.2711993,N,11410.7891176,E,1,04,1.0,33.470,M,0.000,M,0.0,*41
$GPGSA,A,3,26,28,29,32,,,,,,,,,4.8,2.5,4.1,1*25
