     3.02           OBSERVATION DATA    G                   RINEX VERSION / TYPE
G = GPS  R = GLONASS  E = GALILEO  S = GEO  M = MIXED       COMMENT             
GNSS-SDR            tagsys-g1           20241227 024922 UTC PGM / RUN BY / DATE 
GPS OBSERVATION DATA FILE GENERATED BY GNSS-SDR             COMMENT             
GNSS-SDR VERSION 0.0.19.git-next-dc55847ae                  COMMENT             
See https://gnss-sdr.org                                    COMMENT             
DEFAULT MARKER NAME                                         MARKER NAME         
tagsys-g1           CTTC                                    OBSERVER / AGENCY   
GNSS-SDR            Software Receiver   0.0.19.gi           REC # / TYPE / VERS 
Antenna number      Antenna type                            ANT # / TYPE        
        0.0000        0.0000        0.0000                  APPROX POSITION XYZ 
        0.0000        0.0000        0.0000                  ANTENNA: DELTA H/E/N
G    4 C1C L1C D1C S1C                                      SYS / # / OBS TYPES 
DBHZ                                                        SIGNAL STRENGTH UNIT
  2024    12    27    02    44    6.3200000     GPS         TIME OF FIRST OBS   
                                                            END OF HEADER       
> 2024 12 27 02 44 07.0000000  0  4                                             
G32  25069879.874 7 131743103.517 7      -461.538 7        44.892               
G28  25791117.778 6 135533226.424 6      -621.436 6        41.392               
G29  27816885.954 6 146178780.326 6       244.596 6        41.885               
G26  24374371.041 7 128088169.369 7      1068.785 7        42.692               
> 2024 12 27 02 44 08.0000000  0  4                                             
G32  25069967.397 7 131743564.849 7      -463.412 7        45.077               
G28  25791232.515 6 135533848.022 6      -614.289 6        40.808               
G29  27816848.286 6 146178534.862 6       248.145 6        41.858               
G26  24374165.958 7 128087099.757 7      1079.301 7        42.539               
> 2024 12 27 02 44 09.0000000  0  4                                             
G32  25070056.313 7 131744026.661 7      -462.187 7        44.438               
G28  25791348.985 6 135534469.671 6      -619.048 6        40.963               
G29  27816793.714 6 146178289.908 6       241.982 6        40.854               
G26  24373963.359 7 128086030.733 7      1069.714 7        42.882               
> 2024 12 27 02 44 10.0000000  0  4                                             
G32  25070141.691 7 131744488.929 7      -464.180 7        45.251               
G28  25791473.782 6 135535091.362 6      -622.388 6        40.569               
G29  27816740.572 6 146178045.431 6       242.752 6        41.015               
G26  24373762.672 7 128084962.259 7      1072.406 7        42.819               
> 2024 12 27 02 44 11.0000000  0  4                                             
G32  25070232.287 7 131744951.628 7      -462.889 7        45.643               
G28  25791588.091 6 135535713.059 6      -624.508 6        40.812               
G29  27816699.312 6 146177801.438 6       243.894 6        41.019               
G26  24373555.553 7 128083894.359 7      1072.089 7        42.795               
> 2024 12 27 02 44 12.0000000  0  4                                             
G32  25070318.845 7 131745414.797 7      -466.492 7        45.221               
G28  25791704.632 6 135536334.825 6      -626.035 6        41.139               
G29  27816651.566 6 146177557.948 6       239.801 6        41.075               
G26  24373352.971 7 128082827.033 7      1065.993 7        43.210               
> 2024 12 27 02 44 13.0000000  0  4                                             
G32  25070403.884 7 131745878.422 7      -462.783 7        44.765               
G28  25791823.086 6 135536956.624 6      -623.380 6        41.037               
G29  27816598.084 6 146177314.966 6       249.614 6        40.507               
G26  24373149.872 7 128081760.324 7      1064.605 7        43.000               
> 2024 12 27 02 44 14.0000000  0  4                                             
G32  25070490.870 7 131746342.501 7      -463.700 7        45.003               
G28  25791932.462 6 135537578.461 6      -629.733 6        40.613               
G29  27816554.877 6 146177072.458 6       241.544 6        40.425               
G26  24372946.004 7 128080694.173 7      1064.162 7        42.882               
> 2024 12 27 02 44 15.0000000  0  4                                             
G32  25070580.394 7 131746807.042 7      -468.431 7        45.347               
G28  25792059.654 6 135538200.328 6      -619.934 6        40.357               
G29  27816508.132 6 146176830.469 6       237.378 6        40.292               
G26  24372744.978 7 128079628.596 7      1055.569 7        43.031               
> 2024 12 27 02 44 16.0000000  0  4                                             
G32  25070669.578 7 131747272.029 7      -461.216 7        45.219               
G28  25792171.997 6 135538822.246 6      -621.877 6        39.768               
G29  27816473.734 6 146176588.959 6       240.527 6        40.833               
G26  24372542.701 7 128078563.606 7      1059.353 7        42.776               
> 2024 12 27 02 44 17.0000000  0  4                                             
G32  25070757.226 7 131747737.472 7      -464.428 7        45.164               
G28  25792289.700 6 135539444.172 6      -621.599 6        39.359               
G29  27816430.294 6 146176347.935 6       239.567 6        40.913               
G26  24372336.599 7 128077499.169 7      1069.945 7        42.842               
> 2024 12 27 02 44 18.0000000  0  4                                             
G32  25070843.051 7 131748203.374 7      -463.476 7        44.854               
G28  25792413.818 6 135540066.177 6      -622.997 6        40.515               
G29  27816387.069 6 146176107.391 6       244.124 6        41.287               
G26  24372137.002 7 128076435.321 7      1070.802 7        43.114               
> 2024 12 27 02 44 19.0000000  0  4                                             
G32  25070935.773 7 131748669.718 7      -466.097 7        45.332               
G28  25792527.358 6 135540688.138 6      -622.896 6        40.112               
G29  27816350.384 6 146175867.332 6       237.934 6        41.641               
G26  24371933.170 7 128075372.052 7      1062.323 7        42.630               
> 2024 12 27 02 44 20.0000000  0  4                                             
G32  25071024.082 7 131749136.509 7      -465.006 7        45.033               
G28  25792647.241 6 135541310.185 6      -620.409 6        39.778               
G29  27816297.849 7 146175627.772 7       236.420 7        42.816               
G26  24371731.107 7 128074309.338 7      1065.646 7        42.326               
> 2024 12 27 02 44 21.0000000  0  4                                             
G32  25071113.159 7 131749603.781 7      -468.966 7        45.265               
G28  25792765.284 6 135541932.255 6      -618.617 6        39.855               
G29  27816258.805 7 146175388.697 7       237.871 7        42.888               
G26  24371528.044 7 128073247.212 7      1060.557 7        42.644               
> 2024 12 27 02 44 22.0000000  0  4                                             
G32  25071203.880 7 131750071.511 7      -466.531 7        45.481               
G28  25792883.755 6 135542554.422 6      -626.056 6        38.940               
G29  27816213.489 7 146175150.148 7       235.556 7        42.924               
G26  24371330.520 7 128072185.695 7      1063.336 7        42.137               
> 2024 12 27 02 44 23.0000000  0  4                                             
G32  25071290.795 7 131750539.725 7      -466.893 7        44.867               
G28  25792999.922 6 135543176.607 6      -626.712 6        39.553               
G29  27816168.870 7 146174912.098 7       238.739 7        42.951               
G26  24371121.238 7 128071124.743 7      1059.933 7        42.535               
> 2024 12 27 02 44 24.0000000  0  4                                             
G32  25071378.621 7 131751008.372 7      -474.928 7        44.822               
G28  25793116.357 6 135543798.812 6      -624.675 6        39.266               
G29  27816124.430 7 146174674.549 7       236.251 7        42.292               
G26  24370922.445 7 128070064.383 7      1059.726 7        42.267               
> 2024 12 27 02 44 25.0000000  0  4                                             
G32  25071466.679 7 131751477.480 7      -471.170 7        44.862               
G28  25793238.313 6 135544421.061 6      -626.143 6        38.893               
G29  27816075.433 7 146174437.482 7       238.309 7        42.584               
G26  24370719.935 7 128069004.589 7      1060.156 7        42.065               
> 2024 12 27 02 44 26.0000000  0  4                                             
G32  25071558.169 7 131751947.083 7      -472.701 7        45.138               
G28  25793356.445 6 135545043.375 6      -624.655 6        39.197               
G29  27816030.350 7 146174200.920 7       231.982 7        42.302               
G26  24370516.478 6 128067945.407 6      1055.697 6        41.598               
> 2024 12 27 02 44 27.0000000  0  4                                             
G32  25071646.567 7 131752417.120 7      -473.334 7        45.452               
G28  25793471.414 6 135545665.741 6      -624.167 6        39.238               
G29  27815976.439 6 146173964.863 6       233.250 6        41.625               
G26  24370317.275 7 128066886.798 7      1057.291 7        42.511               
> 2024 12 27 02 44 28.0000000  0  4                                             
G32  25071736.305 7 131752887.851 7      -470.954 7        45.438               
G28  25793594.442 6 135546288.341 6      -621.794 6        39.059               
G29  27815930.515 6 146173729.530 6       232.598 6        40.691               
G26  24370119.250 7 128065828.973 7      1054.488 7        42.362               
> 2024 12 27 02 44 29.0000000  0  4                                             
G32  25071826.669 7 131753359.254 7      -468.954 7        45.659               
G28  25793704.569 6 135546911.192 6      -623.044 6        39.134               
G29  27815881.662 6 146173494.901 6       236.013 6        40.659               
G26  24369917.652 7 128064771.956 7      1059.210 7        42.341               
> 2024 12 27 02 44 30.0000000  0  4                                             
G32  25071915.817 7 131753831.128 7      -471.228 7        45.568               
G28  25793831.779 6 135547534.123 6      -621.985 6        39.773               
G29  27815831.861 6 146173260.777 6       236.573 6        40.191               
G26  24369716.429 7 128063715.526 7      1056.510 7        42.673               
> 2024 12 27 02 44 31.0000000  0  4                                             
G32  25072008.164 7 131754303.453 7      -471.655 7        46.057               
G28  25793944.890 6 135548157.066 6      -626.462 6        39.500               
G29  27815789.064 6 146173027.141 6       229.497 6        40.365               
G26  24369512.490 7 128062659.670 7      1058.582 7        42.418               
> 2024 12 27 02 44 32.0000000  0  4                                             
G32  25072097.867 7 131754776.267 7      -475.413 7        46.052               
G28  25794064.201 6 135548780.057 6      -619.077 6        39.702               
G29  27815735.386 6 146172794.042 6       229.729 6        40.482               
G26  24369316.180 7 128061604.428 7      1054.733 7        42.873               
> 2024 12 27 02 44 33.0000000  0  4                                             
G32  25072186.730 7 131755249.521 7      -474.824 7        46.136               
G28  25794175.900 6 135549403.095 6      -621.917 6        39.990               
G29  27815690.034 6 146172561.399 6       232.038 6        39.496               
G26  24369115.190 7 128060549.727 7      1060.763 7        43.286               
> 2024 12 27 02 44 34.0000000  0  4                                             
G32  25072277.361 7 131755723.225 7      -476.119 7        46.559               
G28  25794302.752 6 135550026.154 6      -625.102 6        40.154               
G29  27815647.488 6 146172329.243 6       233.227 6        39.418               
G26  24368916.701 7 128059495.605 7      1053.388 7        42.822               
> 2024 12 27 02 44 35.0000000  0  4                                             
G32  25072368.583 7 131756197.384 7      -477.414 7        45.899               
G28  25794420.349 6 135550649.245 6      -622.443 6        40.262               
G29  27815603.709 6 146172097.617 6       230.058 6        39.601               
G26  24368716.192 7 128058442.059 7      1054.045 7        42.962               
> 2024 12 27 02 44 36.0000000  0  4                                             
G32  25072458.553 7 131756672.003 7      -474.655 7        46.201               
G28  25794541.858 6 135551272.399 6      -623.191 6        39.991               
G29  27815566.095 6 146171866.473 6       232.436 6        40.000               
G26  24368515.845 7 128057389.118 7      1053.915 7        43.274               
> 2024 12 27 02 44 37.0000000  0  4                                             
G32  25072548.613 7 131757147.074 7      -475.425 7        45.874               
G28  25794658.239 6 135551895.567 6      -623.443 6        39.939               
G29  27815528.605 6 146171635.802 6       226.407 6        40.386               
G26  24368315.408 7 128056336.720 7      1054.953 7        43.097               
> 2024 12 27 02 44 38.0000000  0  4                                             
G32  25072639.745 7 131757622.604 7      -473.052 7        46.340               
G28  25794776.532 6 135552518.770 6      -625.670 6        39.981               
G29  27815485.809 6 146171405.647 6       228.179 6        41.057               
G26  24368116.186 7 128055284.924 7      1050.438 7        42.971               
> 2024 12 27 02 44 39.0000000  0  4                                             
G32  25072729.644 7 131758098.607 7      -479.487 7        45.776               
G28  25794891.483 6 135553142.035 6      -617.913 6        40.119               
G29  27815450.268 6 146171175.985 6       231.130 6        41.774               
G26  24367916.089 7 128054233.714 7      1050.832 7        42.873               
> 2024 12 27 02 44 40.0000000  0  4                                             
G32  25072821.562 7 131758575.040 7      -476.632 7        45.871               
G28  25795012.367 6 135553765.306 6      -624.470 6        39.804               
G29  27815409.276 6 146170946.808 6       226.349 6        41.543               
G26  24367717.725 7 128053183.056 7      1048.069 7        43.170               
> 2024 12 27 02 44 41.0000000  0  4                                             
G32  25072909.567 7 131759051.946 7      -477.883 7        45.915               
G28  25795132.733 6 135554388.615 6      -617.795 6        39.616               
G29  27815368.696 6 146170718.119 6       229.533 6        41.551               
G26  24367517.413 7 128052132.987 7      1053.926 7        43.322               
> 2024 12 27 02 44 42.0000000  0  4                                             
G32  25073003.576 7 131759529.287 7      -478.123 7        46.221               
G28  25795248.328 6 135555011.956 6      -621.690 6        39.656               
G29  27815320.217 6 146170489.912 6       227.938 6        41.989               
G26  24367316.065 7 128051083.485 7      1048.163 7        42.816               
> 2024 12 27 02 44 43.0000000  0  4                                             
G32  25073094.226 7 131760007.085 7      -478.458 7        46.416               
G28  25795366.620 6 135555635.343 6      -625.466 6        39.598               
G29  27815279.815 7 146170262.192 7       232.784 7        42.625               
G26  24367117.165 7 128050034.557 7      1048.070 7        42.720               
> 2024 12 27 02 44 44.0000000  0  4                                             
G32  25073185.930 7 131760485.327 7      -478.031 7        46.507               
G28  25795485.628 6 135556258.744 6      -623.624 6        40.140               
G29  27815242.183 7 146170034.962 7       225.646 7        42.697               
G26  24366915.102 7 128048986.184 7      1044.870 7        43.601               
> 2024 12 27 02 44 45.0000000  0  4                                             
G32  25073276.365 7 131760964.022 7      -479.682 7        46.564               
G28  25795605.047 6 135556882.173 6      -637.128 6        39.670               
G29  27815199.226 7 146169808.214 7       225.856 7        42.773               
G26  24366714.308 7 128047938.382 7      1046.733 7        43.212               
> 2024 12 27 02 44 46.0000000  0  4                                             
G32  25073370.070 7 131761443.182 7      -482.106 7        46.675               
G28  25795725.484 6 135557505.652 6      -622.949 6        39.393               
G29  27815154.803 7 146169581.971 7       230.595 7        42.408               
G26  24366517.838 7 128046891.184 7      1040.807 7        43.173               
> 2024 12 27 02 44 47.0000000  0  4                                             
G32  25073459.361 7 131761922.778 7      -481.473 7        46.832               
G28  25795845.814 6 135558129.130 6      -623.585 6        39.360               
G29  27815108.272 7 146169356.217 7       228.129 7        42.324               
G26  24366317.097 7 128045844.522 7      1041.319 7        42.949               
> 2024 12 27 02 44 48.0000000  0  4                                             
G32  25073549.403 7 131762402.797 7      -479.454 7        46.594               
G28  25795963.142 6 135558752.645 6      -617.353 6        39.764               
G29  27815066.048 6 146169130.919 6       224.087 6        41.527               
G26  24366119.484 7 128044798.424 7      1045.867 7        43.173               
> 2024 12 27 02 44 49.0000000  0  4                                             
G32  25073641.679 7 131762883.334 7      -479.442 7        46.417               
G28  25796085.992 6 135559376.228 6      -615.690 6        39.715               
G29  27815015.550 6 146168906.183 6       224.442 6        40.890               
G26  24365923.746 7 128043752.952 7      1043.874 7        42.737               
> 2024 12 27 02 44 50.0000000  0  4                                             
G32  25073731.453 7 131763364.332 7      -484.395 7        46.209               
G28  25796200.586 6 135559999.849 6      -622.833 6        39.531               
G29  27814966.839 6 146168681.920 6       233.227 6        40.521               
G26  24365723.185 7 128042708.054 7      1044.914 7        42.948               
> 2024 12 27 02 44 51.0000000  0  4                                             
G32  25073825.944 7 131763845.774 7      -483.884 7        46.341               
G28  25796314.572 6 135560623.552 6      -634.418 6        38.763               
G29  27814922.810 6 146168458.190 6       223.725 6        39.747               
G26  24365525.196 7 128041663.737 7      1046.373 7        43.367               
> 2024 12 27 02 44 52.0000000  0  4                                             
G32  25073915.986 7 131764327.690 7      -484.523 7        46.295               
G28  25796432.132 6 135561247.232 6      -624.339 6        38.980               
G29  27814868.095 6 146168234.957 6       225.421 6        39.299               
G26  24365327.815 7 128040620.005 7      1038.254 7        43.648               
> 2024 12 27 02 44 53.0000000  0  4                                             
G32  25074010.531 7 131764810.060 7      -481.725 7        45.939               
G28  25796551.104 6 135561870.959 6      -624.411 6        38.837               
G29  27814824.030 6 146168012.199 6       221.474 6        38.697               
G26  24365128.378 7 128039576.847 7      1046.809 7        43.568               
> 2024 12 27 02 44 54.0000000  0  4                                             
G32  25074103.611 7 131765292.910 7      -479.979 7        46.327               
G28  25796672.900 6 135562494.749 6      -621.187 6        38.515               
G29  27814779.554 6 146167789.965 6       223.106 6        38.665               
G26  24364926.619 7 128038534.278 7      1041.068 7        43.273               
> 2024 12 27 02 44 55.0000000  0  4                                             
G32  25074197.477 7 131765776.173 7      -483.958 7        46.270               
G28  25796792.265 6 135563118.544 6      -625.897 6        38.325               
G29  27814738.133 6 146167568.189 6       219.817 6        39.085               
G26  24364732.437 7 128037492.263 7      1038.038 7        43.340               
> 2024 12 27 02 44 56.0000000  0  4                                             
G32  25074287.877 7 131766259.916 7      -483.264 7        45.850               
G28  25796909.825 6 135563742.385 6      -628.694 6        38.458               
G29  27814704.039 6 146167346.925 6       227.482 6        39.417               
G26  24364531.410 7 128036450.817 7      1036.633 7        43.567               
> 2024 12 27 02 44 57.0000000  0  4                                             
G32  25074382.672 7 131766744.113 7      -481.649 7        46.017               
G28  25797031.853 6 135564366.248 6      -628.171 6        38.581               
G29  27814663.191 6 146167126.166 6       224.126 6        39.659               
G26  24364331.045 7 128035409.962 7      1038.891 7        43.455               
> 2024 12 27 02 44 58.0000000  0  4                                             
G32  25074472.928 7 131767228.769 7      -484.066 7        46.155               
G28  25797144.981 6 135564990.163 6      -622.900 6        38.422               
G29  27814631.455 6 146166905.854 6       221.320 6        39.525               
G26  24364139.471 7 128034369.662 7      1042.557 7        43.041               
> 2024 12 27 02 44 59.0000000  0  4                                             
G32  25074564.221 7 131767713.860 7      -485.260 7        46.311               
G28  25797263.578 6 135565614.127 6      -628.721 6        38.281               
G29  27814587.873 6 146166686.074 6       220.003 6        40.759               
G26  24363938.891 7 128033329.949 7      1038.079 7        43.490               
> 2024 12 27 02 45 00.0000000  0  4                                             
G32  25074655.657 7 131768199.397 7      -485.750 7        46.052               
G28  25797383.015 6 135566238.090 6      -619.984 6        37.867               
G29  27814553.689 6 146166466.748 6       219.450 6        40.779               
G26  24363739.580 7 128032290.804 7      1038.317 7        43.501               
> 2024 12 27 02 45 01.0000000  0  4                                             
G32  25074745.556 7 131768685.385 7      -490.277 7        46.354               
G28  25797503.363 6 135566862.061 6      -623.101 6        38.686               
G29  27814512.662 6 146166247.896 6       223.699 6        41.067               
G26  24363542.860 7 128031252.200 7      1038.819 7        42.833               
> 2024 12 27 02 45 02.0000000  0  4                                             
G32  25074835.401 7 131769171.849 7      -486.599 7        46.010               
G28  25797622.853 6 135567486.114 6      -624.948 6        38.067               
G29  27814475.459 6 146166029.570 6       213.643 6        40.934               
G26  24363341.994 7 128030214.208 7      1037.743 7        42.559               
> 2024 12 27 02 45 03.0000000  0  4                                             
G32  25074926.944 7 131769658.775 7      -488.156 7        45.881               
G28  25797738.501 6 135568110.180 6      -622.377 6        38.357               
G29  27814430.893 6 146165811.732 6       217.627 6        41.293               
G26  24363145.775 7 128029176.808 7      1034.053 7        42.455               
> 2024 12 27 02 45 04.0000000  0  4                                             
G32  25075017.415 7 131770146.159 7      -487.377 7        45.523               
G28  25797856.008 6 135568734.303 6      -624.733 6        37.644               
G29  27814398.479 6 146165594.426 6       214.168 6        41.214               
G26  24362944.123 7 128028139.967 7      1035.025 7        42.165               
> 2024 12 27 02 45 05.0000000  0  4                                             
G32  25075110.280 7 131770634.022 7      -487.462 7        45.425               
G28  25797969.422 6 135569358.500 6      -625.528 6        37.502               
G29  27814350.787 6 146165377.605 6       210.984 6        41.359               
G26  24362748.743 7 128027103.735 7      1037.045 7        42.466               
> 2024 12 27 02 45 06.0000000  0  4                                             
G32  25075206.434 7 131771122.351 7      -487.173 7        45.708               
G28  25798091.414 6 135569982.732 6      -628.108 6        37.380               
G29  27814315.513 6 146165161.298 6       215.034 6        41.277               
G26  24362549.360 7 128026068.089 7      1032.949 7        42.520               
> 2024 12 27 02 45 07.0000000  0  4                                             
G32  25075302.158 7 131771611.138 7      -489.928 7        45.591               
G28  25798214.782 6 135570606.951 6      -619.600 6        37.967               
G29  27814268.375 6 146164945.482 6       219.910 6        41.412               
G26  24362352.104 7 128025033.033 7      1029.197 7        42.026               
> 2024 12 27 02 45 08.0000000  0  4                                             
G32  25075395.327 7 131772100.378 7      -486.703 7        45.532               
G28  25798334.040 6 135571231.254 6      -621.020 6        37.968               
G29  27814234.191 6 146164730.159 6       212.851 6        41.327               
G26  24362161.031 7 128023998.525 7      1034.082 7        42.077               
> 2024 12 27 02 45 09.0000000  0  4                                             
G32  25075490.444 7 131772590.071 7      -492.119 7        45.702               
G28  25798452.279 6 135571855.619 6      -621.068 6        37.420               
G29  27814187.625 6 146164515.345 6       217.875 6        40.140               
G26  24361964.579 7 128022964.640 7      1029.572 7        42.019               
> 2024 12 27 02 45 10.0000000  0  4                                             
G32  25075587.401 7 131773080.225 7      -490.421 7        46.510               
G28  25798572.127 6 135572479.960 6      -626.321 6        37.489               
G29  27814145.132 6 146164300.999 6       216.294 6        40.388               
G26  24361765.464 6 128021931.264 6      1035.966 6        41.599               
> 2024 12 27 02 45 11.0000000  0  4                                             
G32  25075681.285 7 131773570.835 7      -493.190 7        46.702               
G28  25798690.634 6 135573104.339 6      -631.159 6        36.813               
G29  27814099.548 6 146164087.149 6       218.518 6        40.105               
G26  24361572.282 6 128020898.487 6      1034.514 6        41.819               
> 2024 12 27 02 45 12.0000000  0  4                                             
G32  25075774.061 7 131774061.949 7      -491.472 7        46.191               
G28  25798799.135 6 135573728.823 6      -633.227 6        36.738               
G29  27814047.156 6 146163873.862 6       211.442 6        39.390               
G26  24361374.400 6 128019866.326 6      1029.027 6        41.927               
> 2024 12 27 02 45 13.0000000  0  4                                             
G32  25075865.729 7 131774553.492 7      -489.741 7        46.436               
G28  25798925.111 6 135574353.285 6      -616.723 6        36.938               
G29  27814010.257 6 146163661.020 6       214.647 6        39.253               
G26  24361182.898 6 128018834.726 6      1034.314 6        41.883               
> 2024 12 27 02 45 14.0000000  0  4                                             
G32  25075960.006 7 131775045.497 7      -494.176 7        46.735               
G28  25799044.101 6 135574977.830 6      -625.913 6        36.814               
G29  27813959.830 6 146163448.678 6       214.743 6        38.888               
G26  24360983.962 6 128017803.712 6      1027.049 6        41.675               
> 2024 12 27 02 45 15.0000000  0  4                                             
G32  25076050.441 7 131775537.966 7      -494.195 7        45.819               
G28  25799156.712 6 135575602.373 6      -616.389 6        37.132               
G29  27813913.228 6 146163236.867 6       204.265 6        37.525               
G26  24360782.811 6 128016773.275 6      1031.552 6        41.898               
> 2024 12 27 02 45 16.0000000  0  4                                             
G32  25076144.200 7 131776030.898 7      -492.026 7        45.382               
G28  25799279.526 6 135576226.988 6      -630.512 6        37.090               
G29  27813874.291 6 146163025.539 6       214.465 6        37.229               
G26  24360590.915 6 128015743.406 6      1033.203 6        41.878               
> 2024 12 27 02 45 17.0000000  0  4                                             
G32  25076234.278 7 131776524.285 7      -494.030 7        45.356               
G28  25799406.020 6 135576851.593 6      -624.951 6        37.777               
G29  27813823.061 6 146162814.698 6       220.490 6        36.766               
G26  24360397.680 6 128014714.130 6      1030.248 6        41.522               
> 2024 12 27 02 45 18.0000000  0  4                                             
G32  25076327.125 7 131777018.115 7      -495.340 7        45.019               
G28  25799517.452 6 135577476.268 6      -624.844 6        37.755               
G29  27813799.885 6 146162604.380 6       214.302 6        36.613               
G26  24360194.044 6 128013685.416 6      1027.553 6        41.473               
> 2024 12 27 02 45 19.0000000  0  4                                             
G32  25076423.797 7 131777512.398 7      -494.733 7        44.792               
G28  25799634.118 6 135578100.962 6      -627.359 6        37.790               
G29  27813753.979 6 146162394.516 6       208.954 6        36.798               
G26  24360000.952 6 128012657.257 6      1031.546 6        41.508               
> 2024 12 27 02 45 20.0000000  0  4                                             
G32  25076517.931 7 131778007.142 7      -497.619 7        45.178               
G28  25799760.720 6 135578725.708 6      -622.302 6        37.847               
G29  27813729.642 6 146162185.153 6       208.614 6        38.020               
G26  24359803.588 6 128011629.698 6      1035.674 6        41.173               
> 2024 12 27 02 45 21.0000000  0  4                                             
G32  25076615.638 7 131778502.335 7      -491.616 7        45.393               
G28  25799881.998 6 135579350.466 6      -625.724 6        37.531               
G29  27813693.189 6 146161976.273 6       211.986 6        38.810               
G26  24359599.810 6 128010602.744 6      1016.674 6        41.391               
> 2024 12 27 02 45 22.0000000  0  4                                             
G32  25076709.540 7 131778998.034 7      -493.946 7        45.445               
G28  25799999.308 6 135579975.289 6      -622.672 6        38.304               
G29  27813657.933 6 146161767.948 6       209.719 6        38.931               
G26  24359408.665 6 128009576.332 6      1024.547 6        41.549               
> 2024 12 27 02 45 23.0000000  0  4                                             
G32  25076804.871 7 131779494.206 7      -497.494 7        45.045               
G28  25800120.603 6 135580600.159 6      -625.876 6        38.687               
G29  27813627.877 6 146161560.098 6       209.054 6        39.572               
G26  24359216.126 6 128008550.550 6      1032.777 6        41.905               
> 2024 12 27 02 45 24.0000000  0  4                                             
G32  25076901.436 7 131779990.814 7      -499.044 7        45.198               
G28  25800241.790 6 135581225.039 6      -621.202 6        39.088               
G29  27813590.460 6 146161352.732 6       200.385 6        40.811               
G26  24359025.035 6 128007525.315 6      1024.641 6        41.836               
> 2024 12 27 02 45 25.0000000  0  4                                             
G32  25076993.586 7 131780487.881 7      -495.752 7        45.037               
G28  25800356.545 6 135581849.993 6      -622.291 6        38.893               
G29  27813552.452 6 146161145.848 6       205.095 6        41.066               
G26  24358831.085 6 128006500.645 6      1029.659 6        41.529               
> 2024 12 27 02 45 26.0000000  0  4                                             
G32  25077087.524 7 131780985.423 7      -496.692 7        44.265               
G28  25800476.518 6 135582474.961 6      -622.356 6        38.825               
G29  27813513.516 6 146160939.497 6       202.440 6        40.919               
G26  24358636.598 6 128005476.588 6      1027.953 6        41.161               
> 2024 12 27 02 45 27.0000000  0  4                                             
G32  25077181.425 7 131781483.396 7      -502.459 7        44.755               
G28  25800596.187 6 135583099.963 6      -628.638 6        38.465               
G29  27813472.971 6 146160733.618 6       206.334 6        41.049               
G26  24358443.631 6 128004453.080 6      1024.422 6        41.343               
> 2024 12 27 02 45 28.0000000  0  4                                             
G32  25077276.739 7 131781981.867 7      -500.437 7        45.160               
G28  25800714.301 6 135583725.035 6      -622.002 6        38.614               
G29  27813432.462 6 146160528.260 6       202.132 6        40.455               
G26  24358249.466 6 128003430.181 6      1021.736 6        41.565               
> 2024 12 27 02 45 29.0000000  0  4                                             
G32  25077367.335 7 131782480.823 7      -500.105 7        45.019               
G28  25800837.544 6 135584350.142 6      -615.266 6        38.449               
G29  27813393.758 6 146160323.419 6       202.805 6        39.625               
G26  24358050.494 6 128002407.879 6      1021.819 6        41.141               
> 2024 12 27 02 45 30.0000000  0  4                                             
G32  25077464.935 7 131782980.230 7      -496.639 7        45.200               
G28  25800954.907 6 135584975.334 6      -622.613 6        38.490               
G29  27813356.733 6 146160119.108 6       203.186 6        39.026               
G26  24357855.883 6 128001386.204 6      1017.801 6        41.804               
> 2024 12 27 02 45 31.0000000  0  4                                             
G32  25077556.442 7 131783480.123 7      -495.679 7        44.915               
G28  25801069.573 6 135585600.538 6      -624.367 6        38.633               
G29  27813297.247 6 146159915.286 6       210.071 6        38.469               
G26  24357663.934 6 128000365.045 6      1018.392 6        41.294               
> 2024 12 27 02 45 32.0000000  0  4                                             
G32  25077655.937 7 131783980.450 7      -499.165 7        44.911               
G28  25801193.834 6 135586225.786 6      -621.082 6        38.747               
G29  27813262.081 6 146159711.936 6       200.203 6        37.836               
G26  24357469.161 6 127999344.487 6      1027.274 6        41.498               
> 2024 12 27 02 45 33.0000000  0  4                                             
G32  25077751.215 7 131784481.244 7      -501.115 7        45.140               
G28  25801307.034 6 135586851.066 6      -624.725 6        37.968               
G29  27813213.548 6 146159509.123 6       193.785 6        37.376               
G26  24357275.550 6 127998324.544 6      1015.729 6        41.635               
> 2024 12 27 02 45 34.0000000  0  4                                             
G32  25077849.191 7 131784982.514 7      -504.962 7        45.462               
G28  25801431.510 6 135587476.391 6      -623.187 6        38.090               
G29  27813173.021 6 146159306.809 6       200.750 6        36.275               
G26  24357076.847 6 127997305.138 6      1016.724 6        41.771               
> 2024 12 27 02 45 35.0000000  0  4                                             
G32  25077945.165 7 131785484.206 7      -505.293 7        45.925               
G28  25801548.534 6 135588101.724 6      -622.708 6        38.831               
G29  27813124.882 5 146159104.954 5       197.818 5        35.832               
G26  24356888.418 6 127996286.297 6      1013.258 6        41.453               
> 2024 12 27 02 45 36.0000000  0  4                                             
G32  25078042.676 7 131785986.399 7      -500.796 7        46.697               
G28  25801665.826 6 135588727.149 6      -623.740 6        38.409               
G29  27813085.463 6 146158903.649 6       207.351 6        36.079               
G26  24356698.059 6 127995268.060 6      1021.316 6        41.984               
> 2024 12 27 02 45 37.0000000  0  4                                             
G32  25078137.364 7 131786489.029 7      -502.400 7        46.738               
G28  25801788.855 6 135589352.546 6      -633.725 6        38.713               
G29  27813051.173 5 146158702.784 5       195.196 5        35.990               
G26  24356504.377 7 127994250.383 7      1021.208 7        42.330               
> 2024 12 27 02 45 38.0000000  0  4                                             
G32  25078230.462 7 131786992.164 7      -504.853 7        46.295               
G28  25801907.362 6 135589978.059 6      -623.408 6        38.589               
G29  27813015.131 6 146158502.449 6       201.968 6        36.909               
G26  24356309.354 7 127993233.352 7      1019.455 7        42.108               
> 2024 12 27 02 45 39.0000000  0  4                                             
G32  25078327.241 7 131787495.801 7      -506.788 7        46.032               
G28  25802026.298 6 135590603.632 6      -628.287 6        38.573               
G29  27812984.503 6 146158302.697 6       204.005 6        37.701               
G26  24356119.425 7 127992216.905 7      1014.271 7        42.429               
> 2024 12 27 02 45 40.0000000  0  4                                             
G32  25078422.286 7 131787999.897 7      -503.756 7        45.794               
G28  25802146.789 6 135591229.236 6      -627.734 6        38.027               
G29  27812951.857 6 146158103.441 6       205.966 6        36.620               
G26  24355923.526 7 127991201.052 7      1011.259 7        42.351               
> 2024 12 27 02 45 41.0000000  0  4                                             
G32  25078517.778 7 131788504.441 7      -506.077 7        45.573               
G28  25802266.797 6 135591854.898 6      -634.474 6        38.109               
G29  27812911.079 6 146157904.670 6       197.084 6        37.512               
G26  24355728.772 7 127990185.790 7      1017.690 7        42.228               
> 2024 12 27 02 45 42.0000000  0  4                                             
G32  25078614.860 7 131789009.446 7      -504.633 7        46.095               
G28  25802386.931 6 135592480.593 6      -627.032 6        38.591               
G29  27812872.697 6 146157706.409 6       199.452 6        37.340               
G26  24355539.378 7 127989171.103 7      1013.209 7        42.574               
> 2024 12 27 02 45 43.0000000  0  4                                             
G32  25078711.246 7 131789514.916 7      -507.847 7        45.999               
G28  25802504.527 6 135593106.301 6      -627.439 6        38.465               
G29  27812829.347 6 146157508.622 6       198.609 6        38.007               
G26  24355347.179 6 127988157.002 6      1014.018 6        41.950               
> 2024 12 27 02 45 44.0000000  0  4                                             
G32  25078808.882 7 131790020.829 7      -503.892 7        45.655               
G28  25802628.002 6 135593732.064 6      -626.930 6        38.836               
G29  27812791.250 6 146157311.346 6       198.469 6        38.000               
G26  24355150.781 6 127987143.438 6      1011.074 6        41.629               
> 2024 12 27 02 45 45.0000000  0  4                                             
G32  25078903.195 7 131790527.199 7      -506.717 7        45.523               
G28  25802742.310 6 135594357.840 6      -628.940 6        38.561               
G29  27812758.728 6 146157114.555 6       197.132 6        38.297               
G26  24354953.078 7 127986130.467 7      1018.238 7        42.018               
> 2024 12 27 02 45 46.0000000  0  4                                             
G32  25079003.065 7 131791034.017 7      -506.251 7        46.120               
G28  25802869.877 6 135594983.631 6      -623.345 6        38.604               
G29  27812720.899 6 146156918.259 6       200.302 6        38.457               
G26  24354767.008 7 127985118.048 7      1000.323 7        42.499               
> 2024 12 27 02 45 47.0000000  0  4                                             
G32  25079097.592 7 131791541.286 7      -505.906 7        46.055               
G28  25802983.023 6 135595609.448 6      -622.276 6        38.698               
G29  27812692.523 6 146156722.427 6       202.293 6        39.305               
G26  24354574.308 7 127984106.203 7      1009.780 7        42.287               
> 2024 12 27 02 45 48.0000000  0  4                                             
G32  25079194.639 7 131792049.020 7      -507.954 7        45.942               
G28  25803105.248 6 135596235.332 6      -625.332 6        38.866               
G29  27812664.773 6 146156527.094 6       198.024 6        39.421               
G26  24354382.019 7 127983094.941 7      1012.213 7        42.285               
> 2024 12 27 02 45 49.0000000  0  4                                             
G32  25079293.294 7 131792557.204 7      -510.128 7        45.739               
G28  25803229.402 6 135596861.216 6      -625.300 6        38.940               
G29  27812624.693 6 146156332.260 6       192.673 6        39.969               
G26  24354191.107 7 127982084.247 7      1012.122 7        42.445               
> 2024 12 27 02 45 50.0000000  0  4                                             
G32  25079387.445 7 131793065.853 7      -505.392 7        45.523               
G28  25803342.655 6 135597487.132 6      -628.431 6        38.977               
G29  27812594.440 6 146156137.906 6       203.635 6        40.474               
G26  24353996.066 7 127981074.123 7      1021.355 7        42.319               
> 2024 12 27 02 45 51.0000000  0  4                                             
G32  25079484.331 7 131793574.946 7      -508.580 7        44.858               
G28  25803468.310 6 135598113.080 6      -624.676 6        39.506               
G29  27812557.166 6 146155944.071 6       195.108 6        40.395               
G26  24353804.618 7 127980064.577 7      1005.490 7        42.678               
> 2024 12 27 02 45 52.0000000  0  4                                             
G32  25079578.912 7 131794084.522 7      -509.783 7        45.283               
G28  25803584.048 6 135598739.107 6      -633.315 6        39.157               
G29  27812525.359 6 146155750.709 6       197.276 6        40.823               
G26  24353614.062 7 127979055.625 7      1005.759 7        42.522               
> 2024 12 27 02 45 53.0000000  0  4                                             
G32  25079676.870 7 131794594.536 7      -510.308 7        45.669               
G28  25803701.233 6 135599365.099 6      -626.638 6        39.558               
G29  27812485.439 6 146155557.829 6       191.888 6        40.643               
G26  24353415.216 7 127978047.231 7      1006.304 7        42.673               
> 2024 12 27 02 45 54.0000000  0  4                                             
G32  25079772.827 7 131795104.993 7      -512.497 7        45.404               
G28  25803821.670 6 135599991.152 6      -621.984 6        39.539               
G29  27812452.435 6 146155365.476 6       189.544 6        39.938               
G26  24353224.125 7 127977039.362 7      1007.501 7        42.417               
> 2024 12 27 02 45 55.0000000  0  4                                             
G32  25079868.462 7 131795615.918 7      -511.171 7        44.981               
G28  25803939.838 6 135600617.256 6      -624.413 6        40.156               
G29  27812408.620 6 146155173.611 6       191.934 6        40.135               
G26  24353036.285 7 127976032.123 7      1012.444 7        42.488               
> 2024 12 27 02 45 56.0000000  0  4                                             
G32  25079964.454 7 131796127.317 7      -508.658 7        44.717               
G28  25804063.402 6 135601243.383 6      -627.565 6        40.045               
G29  27812372.596 6 146154982.239 6       195.483 6        39.593               
G26  24352840.852 6 127975025.499 6      1002.715 6        41.939               
> 2024 12 27 02 45 57.0000000  0  4                                             
G32  25080065.932 7 131796639.142 7      -514.632 7        45.279               
G28  25804177.925 6 135601869.533 6      -623.276 6        40.364               
G29  27812327.584 6 146154791.348 6       192.070 6        38.999               
G26  24352649.332 7 127974019.385 7      1007.366 7        42.721               
> 2024 12 27 02 45 58.0000000  0  4                                             
G32  25080160.120 7 131797151.448 7      -511.965 7        44.901               
G28  25804304.152 6 135602495.734 6      -624.216 6        41.166               
G29  27812282.626 6 146154600.983 6       186.036 6        38.365               
G26  24352459.902 7 127973013.873 7      1003.642 7        42.134               
> 2024 12 27 02 45 59.0000000  0  4                                             
G32  25080261.777 7 131797664.237 7      -509.387 7        44.855               
G28  25804415.244 6 135603121.981 6      -626.034 6        40.565               
G29  27812236.113 6 146154411.141 6       186.035 6        37.527               
G26  24352270.634 7 127972008.966 7      1005.703 7        42.042               
> 2024 12 27 02 46 00.0000000  0  4                                             
G32  25080359.645 7 131798177.460 7      -512.866 7        45.165               
G28  25804534.912 6 135603748.252 6      -625.210 6        40.445               
G29  27812187.813 6 146154221.788 6       185.235 6        36.985               
G26  24352080.096 7 127971004.603 7      1008.549 7        42.821               
> 2024 12 27 02 46 01.0000000  0  4                                             
G32  25080457.425 7 131798691.175 7      -511.683 7        45.607               
G28  25804654.992 6 135604374.590 6      -623.207 6        40.360               
G29  27812156.274 6 146154032.965 6       192.794 6        36.884               
G26  24351886.271 7 127970000.851 7      1000.479 7        43.133               
> 2024 12 27 02 46 02.0000000  0  4                                             
G32  25080554.739 7 131799205.377 7      -513.953 7        45.312               
G28  25804778.431 6 135605000.970 6      -626.629 6        40.955               
G29  27812120.983 6 146153844.656 6       188.291 6        37.542               
G26  24351700.505 7 127968997.706 7      1003.907 7        42.740               
> 2024 12 27 02 46 03.0000000  0  4                                             
G32  25080652.286 7 131799720.028 7      -514.305 7        45.986               
G28  25804896.099 6 135605627.382 6      -620.936 6        40.769               
G29  27812089.104 6 146153656.832 6       181.889 6        37.350               
G26  24351505.571 7 127967995.119 7      1003.939 7        42.214               
> 2024 12 27 02 46 04.0000000  0  4                                             
G32  25080749.458 7 131800235.179 7      -518.761 7        45.806               
G28  25805009.281 6 135606253.868 6      -629.656 6        40.248               
G29  27812064.070 6 146153469.526 6       186.502 6        38.169               
G26  24351319.662 7 127966993.150 7      1002.227 7        42.379               
> 2024 12 27 02 46 05.0000000  0  4                                             
G32  25080850.633 7 131800750.768 7      -510.260 7        45.631               
G28  25805133.346 6 135606880.385 6      -632.384 6        40.573               
G29  27812031.673 6 146153282.699 6       184.561 6        38.749               
G26  24351128.017 7 127965991.734 7      1004.896 7        42.770               
> 2024 12 27 02 46 06.0000000  0  4                                             
G32  25080948.930 7 131801266.832 7      -512.500 7        45.712               
G28  25805251.657 6 135607506.918 6      -621.290 6        40.548               
G29  27812008.301 6 146153096.405 6       182.434 6        39.342               
G26  24350939.874 7 127964990.939 7       998.441 7        42.255               
> 2024 12 27 02 46 07.0000000  0  4                                             
G32  25081046.513 7 131801783.333 7      -519.017 7        45.455               
G28  25805368.931 6 135608133.498 6      -629.997 6        40.385               
G29  27811977.602 6 146152910.561 6       190.272 6        39.866               
G26  24350743.851 7 127963990.660 7      1001.429 7        42.018               
> 2024 12 27 02 46 08.0000000  0  4                                             
G32  25081146.133 7 131802300.292 7      -515.492 7        45.544               
G28  25805491.191 6 135608760.094 6      -625.749 6        40.806               
G29  27811945.884 6 146152725.249 6       182.921 6        41.131               
G26  24350557.638 7 127962990.971 7       998.225 7        42.675               
> 2024 12 27 02 46 09.0000000  0  4                                             
G32  25081247.218 7 131802817.740 7      -514.262 7        45.775               
G28  25805603.176 6 135609386.747 6      -623.604 6        40.985               
G29  27811913.523 6 146152540.410 6       184.695 6        41.505               
G26  24350369.280 7 127961991.884 7       993.809 7        42.513               
> 2024 12 27 02 46 10.0000000  0  4                                             
G32  25081346.105 7 131803335.620 7      -517.464 7        46.125               
G28  25805719.700 6 135610013.431 6      -623.642 6        40.656               
G29  27811868.744 6 146152356.078 6       184.055 6        41.571               
G26  24350178.135 7 127960993.328 7       999.292 7        42.172               
> 2024 12 27 02 46 11.0000000  0  4                                             
G32  25081444.778 7 131803853.966 7      -520.982 7        46.054               
G28  25805839.834 6 135610640.125 6      -621.924 6        40.744               
G29  27811839.564 6 146152172.226 6       181.257 6        40.851               
G26  24349982.219 6 127959995.383 6       997.761 6        41.823               
> 2024 12 27 02 46 12.0000000  0  4                                             
G32  25081545.791 7 131804372.763 7      -519.231 7        46.479               
G28  25805956.876 6 135611266.854 6      -622.106 6        39.859               
G29  27811797.714 6 146151988.893 6       184.208 6        41.144               
G26  24349797.865 6 127958997.995 6       996.409 6        41.835               
> 2024 12 27 02 46 13.0000000  0  4                                             
G32  25081644.446 7 131804892.018 7      -518.637 7        46.187               
G28  25806079.993 6 135611893.631 6      -631.159 6        39.894               
G29  27811766.586 6 146151806.037 6       185.547 6        40.801               
G26  24349603.360 6 127958001.189 6       990.156 6        41.830               
> 2024 12 27 02 46 14.0000000  0  4                                             
G32  25081741.904 7 131805411.726 7      -521.908 7        46.308               
G28  25806193.676 6 135612520.420 6      -622.816 6        40.155               
G29  27811720.484 6 146151623.691 6       177.413 6        40.042               
G26  24349418.237 7 127957004.952 7       994.820 7        42.125               
> 2024 12 27 02 46 15.0000000  0  4                                             
G32  25081845.490 7 131805931.908 7      -518.826 7        46.214               
G28  25806318.777 6 135613147.250 6      -629.372 6        40.074               
G29  27811684.996 6 146151441.860 6       179.830 6        39.908               
G26  24349221.517 6 127956009.278 6       999.912 6        41.787               
> 2024 12 27 02 46 16.0000000  0  4                                             
G32  25081938.320 7 131806452.559 7      -519.797 7        46.136               
G28  25806433.782 6 135613774.149 6      -629.674 6        39.991               
G29  27811645.738 6 146151260.534 6       185.688 6        39.506               
G26  24349034.214 6 127955014.244 6       995.561 6        41.534               
> 2024 12 27 02 46 17.0000000  0  4                                             
G32  25082037.136 7 131806973.684 7      -516.351 7        45.472               
G28  25806551.843 6 135614401.081 6      -630.922 6        39.893               
G29  27811622.151 6 146151079.713 6       180.776 6        39.490               
G26  24348844.070 6 127954019.774 6       995.970 6        41.298               
> 2024 12 27 02 46 18.0000000  0  4                                             
G32  25082132.503 7 131807495.298 7      -521.539 7        45.510               
G28  25806668.617 6 135615028.080 6      -618.678 6        40.362               
G29  27811575.209 6 146150899.406 6       179.149 6        39.176               
G26  24348652.514 6 127953025.899 6       995.457 6        41.271               
> 2024 12 27 02 46 19.0000000  0  4                                             
G32  25082231.962 7 131808017.352 7      -517.675 7        45.550               
G28  25806786.195 6 135615655.087 6      -629.312 6        39.961               
G29  27811545.082 6 146150719.581 6       185.591 6        39.526               
G26  24348461.226 6 127952032.581 6       991.751 6        40.982               
> 2024 12 27 02 46 20.0000000  0  4                                             
G32  25082327.364 7 131808539.861 7      -523.883 7        45.385               
G28  25806901.307 6 135616282.137 6      -631.589 6        39.705               
G29  27811513.257 6 146150540.279 6       178.322 6        39.512               
G26  24348266.918 6 127951039.844 6       994.705 6        40.509               
> 2024 12 27 02 46 21.0000000  0  4                                             
G32  25082430.326 7 131809062.845 7      -524.414 7        45.254               
G28  25807024.711 6 135616909.228 6      -622.787 6        39.205               
G29  27811475.822 6 146150361.474 6       181.144 6        39.394               
G26  24348084.636 6 127950047.689 6       998.912 6        40.456               
> 2024 12 27 02 46 22.0000000  0  4                                             
G32  25082529.213 7 131809586.305 7      -522.792 7        44.966               
G28  25807143.343 6 135617536.396 6      -624.317 6        38.998               
G29  27811441.049 6 146150183.183 6       183.526 6        39.375               
G26  24347897.172 6 127949056.171 6       985.756 6        39.911               
> 2024 12 27 02 46 23.0000000  0  4                                             
G32  25082630.745 7 131810110.240 7      -524.412 7        45.319               
G28  25807257.633 6 135618163.581 6      -624.052 6        39.372               
G29  27811413.477 6 146150005.413 6       174.187 6        39.798               
G26  24347704.455 6 127948065.202 6       977.623 6        39.364               
> 2024 12 27 02 46 24.0000000  0  4                                             
G32  25082727.684 7 131810634.649 7      -525.639 7        45.818               
G28  25807379.518 6 135618790.804 6      -629.599 6        39.212               
G29  27811372.378 6 146149828.136 6       168.565 6        40.267               
G26  24347512.702 6 127947074.820 6       988.928 6        39.692               
> 2024 12 27 02 46 25.0000000  0  4                                             
G32  25082830.270 7 131811159.517 7      -525.075 7        46.128               
G28  25807495.756 6 135619418.065 6      -634.396 6        38.519               
G29  27811338.266 6 146149651.348 6       171.745 6        40.650               
G26  24347327.150 6 127946085.038 6       982.479 6        39.653               
> 2024 12 27 02 46 26.0000000  0  4                                             
G32  25082931.462 7 131811684.847 7      -525.861 7        45.979               
G28  25807618.820 6 135620045.359 6      -624.423 6        38.917               
G29  27811306.852 6 146149475.083 6       172.057 6        40.229               
G26  24347128.697 6 127945095.759 6       992.786 6        39.271               
> 2024 12 27 02 46 27.0000000  0  4                                             
G32  25083030.350 7 131812210.659 7      -529.341 7        46.046               
G28  25807733.450 6 135620672.730 6      -629.130 6        38.818               
G29  27811266.951 6 146149299.318 6       177.345 6        40.756               
G26  24346943.360 6 127944107.122 6       991.924 6        39.074               
> 2024 12 27 02 46 28.0000000  0  4                                             
G32  25083132.257 7 131812736.923 7      -528.997 7        46.136               
G28  25807848.937 6 135621300.124 6      -623.438 6        38.257               
G29  27811240.665 6 146149124.056 6       178.518 6        40.497               
G26  24346751.339 6 127943119.101 6       994.460 6        38.108               
> 2024 12 27 02 46 29.0000000  0  4                                             
G32  25083232.073 7 131813263.653 7      -526.394 7        46.214               
G28  25807975.664 6 135621927.522 6      -630.306 6        38.634               
G29  27811206.553 6 146148949.295 6       169.120 6        40.657               
G26  24346564.983 6 127942131.600 6       990.368 6        38.419               
> 2024 12 27 02 46 30.0000000  0  4                                             
G32  25083329.513 7 131813790.859 7      -525.538 7        46.336               
G28  25808093.743 6 135622555.016 6      -620.595 6        38.347               
G29  27811179.732 6 146148775.054 6       178.755 6        40.507               
G26  24346386.221 6 127941144.724 6       985.054 6        38.609               
> 2024 12 27 02 46 31.0000000  0  4                                             
G32  25083430.294 7 131814318.517 7      -528.607 7        45.914               
G28  25808214.823 6 135623182.514 6      -631.732 6        38.501               
G29  27811145.638 6 146148601.325 6       166.867 6        41.318               
