$GPRMC,024348.39,A,2218.2713475,N,11410.7805727,E,7.39,345.18,271224,0.0,E,A*35
$GPGGA,024348.39,2218.2713475,N,11410.7805727,E,1,04,1.0,20.979,M,0.000,M,0.0,*44
$GPGSA,A,3,26,28,29,32,,,,,,,,,4.9,2.5,4.2,1*27
$GPGSV,1,1,04,26,69,240,43,28,47,010,41,29,22,079,42,32,60,090,44,1*6A
$GPRMC,024348.49,A,2218.2727812,N,11410.7828580,E,4.32,254.94,271224,0.0,E,A*35
$GPGGA,024348.49,2218.2727812,N,11410.7828580,E,1,04,1.0,17.814,M,0.000,M,0.0,*47
$GPGSA,A,3,26,28,29,32,,,,,,,,,4.9,2.5,4.2,1*27
$GPGSV,1,1,04,26,69,240,42,28,47,010,41,29,22,079,42,32,60,090,44,1*6B
$GPRMC,024348.59,A,2218.2762768,N,11410.7843750,E,8.70,291.25,271224,0.0,E,A*3C
$GPGGA,024348.59,2218.2762768,N,11410.7843750,E,1,04,1.0,30.565,M,0.000,M,0.0,*49
$GPGSA,A,3,26,28,29,32,,,,,,,,,4.9,2.5,4.2,1*27
$GPGSV,1,1,04,26,69,240,43,28,47,010,41,29,22,079,42,32,60,090,44,1*6A
$GPRMC,024348.69,A,2218.2752042,N,11410.7822200,E,2.16,154.19,271224,0.0,E,A*3B
$GPGGA,024348.69,2218.2752042,N,11410.7822200,E,1,04,1.0,21.977,M,0.000,M,0.0,*4E
$GPGSA,A,3,26,28,29,32,,,,,,,,,4.9,2.5,4.2,1*27
$GPGSV,1,1,04,26,69,240,43,28,47,010,41,29,22,079,42,32,60,090,45,1*6B
$GPRMC,024348.79,A,2218.2731262,N,11410.7837244,E,6.27,278.58,271224,0.0,E,A*35
$GPGGA,024348.79,2218.2731262,N,11410.7837244,E,1,04,1.0,14.557,M,0.000,M,0.0,*46
$GPGSA,A,3,26,28,29,32,,,,,,,,,4.9,2.5,4.2,1*27
$GPGSV,1,1,04,26,69,240,42,28,47,010,41,29,22,079,42,32,60,090,45,1*6A
$GPRMC,024348.89,A,2218.2744286,N,11410.7827814,E,6.21,324.37,271224,0.0,E,A*3B
$GPGGA,024348.89,2218.2744286,N,11410.7827814,E,1,04,1.0,5.341,M,0.000,M,0.0,*7E
$GPGSA,A,3,26,28,29,32,,,,,,,,,4.9,2.5,4.2,1*27
$GPGSV,1,1,04,26,69,240,43,28,47,010,41,29,22,079,42,32,60,090,45,1*6B
$GPRMC,024348.99,A,2218.2713755,N,11410.7824866,E,1.19,324.37,271224,0.0,E,A*39
$GPGGA,024348.99,2218.2713755,N,11410.7824866,E,1,04,1.0,2.289,M,0.000,M,0.0,*72
$GPGSA,A,3,26,28,29,32,,,,,,,,,4.9,2.5,4.2,1*27
$GPGSV,1,1,04,26,69,240,43,28,47,010,42,29,22,079,42,32,60,090,45,1*68
$GPRMC,024349.09,A,2218.2691026,N,11410.7796245,E,3.65,263.96,271224,0.0,E,A*34
$GPGGA,024349.09,2218.2691026,N,11410.7796245,E,1,04,1.0,-0.823,M,0.000,M,0.0,*5A
$GPGSA,A,3,26,28,29,32,,,,,,,,,4.9,2.5,4.2,1*27
$GPGSV,1,1,04,26,69,240,43,28,47,010,42,29,22,079,42,32,60,090,45,1*68
$GPRMC,024349.19,A,2218.2712855,N,11410.7808541,E,4.26,46.90,271224,0.0,E,A*0B
$GPGGA,024349.19,2218.2712855,N,11410.7808541,E,1,04,1.0,6.073,M,0.000,M,0.0,*70
$GPGSA,A,3,26,28,29,32,,,,,,,,,4.9,2.5,4.2,1*27
$GPGSV,1,1,04,26,69,240,42,28,47,010,42,29,22,079,42,32,60,090,45,1*69
$GPRMC,024349.29,A,2218.2699008,N,11410.7792598,E,4.17,57.49,271224,0.0,E,A*04
$GPGGA,024349.29,2218.2699008,N,11410.7792598,E,1,04,1.0,2.615,M,0.000,M,0.0,*7B
$GPGSA,A,3,26,28,29,32,,,,,,,,,4.9,2.5,4.2,1*27
$GPGSV,1,1,04,26,69,240,42,28,47,010,42,29,22,079,42,32,60,090,45,1*69
$GPRMC,024349.39,A,2218.2723889,N,11410.7800484,E,3.68,169.78,271224,0.0,E,A*3D
$GPGGA,024349.39,2218.2723889,N,11410.7800484,E,1,04,1.0,12.219,M,0.000,M,0.0,*4A
$GPGSA,A,3,26,28,29,32,,,,,,,,,4.9,2.5,4.2,1*27
$GPGSV,1,1,04,26,69,240,42,28,47,010,42,29,22,079,42,32,60,090,45,1*69
$GPRMC,024349.49,A,2218.2734421,N,11410.7806080,E,4.04,90.66,271224,0.0,E,A*01
$GPGGA,024349.49,2218.2734421,N,11410.7806080,E,1,04,1.0,18.325,M,0.000,M,0.0,*47
$GPGSA,A,3,26,28,29,32,,,,,,,,,4.9,2.5,4.2,1*27
$GPGSV,1,1,04,26,69,240,42,28,47,010,42,29,22,079,42,32,60,090,45,1*69
$GPRMC,024349.59,A,2218.2718386,N,11410.7789238,E,8.06,100.90,271224,0.0,E,A*32
$GPGGA,024349.59,2218.2718386,N,11410.7789238,E,1,04,1.0,12.823,M,0.000,M,0.0,*4C
$GPGSA,A,3,26,28,29,32,,,,,,,,,4.9,2.5,4.2,1*27
$GPGSV,1,1,04,26,69,240,42,28,47,010,42,29,22,079,42,32,60,090,45,1*69
$GPRMC,024349.69,A,2218.2737947,N,11410.7795167,E,3.13,166.84,271224,0.0,E,A*35
$GPGGA,024349.69,2218.2737947,N,11410.7795167,E,1,04,1.0,7.983,M,0.000,M,0.0,*7E
$GPGSA,A,3,26,28,29,32,,,,,,,,,4.9,2.5,4.2,1*27
$GPGSV,1,1,04,26,69,240,42,28,47,010,42,29,22,079,42,32,60,090,46,1*6A
$GPRMC,024349.79,A,2218.2698415,N,11410.7817572,E,4.57,91.68,271224,0.0,E,A*03
$GPGGA,024349.79,2218.2698415,N,11410.7817572,E,1,04,1.0,5.405,M,0.000,M,0.0,*75
$GPGSA,A,3,26,28,29,32,,,,,,,,,4.9,2.5,4.2,1*27
$GPGSV,1,1,04,26,69,240,42,28,47,010,41,29,22,079,42,32,60,090,45,1*6A
$GPRMC,024349.89,A,2218.2703781,N,11410.7823835,E,3.81,353.79,271224,0.0,E,A*39
$GPGGA,024349.89,2218.2703781,N,11410.7823835,E,1,04,1.0,14.495,M,0.000,M,0.0,*47
$GPGSA,A,3,26,28,29,32,,,,,,,,,4.9,2.5,4.2,1*27
$GPGSV,1,1,04,26,69,240,42,28,47,010,41,29,22,079,42,32,60,090,45,1*6A
$GPRMC,024349.99,A,2218.2757223,N,11410.7814097,E,10.53,269.62,271224,0.0,E,A*0F
$GPGGA,024349.99,2218.2757223,N,11410.7814097,E,1,04,1.0,22.382,M,0.000,M,0.0,*4A
$GPGSA,A,3,26,28,29,32,,,,,,,,,4.9,2.5,4.2,1*27
$GPGSV,1,1,04,26,69,240,42,28,47,010,41,29,22,079,42,32,60,090,45,1*6A
$GPRMC,024350.09,A,2218.2802918,N,11410.7811417,E,5.69,41.14,271224,0.0,E,A*0F
$GPGGA,024350.09,2218.2802918,N,11410.7811417,E,1,04,1.0,18.020,M,0.000,M,0.0,*4C
$GPGSA,A,3,26,28,29,32,,,,,,,,,4.9,2.5,4.2,1*27
$GPGSV,1,1,04,26,69,240,42,28,47,010,41,29,22,079,42,32,60,090,45,1*6A
$GPRMC,024350.19,A,2218.2772126,N,11410.7788127,E,6.73,28.97,271224,0.0,E,A*06
$GPGGA,024350.19,2218.2772126,N,11410.7788127,E,1,04,1.0,-1.304,M,0.000,M,0.0,*59
$GPGSA,A,3,26,28,29,32,,,,,,,,,4.9,2.5,4.2,1*27
$GPGSV,1,1,04,26,69,240,43,28,47,010,40,29,22,079,42,32,60,090,45,1*6A
$GPRMC,024350.29,A,2218.2757217,N,11410.7807162,E,3.65,117.27,271224,0.0,E,A*3E
$GPGGA,024350.29,2218.2757217,N,11410.7807162,E,1,04,1.0,4.342,M,0.000,M,0.0,*7F
$GPGSA,A,3,26,28,29,32,,,,,,,,,4.9,2.5,4.2,1*27
$GPGSV,1,1,04,26,69,240,43,28,47,011,41,29,22,079,42,32,60,090,45,1*6A
$GPRMC,024350.39,A,2218.2712628,N,11410.7808182,E,3.90,144.09,271224,0.0,E,A*37
$GPGGA,024350.39,2218.2712628,N,11410.7808182,E,1,04,1.0,-1.147,M,0.000,M,0.0,*59
$GPGSA,A,3,26,28,29,32,,,,,,,,,4.9,2.5,4.2,1*27
$GPGSV,1,1,04,26,69,240,42,28,47,011,40,29,22,079,42,32,60,090,45,1*6A
$GPRMC,024350.49,A,2218.2710106,N,11410.7817565,E,2.69,42.97,271224,0.0,E,A*0D
$GPGGA,024350.49,2218.2710106,N,11410.7817565,E,1,04,1.0,-4.269,M,0.000,M,0.0,*5E
$GPGSA,A,3,26,28,29,32,,,,,,,,,4.9,2.5,4.2,1*27
$GPGSV,1,1,04,26,69,240,43,28,47,011,40,29,22,079,42,32,60,090,45,1*6B
$GPRMC,024350.59,A,2218.2724848,N,11410.7816478,E,2.87,246.47,271224,0.0,E,A*3F
$GPGGA,024350.59,2218.2724848,N,11410.7816478,E,1,04,1.0,6.422,M,0.000,M,0.0,*71
$GPGSA,A,3,26,28,29,32,,,,,,,,,4.9,2.5,4.2,1*27
$GPGSV,1,1,04,26,69,240,43,28,47,011,41,29,22,079,41,32,60,090,45,1*69
$GPRMC,024350.69,A,2218.2739775,N,11410.7816292,E,3.98,209.40,271224,0.0,E,A*30
$GPGGA,024350.69,2218.2739775,N,11410.7816292,E,1,04,1.0,6.912,M,0.000,M,0.0,*73
$GPGSA,A,3,26,28,29,32,,,,,,,,,4.9,2.5,4.2,1*27
$GPGSV,1,1,04,26,69,240,43,28,47,011,41,29,22,079,41,32,60,090,45,1*69
$GPRMC,024350.79,A,2218.2717182,N,11410.7793885,E,1.74,209.40,271224,0.0,E,A*3D
$GPGGA,024350.79,2218.2717182,N,11410.7793885,E,1,04,1.0,-5.063,M,0.000,M,0.0,*5F
$GPGSA,A,3,26,28,29,32,,,,,,,,,4.9,2.5,4.2,1*27
$GPGSV,1,1,04,26,69,240,43,28,47,011,41,29,22,079,41,32,60,090,45,1*69
$GPRMC,024350.89,A,2218.2730889,N,11410.7766490,E,3.12,319.88,271224,0.0,E,A*31
$GPGGA,024350.89,2218.2730889,N,11410.7766490,E,1,04,1.0,-12.120,M,0.000,M,0.0,*65
$GPGSA,A,3,26,28,29,32,,,,,,,,,4.9,2.5,4.2,1*27
$GPGSV,1,1,04,26,69,240,43,28,47,011,41,29,22,079,41,32,60,090,44,1*68
$GPRMC,024350.99,A,2218.2753398,N,11410.7804686,E,2.54,335.16,271224,0.0,E,A*3A
$GPGGA,024350.99,2218.2753398,N,11410.7804686,E,1,04,1.0,2.568,M,0.000,M,0.0,*70
$GPGSA,A,3,26,28,29,32,,,,,,,,,4.9,2.5,4.2,1*27
$GPGSV,1,1,04,26,69,240,43,28,47,011,41,29,22,079,41,32,60,090,44,1*68
$GPRMC,024351.09,A,2218.2750833,N,11410.7811708,E,3.88,127.46,271224,0.0,E,A*3C
$GPGGA,024351.09,2218.2750833,N,11410.7811708,E,1,04,1.0,-2.961,M,0.000,M,0.0,*5A
$GPGSA,A,3,26,28,29,32,,,,,,,,,4.9,2.5,4.2,1*27
$GPGSV,1,1,04,26,69,240,43,28,47,011,41,29,22,079,41,32,60,090,45,1*69
$GPRMC,024351.19,A,2218.2728117,N,11410.7787902,E,5.33,334.92,271224,0.0,E,A*36
$GPGGA,024351.19,2218.2728117,N,11410.7787902,E,1,04,1.0,-10.369,M,0.000,M,0.0,*6E
$GPGSA,A,3,26,28,29,32,,,,,,,,,4.9,2.5,4.2,1*27
$GPGSV,1,1,04,26,69,240,43,28,47,011,41,29,22,079,41,32,60,090,45,1*69
$GPRMC,024351.29,A,2218.2704663,N,11410.7796357,E,4.85,134.66,271224,0.0,E,A*30
$GPGGA,024351.29,2218.2704663,N,11410.7796357,E,1,04,1.0,-10.025,M,0.000,M,0.0,*66
$GPGSA,A,3,26,28,29,32,,,,,,,,,4.9,2.5,4.2,1*27
$GPGSV,1,1,04,26,69,240,43,28,47,011,41,29,22,079,41,32,60,090,45,1*69
$GPRMC,024351.39,A,2218.2702012,N,11410.7833149,E,9.28,219.48,271224,0.0,E,A*30
$GPGGA,024351.39,2218.2702012,N,11410.7833149,E,1,04,1.0,6.744,M,0.000,M,0.0,*76
$GPGSA,A,3,26,28,29,32,,,,,,,,,4.9,2.5,4.2,1*27
$GPGSV,1,1,04,26,69,240,43,28,47,011,41,29,22,079,41,32,60,090,45,1*69
$GPRMC,024351.49,A,2218.2716693,N,11410.7808843,E,7.97,35.27,271224,0.0,E,A*09
$GPGGA,024351.49,2218.2716693,N,11410.7808843,E,1,04,1.0,-0.318,M,0.000,M,0.0,*56
$GPGSA,A,3,26,28,29,32,,,,,,,,,4.9,2.5,4.2,1*27
$GPGSV,1,1,04,26,69,240,43,28,47,011,41,29,22,079,41,32,60,090,45,1*69
$GPRMC,024351.59,A,2218.2740663,N,11410.7790932,E,3.57,26.98,271224,0.0,E,A*03
$GPGGA,024351.59,2218.2740663,N,11410.7790932,E,1,04,1.0,-5.236,M,0.000,M,0.0,*5A
$GPGSA,A,3,26,28,29,32,,,,,,,,,4.9,2.5,4.2,1*27
$GPGSV,1,1,04,26,69,240,43,28,47,011,41,29,22,079,41,32,60,090,45,1*69
$GPRMC,024351.69,A,2218.2722163,N,11410.7765383,E,5.38,45.22,271224,0.0,E,A*02
$GPGGA,024351.69,2218.2722163,N,11410.7765383,E,1,04,1.0,-22.782,M,0.000,M,0.0,*6F
$GPGSA,A,3,26,28,29,32,,,,,,,,,4.9,2.5,4.2,1*27
$GPGSV,1,1,04,26,69,240,43,28,47,011,41,29,22,079,41,32,60,090,45,1*69
$GPRMC,024351.79,A,2218.2721463,N,11410.7805322,E,4.40,167.69,271224,0.0,E,A*37
$GPGGA,024351.79,2218.2721463,N,11410.7805322,E,1,04,1.0,-18.235,M,0.000,M,0.0,*6A
$GPGSA,A,3,26,28,29,32,,,,,,,,,4.9,2.5,4.2,1*27
$GPGSV,1,1,04,26,69,240,43,28,47,011,41,29,22,079,41,32,60,090,45,1*69
$GPRMC,024351.89,A,2218.2740099,N,11410.7838849,E,2.14,63.15,271224,0.0,E,A*0F
$GPGGA,024351.89,2218.2740099,N,11410.7838849,E,1,04,1.0,-1.183,M,0.000,M,0.0,*5D
$GPGSA,A,3,26,28,29,32,,,,,,,,,4.9,2.5,4.2,1*27
$GPGSV,1,1,04,26,69,240,43,28,47,011,41,29,22,079,41,32,60,090,45,1*69
$GPRMC,024351.99,A,2218.2699754,N,11410.7853159,E,4.12,240.84,271224,0.0,E,A*33
$GPGGA,024351.99,2218.2699754,N,11410.7853159,E,1,04,1.0,-2.065,M,0.000,M,0.0,*50
$GPGSA,A,3,26,28,29,32,,,,,,,,,4.9,2.5,4.2,1*27
$GPGSV,1,1,04,26,69,240,43,28,47,011,40,29,22,079,41,32,60,090,45,1*68
$GPRMC,024352.09,A,2218.2750206,N,11410.7830804,E,4.60,69.85,271224,0.0,E,A*06
$GPGGA,024352.09,2218.2750206,N,11410.7830804,E,1,04,1.0,1.210,M,0.000,M,0.0,*76
$GPGSA,A,3,26,28,29,32,,,,,,,,,4.9,2.5,4.2,1*27
$GPGSV,1,1,04,26,69,240,43,28,47,011,41,29,22,079,41,32,60,090,45,1*69
$GPRMC,024352.19,A,2218.2740225,N,11410.7792697,E,3.50,254.43,271224,0.0,E,A*36
$GPGGA,024352.19,2218.2740225,N,11410.7792697,E,1,04,1.0,-3.937,M,0.000,M,0.0,*55
$GPGSA,A,3,26,28,29,32,,,,,,,,,4.9,2.5,4.2,1*27
$GPGSV,1,1,04,26,69,240,43,28,47,011,41,29,22,079,41,32,60,090,45,1*69
$GPRMC,024352.29,A,2218.2726898,N,11410.7829132,E,8.33,231.26,271224,0.0,E,A*30
$GPGGA,024352.29,2218.2726898,N,11410.7829132,E,1,04,1.0,0.263,M,0.000,M,0.0,*79
$GPGSA,A,3,26,28,29,32,,,,,,,,,4.9,2.5,4.2,1*27
$GPGSV,1,1,04,26,69,240,43,28,47,011,41,29,22,079,41,32,60,090,45,1*69
$GPRMC,024352.39,A,2218.2735164,N,11410.7822605,E,3.51,137.76,271224,0.0,E,A*3E
$GPGGA,024352.39,2218.2735164,N,11410.7822605,E,1,04,1.0,9.067,M,0.000,M,0.0,*77
$GPGSA,A,3,26,28,29,32,,,,,,,,,4.9,2.5,4.2,1*27
$GPGSV,1,1,04,26,69,240,43,28,47,011,41,29,22,079,41,32,60,090,45,1*69
$GPRMC,024352.49,A,2218.2754393,N,11410.7833688,E,11.35,66.64,271224,0.0,E,A*36
$GPGGA,024352.49,2218.2754393,N,11410.7833688,E,1,04,1.0,13.888,M,0.000,M,0.0,*4A
$GPGSA,A,3,26,28,29,32,,,,,,,,,4.9,2.5,4.2,1*27
$GPGSV,1,1,04,26,69,240,42,28,47,011,41,29,22,079,41,32,60,090,45,1*68
$GPRMC,024352.59,A,2218.2743303,N,11410.7817858,E,8.02,348.80,271224,0.0,E,A*34
$GPGGA,024352.59,2218.2743303,N,11410.7817858,E,1,04,1.0,8.625,M,0.000,M,0.0,*72
$GPGSA,A,3,26,28,29,32,,,,,,,,,4.9,2.5,4.2,1*27
$GPGSV,1,1,04,26,69,240,42,28,47,011,40,29,22,079,41,32,60,090,45,1*69
$GPRMC,024352.69,A,2218.2714922,N,11410.7796219,E,3.64,193.88,271224,0.0,E,A*32
$GPGGA,024352.69,2218.2714922,N,11410.7796219,E,1,04,1.0,-11.502,M,0.000,M,0.0,*60
$GPGSA,A,3,26,28,29,32,,,,,,,,,4.9,2.5,4.2,1*27
$GPGSV,1,1,04,26,69,240,43,28,47,011,41,29,22,079,41,32,60,090,46,1*6A
$GPRMC,024352.79,A,2218.2698734,N,11410.7761283,E,8.56,58.31,271224,0.0,E,A*0A
$GPGGA,024352.79,2218.2698734,N,11410.7761283,E,1,04,1.0,-22.341,M,0.000,M,0.0,*67
$GPGSA,A,3,26,28,29,32,,,,,,,,,4.9,2.5,4.2,1*27
$GPGSV,1,1,04,26,69,240,43,28,47,011,41,29,22,079,41,32,60,090,46,1*6A
$GPRMC,024352.89,A,2218.2727814,N,11410.7801651,E,3.23,338.19,271224,0.0,E,A*39
$GPGGA,024352.89,2218.2727814,N,11410.7801651,E,1,04,1.0,-7.819,M,0.000,M,0.0,*53
$GPGSA,A,3,26,28,29,32,,,,,,,,,4.9,2.5,4.2,1*27
$GPGSV,1,1,04,26,69,240,43,28,47,011,41,29,22,079,41,32,60,090,46,1*6A
$GPRMC,024352.99,A,2218.2724778,N,11410.7800423,E,4.06,208.31,271224,0.0,E,A*30
$GPGGA,024352.99,2218.2724778,N,11410.7800423,E,1,04,1.0,-2.750,M,0.000,M,0.0,*55
$GPGSA,A,3,26,28,29,32,,,,,,,,,4.9,2.5,4.2,1*27
$GPGSV,1,1,04,26,69,240,43,28,47,011,41,29,22,079,41,32,60,090,46,1*6A
$GPRMC,024353.09,A,2218.2713162,N,11410.7799044,E,11.67,227.48,271224,0.0,E,A*0B
$GPGGA,024353.09,2218.2713162,N,11410.7799044,E,1,04,1.0,-7.223,M,0.000,M,0.0,*5A
$GPGSA,A,3,26,28,29,32,,,,,,,,,4.9,2.5,4.2,1*27
$GPGSV,1,1,04,26,69,240,43,28,47,011,41,29,22,079,41,32,60,090,46,1*6A
$GPRMC,024353.19,A,2218.2719466,N,11410.7813323,E,5.59,5.49,271224,0.0,E,A*35
$GPGGA,024353.19,2218.2719466,N,11410.7813323,E,1,04,1.0,-1.699,M,0.000,M,0.0,*5C
$GPGSA,A,3,26,28,29,32,,,,,,,,,4.9,2.5,4.2,1*27
$GPGSV,1,1,04,26,69,240,43,28,47,011,41,29,22,079,41,32,60,090,46,1*6A
$GPRMC,024353.29,A,2218.2701518,N,11410.7840856,E,2.27,339.83,271224,0.0,E,A*3C
$GPGGA,024353.29,2218.2701518,N,11410.7840856,E,1,04,1.0,-0.062,M,0.000,M,0.0,*52
$GPGSA,A,3,26,28,29,32,,,,,,,,,4.9,2.5,4.2,1*27
$GPGSV,1,1,04,26,69,240,43,28,47,011,41,29,22,079,41,32,60,090,46,1*6A
$GPRMC,024353.39,A,2218.2714893,N,11410.7835906,E,2.89,195.89,271224,0.0,E,A*3B
$GPGGA,024353.39,2218.2714893,N,11410.7835906,E,1,04,1.0,-2.095,M,0.000,M,0.0,*55
$GPGSA,A,3,26,28,29,32,,,,,,,,,4.9,2.5,4.2,1*27
$GPGSV,1,1,04,26,69,240,43,28,47,011,41,29,22,079,41,32,60,090,46,1*6A
$GPRMC,024353.49,A,2218.2740345,N,11410.7791240,E,2.47,223.99,271224,0.0,E,A*38
$GPGGA,024353.49,2218.2740345,N,11410.7791240,E,1,04,1.0,-8.895,M,0.000,M,0.0,*59
$GPGSA,A,3,26,28,29,32,,,,,,,,,4.9,2.5,4.2,1*27
$GPGSV,1,1,04,26,69,240,43,28,47,011,41,29,22,079,41,32,60,090,46,1*6A
$GPRMC,024353.59,A,2218.2731567,N,11410.7805998,E,8.69,201.04,271224,0.0,E,A*37
$GPGGA,024353.59,2218.2731567,N,11410.7805998,E,1,04,1.0,-3.881,M,0.000,M,0.0,*5A
$GPGSA,A,3,26,28,29,32,,,,,,,,,4.9,2.5,4.2,1*27
$GPGSV,1,1,04,26,69,240,43,28,47,011,41,29,22,079,41,32,60,090,45,1*69
$GPRMC,024353.69,A,2218.2700799,N,11410.7835833,E,8.23,318.28,271224,0.0,E,A*3F
$GPGGA,024353.69,2218.2700799,N,11410.7835833,E,1,04,1.0,-10.877,M,0.000,M,0.0,*60
$GPGSA,A,3,26,28,29,32,,,,,,,,,4.9,2.6,4.2,1*24
$GPGSV,1,1,04,26,69,240,43,28,47,011,41,29,22,079,41,32,60,090,45,1*69
$GPRMC,024353.79,A,2218.2702256,N,11410.7847737,E,5.53,95.08,271224,0.0,E,A*0A
$GPGGA,024353.79,2218.2702256,N,11410.7847737,E,1,04,1.0,-7.529,M,0.000,M,0.0,*5B
$GPGSA,A,3,26,28,29,32,,,,,,,,,4.9,2.6,4.2,1*24
$GPGSV,1,1,04,26,69,240,43,28,47,011,41,29,22,079,41,32,60,090,45,1*69
$GPRMC,024353.89,A,2218.2733301,N,11410.7819728,E,3.90,62.14,271224,0.0,E,A*0D
$GPGGA,024353.89,2218.2733301,N,11410.7819728,E,1,04,1.0,1.779,M,0.000,M,0.0,*7C
$GPGSA,A,3,26,28,29,32,,,,,,,,,4.9,2.6,4.2,1*24
$GPGSV,1,1,04,26,69,240,43,28,47,011,41,29,22,079,41,32,60,090,45,1*69
$GPRMC,024353.99,A,2218.2736760,N,11410.7813975,E,1.59,62.14,271224,0.0,E,A*01
$GPGGA,024353.99,2218.2736760,N,11410.7813975,E,1,04,1.0,0.323,M,0.000,M,0.0,*7D
$GPGSA,A,3,26,28,29,32,,,,,,,,,4.9,2.6,4.2,1*24
$GPGSV,1,1,04,26,69,240,43,28,47,011,41,29,22,079,41,32,60,090,45,1*69
$GPRMC,024354.09,A,2218.2755906,N,11410.7820702,E,4.21,271.88,271224,0.0,E,A*35
$GPGGA,024354.09,2218.2755906,N,11410.7820702,E,1,04,1.0,3.424,M,0.000,M,0.0,*75
$GPGSA,A,3,26,28,29,32,,,,,,,,,4.9,2.6,4.2,1*24
$GPGSV,1,1,04,26,69,240,43,28,47,011,41,29,22,079,41,32,60,090,45,1*69
$GPRMC,024354.19,A,2218.2767705,N,11410.7819894,E,2.11,151.67,271224,0.0,E,A*37
$GPGGA,024354.19,2218.2767705,N,11410.7819894,E,1,04,1.0,6.915,M,0.000,M,0.0,*78
$GPGSA,A,3,26,28,29,32,,,,,,,,,4.9,2.6,4.2,1*24
$GPGSV,1,1,04,26,69,240,44,28,47,011,41,29,22,079,41,32,60,090,45,1*6E
$GPRMC,024354.29,A,2218.2768885,N,11410.7820220,E,7.98,253.05,271224,0.0,E,A*32
$GPGGA,024354.29,2218.2768885,N,11410.7820220,E,1,04,1.0,-10.482,M,0.000,M,0.0,*65
$GPGSA,A,3,26,28,29,32,,,,,,,,,4.9,2.6,4.2,1*24
$GPGSV,1,1,04,26,69,240,43,28,47,011,41,29,22,079,41,32,60,090,45,1*69
$GPRMC,024354.39,A,2218.2749777,N,11410.7827528,E,3.06,279.36,271224,0.0,E,A*31
$GPGGA,024354.39,2218.2749777,N,11410.7827528,E,1,04,1.0,-2.190,M,0.000,M,0.0,*58
$GPGSA,A,3,26,28,29,32,,,,,,,,,4.9,2.6,4.2,1*24
$GPGSV,1,1,04,26,69,240,43,28,47,011,41,29,22,079,41,32,60,090,45,1*69
$GPRMC,024354.49,A,2218.2755502,N,11410.7844189,E,3.25,252.04,271224,0.0,E,A*38
$GPGGA,024354.49,2218.2755502,N,11410.7844189,E,1,04,1.0,6.068,M,0.000,M,0.0,*77
$GPGSA,A,3,26,28,29,32,,,,,,,,,4.9,2.6,4.2,1*24
$GPGSV,1,1,04,26,69,240,43,28,47,011,41,29,22,079,41,32,60,090,45,1*69
$GPRMC,024354.59,A,2218.2744205,N,11410.7846461,E,3.32,132.45,271224,0.0,E,A*3E
$GPGGA,024354.59,2218.2744205,N,11410.7846461,E,1,04,1.0,10.241,M,0.000,M,0.0,*49
$GPGSA,A,3,26,28,29,32,,,,,,,,,4.9,2.6,4.2,1*24
$GPGSV,1,1,04,26,69,240,43,28,47,011,41,29,22,079,41,32,60,090,45,1*69
$GPRMC,024354.69,A,2218.2738663,N,11410.7834891,E,4.65,98.92,271224,0.0,E,A*0A
$GPGGA,024354.69,2218.2738663,N,11410.7834891,E,1,04,1.0,2.149,M,0.000,M,0.0,*7B
$GPGSA,A,3,26,28,29,32,,,,,,,,,4.9,2.6,4.2,1*24
$GPGSV,1,1,04,26,69,240,43,28,47,011,41,29,22,079,41,32,60,090,45,1*69
$GPRMC,024354.79,A,2218.2723260,N,11410.7799595,E,4.75,147.63,271224,0.0,E,A*3B
$GPGGA,024354.79,2218.2723260,N,11410.7799595,E,1,04,1.0,-13.796,M,0.000,M,0.0,*6F
$GPGSA,A,3,26,28,29,32,,,,,,,,,4.9,2.6,4.2,1*24
$GPGSV,1,1,04,26,69,240,43,28,47,011,41,29,22,079,40,32,60,090,45,1*68
$GPRMC,024354.89,A,2218.2696217,N,11410.7827087,E,7.25,22.00,271224,0.0,E,A*06
$GPGGA,024354.89,2218.2696217,N,11410.7827087,E,1,04,1.0,-4.808,M,0.000,M,0.0,*5D
$GPGSA,A,3,26,28,29,32,,,,,,,,,4.9,2.6,4.2,1*24
$GPGSV,1,1,04,26,69,240,43,28,47,011,41,29,22,079,40,32,60,090,45,1*68
$GPRMC,024354.99,A,2218.2715804,N,11410.7838438,E,4.19,136.70,271224,0.0,E,A*34
$GPGGA,024354.99,2218.2715804,N,11410.7838438,E,1,04,1.0,-5.714,M,0.000,M,0.0,*53
$GPGSA,A,3,26,28,29,32,,,,,,,,,4.9,2.6,4.2,1*24
$GPGSV,1,1,04,26,69,240,43,28,47,011,41,29,22,079,40,32,60,090,45,1*68
$GPRMC,024355.09,A,2218.2758480,N,11410.7863034,E,5.68,13.13,271224,0.0,E,A*07
$GPGGA,024355.09,2218.2758480,N,11410.7863034,E,1,04,1.0,1.890,M,0.000,M,0.0,*7E
$GPGSA,A,3,26,28,29,32,,,,,,,,,4.9,2.6,4.2,1*24
$GPGSV,1,1,04,26,69,240,43,28,47,011,41,29,22,079,40,32,60,090,45,1*68
$GPRMC,024355.19,A,2218.2745119,N,11410.7854208,E,3.62,226.12,271224,0.0,E,A*3F
$GPGGA,024355.19,2218.2745119,N,11410.7854208,E,1,04,1.0,4.831,M,0.000,M,0.0,*71
$GPGSA,A,3,26,28,29,32,,,,,,,,,4.9,2.6,4.2,1*24
$GPGSV,1,1,04,26,69,240,43,28,47,011,41,29,22,079,40,32,60,090,45,1*68
$GPRMC,024355.29,A,2218.2723066,N,11410.7844141,E,8.59,31.70,271224,0.0,E,A*09
$GPGGA,024355.29,2218.2723066,N,11410.7844141,E,1,04,1.0,-8.490,M,0.000,M,0.0,*52
$GPGSA,A,3,26,28,29,32,,,,,,,,,4.9,2.6,4.2,1*24
$GPGSV,1,1,04,26,69,240,42,28,47,011,41,29,22,079,40,32,60,090,45,1*69
$GPRMC,024355.39,A,2218.2714940,N,11410.7795634,E,5.86,54.93,271224,0.0,E,A*06
$GPGGA,024355.39,2218.2714940,N,11410.7795634,E,1,04,1.0,-17.624,M,0.000,M,0.0,*6F
$GPGSA,A,3,26,28,29,32,,,,,,,,,4.9,2.6,4.2,1*24
$GPGSV,1,1,04,26,69,240,42,28,47,011,41,29,22,079,40,32,60,090,45,1*69
$GPRMC,024355.49,A,2218.2747579,N,11410.7819270,E,8.50,287.30,271224,0.0,E,A*3D
$GPGGA,024355.49,2218.2747579,N,11410.7819270,E,1,04,1.0,-4.449,M,0.000,M,0.0,*5C
$GPGSA,A,3,26,28,29,32,,,,,,,,,4.9,2.6,4.2,1*24
$GPGSV,1,1,04,26,69,240,42,28,47,011,41,29,22,079,40,32,60,090,45,1*69
$GPRMC,024355.59,A,2218.2748159,N,11410.7862484,E,1.94,287.30,271224,0.0,E,A*35
$GPGGA,024355.59,2218.2748159,N,11410.7862484,E,1,04,1.0,15.882,M,0.000,M,0.0,*43
$GPGSA,A,3,26,28,29,32,,,,,,,,,4.9,2.6,4.2,1*24
$GPGSV,1,1,04,26,69,240,42,28,47,011,41,29,22,079,40,32,60,090,45,1*69
$GPRMC,024355.69,A,2218.2739503,N,11410.7854639,E,6.05,240.35,271224,0.0,E,A*3B
$GPGGA,024355.69,2218.2739503,N,11410.7854639,E,1,04,1.0,17.568,M,0.000,M,0.0,*47
$GPGSA,A,3,26,28,29,32,,,,,,,,,4.9,2.6,4.2,1*24
$GPGSV,1,1,04,26,69,240,42,28,47,011,41,29,22,079,40,32,60,090,45,1*69
$GPRMC,024355.79,A,2218.2761660,N,11410.7831471,E,6.32,156.56,271224,0.0,E,A*39
$GPGGA,024355.79,2218.2761660,N,11410.7831471,E,1,04,1.0,4.644,M,0.000,M,0.0,*7F
$GPGSA,A,3,26,28,29,32,,,,,,,,,4.9,2.6,4.2,1*24
$GPGSV,1,1,04,26,69,240,42,28,47,011,40,29,22,079,40,32,60,090,45,1*68
$GPRMC,024355.89,A,2218.2742859,N,11410.7830818,E,3.67,95.99,271224,0.0,E,A*09
$GPGGA,024355.89,2218.2742859,N,11410.7830818,E,1,04,1.0,-8.772,M,0.000,M,0.0,*52
$GPGSA,A,3,26,28,29,32,,,,,,,,,4.9,2.6,4.2,1*24
$GPGSV,1,1,04,26,69,240,43,28,47,011,40,29,22,079,40,32,60,090,45,1*69
$GPRMC,024355.99,A,2218.2785961,N,11410.7829236,E,4.10,149.89,271224,0.0,E,A*31
$GPGGA,024355.99,2218.2785961,N,11410.7829236,E,1,04,1.0,6.154,M,0.000,M,0.0,*7D
$GPGSA,A,3,26,28,29,32,,,,,,,,,4.9,2.6,4.2,1*24
$GPGSV,1,1,04,26,69,240,43,28,47,011,40,29,22,079,40,32,60,090,45,1*69
$GPRMC,024356.09,A,2218.2743033,N,11410.7853215,E,3.73,274.91,271224,0.0,E,A*35
$GPGGA,024356.09,2218.2743033,N,11410.7853215,E,1,04,1.0,2.856,M,0.000,M,0.0,*70
$GPGSA,A,3,26,28,29,32,,,,,,,,,4.9,2.6,4.2,1*24
$GPGSV,1,1,04,26,69,240,43,28,47,011,41,29,22,079,40,32,60,090,45,1*68
$GPRMC,024356.19,A,2218.2732184,N,11410.7852813,E,5.15,111.80,271224,0.0,E,A*34
$GPGGA,024356.19,2218.2732184,N,11410.7852813,E,1,04,1.0,2.542,M,0.000,M,0.0,*7F
$GPGSA,A,3,26,28,29,32,,,,,,,,,4.9,2.6,4.2,1*24
$GPGSV,1,1,04,26,69,240,43,28,47,011,40,29,22,079,40,32,60,090,45,1*69
$GPRMC,024356.29,A,2218.2743942,N,11410.7850412,E,5.72,49.21,271224,0.0,E,A*0A
$GPGGA,024356.29,2218.2743942,N,11410.7850412,E,1,04,1.0,14.486,M,0.000,M,0.0,*49
$GPGSA,A,3,26,28,29,32,,,,,,,,,4.9,2.6,4.2,1*24
$GPGSV,1,1,04,26,69,240,43,28,47,011,40,29,22,079,40,32,60,090,45,1*69
$GPRMC,024356.39,A,2218.2736326,N,11410.7819747,E,12.84,8.32,271224,0.0,E,A*07
$GPGGA,024356.39,2218.2736326,N,11410.7819747,E,1,04,1.0,-1.712,M,0.000,M,0.0,*5B
$GPGSA,A,3,26,28,29,32,,,,,,,,,4.9,2.6,4.2,1*24
$GPGSV,1,1,04,26,69,240,43,28,47,011,40,29,22,079,40,32,60,090,45,1*69
$GPRMC,024356.49,A,2218.2743332,N,11410.7831150,E,3.97,176.30,271224,0.0,E,A*35
$GPGGA,024356.49,2218.2743332,N,11410.7831150,E,1,04,1.0,5.580,M,0.000,M,0.0,*71
$GPGSA,A,3,26,28,29,32,,,,,,,,,4.9,2.6,4.2,1*24
$GPGSV,1,1,04,26,69,240,43,28,47,011,40,29,22,079,40,32,60,090,45,1*69
$GPRMC,024356.59,A,2218.2755328,N,11410.7853231,E,1.58,176.30,271224,0.0,E,A*39
$GPGGA,024356.59,2218.2755328,N,11410.7853231,E,1,04,1.0,11.917,M,0.000,M,0.0,*4B
$GPGSA,A,3,26,28,29,32,,,,,,,,,4.9,2.6,4.2,1*24
$GPGSV,1,1,04,26,69,240,43,28,47,011,40,29,22,079,40,32,60,090,45,1*69
$GPRMC,024356.69,A,2218.2765815,N,11410.7865039,E,3.60,1.72,271224,0.0,E,A*3D
$GPGGA,024356.69,2218.2765815,N,11410.7865039,E,1,04,1.0,12.584,M,0.000,M,0.0,*44
$GPGSA,A,3,26,28,29,32,,,,,,,,,4.9,2.6,4.2,1*24
$GPGSV,1,1,04,26,69,240,43,28,47,011,40,29,22,079,40,32,60,090,45,1*69
$GPRMC,024356.79,A,2218.2743066,N,11410.7850399,E,4.20,15.33,271224,0.0,E,A*08
$GPGGA,024356.79,2218.2743066,N,11410.7850399,E,1,04,1.0,5.347,M,0.000,M,0.0,*7D
$GPGSA,A,3,26,28,29,32,,,,,,,,,4.9,2.6,4.2,1*24
$GPGSV,1,1,04,26,69,240,43,28,47,011,40,29,22,079,40,32,60,090,45,1*69
$GPRMC,024356.89,A,2218.2740541,N,11410.7836120,E,3.53,357.68,271224,0.0,E,A*3C
$GPGGA,024356.89,2218.2740541,N,11410.7836120,E,1,04,1.0,-0.482,M,0.000,M,0.0,*57
$GPGSA,A,3,26,28,29,32,,,,,,,,,4.9,2.6,4.2,1*24
$GPGSV,1,1,04,26,69,240,43,28,47,011,40,29,22,079,40,32,60,090,45,1*69
$GPRMC,024356.99,A,2218.2726261,N,11410.7845796,E,6.66,21.21,271224,0.0,E,A*0B
$GPGGA,024356.99,2218.2726261,N,11410.7845796,E,1,04,1.0,0.975,M,0.000,M,0.0,*74
$GPGSA,A,3,26,28,29,32,,,,,,,,,4.9,2.6,4.2,1*24
$GPGSV,1,1,04,26,69,240,43,28,47,011,40,29,22,079,40,32,60,090,45,1*69
$GPRMC,024357.09,A,2218.2756946,N,11410.7826620,E,3.60,343.55,271224,0.0,E,A*34
$GPGGA,024357.09,2218.2756946,N,11410.7826620,E,1,04,1.0,4.927,M,0.000,M,0.0,*7F
$GPGSA,A,3,26,28,29,32,,,,,,,,,4.9,2.6,4.2,1*24
$GPGSV,1,1,04,26,69,240,43,28,47,011,40,29,22,079,40,32,60,090,45,1*69
$GPRMC,024357.19,A,2218.2750959,N,11410.7845904,E,0.84,343.55,271224,0.0,E,A*38
$GPGGA,024357.19,2218.2750959,N,11410.7845904,E,1,04,1.0,12.511,M,0.000,M,0.0,*44
$GPGSA,A,3,26,28,29,32,,,,,,,,,4.9,2.6,4.2,1*24
$GPGSV,1,1,04,26,69,240,43,28,47,011,40,29,22,079,40,32,60,090,46,1*6A
$GPRMC,024357.29,A,2218.2745412,N,11410.7810622,E,5.28,335.89,271224,0.0,E,A*35
$GPGGA,024357.29,2218.2745412,N,11410.7810622,E,1,04,1.0,13.404,M,0.000,M,0.0,*4E
$GPGSA,A,3,26,28,29,32,,,,,,,,,4.9,2.6,4.2,1*24
$GPGSV,1,1,04,26,69,240,43,28,47,011,40,29,22,079,40,32,60,090,45,1*69
$GPRMC,024357.39,A,2218.2750504,N,11410.7793256,E,5.82,212.65,271224,0.0,E,A*33
$GPGGA,024357.39,2218.2750504,N,11410.7793256,E,1,04,1.0,2.268,M,0.000,M,0.0,*72
$GPGSA,A,3,26,28,29,32,,,,,,,,,4.9,2.6,4.2,1*24
$GPGSV,1,1,04,26,69,240,43,28,47,011,40,29,22,079,40,32,60,090,45,1*69
$GPRMC,024357.49,A,2218.2755497,N,11410.7827237,E,2.89,13.48,271224,0.0,E,A*0D
$GPGGA,024357.49,2218.2755497,N,11410.7827237,E,1,04,1.0,23.294,M,0.000,M,0.0,*4C
$GPGSA,A,3,26,28,29,32,,,,,,,,,4.9,2.6,4.2,1*24
$GPGSV,1,1,04,26,69,240,43,28,47,011,40,29,22,079,41,32,60,090,45,1*68
$GPRMC,024357.59,A,2218.2768997,N,11410.7836043,E,3.93,271.37,271224,0.0,E,A*3A
$GPGGA,024357.59,2218.2768997,N,11410.7836043,E,1,04,1.0,18.656,M,0.000,M,0.0,*4D
$GPGSA,A,3,26,28,29,32,,,,,,,,,4.9,2.6,4.2,1*24
$GPGSV,1,1,04,26,69,240,43,28,47,011,40,29,22,079,40,32,60,090,45,1*69
$GPRMC,024357.69,A,2218.2736672,N,11410.7863572,E,4.73,248.37,271224,0.0,E,A*32
$GPGGA,024357.69,2218.2736672,N,11410.7863572,E,1,04,1.0,20.208,M,0.000,M,0.0,*42
$GPGSA,A,3,26,28,29,32,,,,,,,,,4.9,2.6,4.2,1*24
$GPGSV,1,1,04,26,69,240,43,28,47,011,40,29,22,079,40,32,60,090,45,1*69
$GPRMC,024357.79,A,2218.2769465,N,11410.7837286,E,3.82,358.93,271224,0.0,E,A*37
$GPGGA,024357.79,2218.2769465,N,11410.7837286,E,1,04,1.0,20.053,M,0.000,M,0.0,*4C
$GPGSA,A,3,26,28,29,32,,,,,,,,,4.9,2.6,4.2,1*24
$GPGSV,1,1,04,26,69,240,43,28,47,011,40,29,22,079,40,32,60,090,45,1*69
$GPRMC,024357.89,A,2218.2774299,N,11410.7829387,E,2.93,9.73,271224,0.0,E,A*36
$GPGGA,024357.89,2218.2774299,N,11410.7829387,E,1,04,1.0,16.129,M,0.000,M,0.0,*4C
$GPGSA,A,3,26,28,29,32,,,,,,,,,4.9,2.6,4.2,1*24
$GPGSV,1,1,04,26,69,240,43,28,47,011,40,29,22,079,41,32,60,090,45,1*68
$GPRMC,024357.99,A,2218.2804225,N,11410.7836345,E,9.39,66.45,271224,0.0,E,A*0F
$GPGGA,024357.99,2218.2804225,N,11410.7836345,E,1,04,1.0,26.703,M,0.000,M,0.0,*4F
$GPGSA,A,3,26,28,29,32,,,,,,,,,4.9,2.6,4.2,1*24
$GPGSV,1,1,04,26,69,240,43,28,47,011,40,29,22,079,41,32,60,090,45,1*68
$GPRMC,024358.09,A,2218.2805291,N,11410.7847223,E,0.95,66.45,271224,0.0,E,A*0F
$GPGGA,024358.09,2218.2805291,N,11410.7847223,E,1,04,1.0,35.089,M,0.000,M,0.0,*47
$GPGSA,A,3,26,28,29,32,,,,,,,,,4.9,2.6,4.2,1*24
$GPGSV,1,1,04,26,69,240,43,28,47,011,40,29,22,079,41,32,60,090,45,1*68
$GPRMC,024358.19,A,2218.2774725,N,11410.7845965,E,3.32,40.07,271224,0.0,E,A*0A
$GPGGA,024358.19,2218.2774725,N,11410.7845965,E,1,04,1.0,32.092,M,0.000,M,0.0,*43
$GPGSA,A,3,26,28,29,32,,,,,,,,,4.9,2.6,4.2,1*24
$GPGSV,1,1,04,26,69,240,42,28,47,011,40,29,22,079,41,32,60,090,45,1*69
$GPRMC,024358.29,A,2218.2722817,N,11410.7831009,E,3.41,270.99,271224,0.0,E,A*36
$GPGGA,024358.29,2218.2722817,N,11410.7831009,E,1,04,1.0,18.339,M,0.000,M,0.0,*47
$GPGSA,A,3,26,28,29,32,,,,,,,,,4.9,2.6,4.2,1*24
$GPGSV,1,1,04,26,69,240,42,28,47,011,40,29,22,079,41,32,60,090,45,1*69
$GPRMC,024358.39,A,2218.2740024,N,11410.7826495,E,2.70,236.69,271224,0.0,E,A*32
$GPGGA,024358.39,2218.2740024,N,11410.7826495,E,1,04,1.0,18.028,M,0.000,M,0.0,*4E
$GPGSA,A,3,26,28,29,32,,,,,,,,,4.9,2.6,4.2,1*24
$GPGSV,1,1,04,26,69,240,42,28,47,011,40,29,22,079,41,32,60,090,45,1*69
$GPRMC,024358.49,A,2218.2755220,N,11410.7839195,E,5.09,128.38,271224,0.0,E,A*3D
$GPGGA,024358.49,2218.2755220,N,11410.7839195,E,1,04,1.0,22.098,M,0.000,M,0.0,*42
$GPGSA,A,3,26,28,29,32,,,,,,,,,4.9,2.6,4.2,1*24
$GPGSV,1,1,04,26,69,240,43,28,47,011,40,29,22,079,41,32,60,090,45,1*68
$GPRMC,024358.59,A,2218.2784220,N,11410.7849735,E,8.85,242.46,271224,0.0,E,A*34
$GPGGA,024358.59,2218.2784220,N,11410.7849735,E,1,04,1.0,25.057,M,0.000,M,0.0,*40
$GPGSA,A,3,26,28,29,32,,,,,,,,,4.9,2.6,4.2,1*24
$GPGSV,1,1,04,26,69,240,42,28,47,011,40,29,22,079,41,32,60,090,45,1*69
$GPRMC,024358.69,A,2218.2747662,N,11410.7848240,E,4.65,13.45,271224,0.0,E,A*0B
$GPGGA,024358.69,2218.2747662,N,11410.7848240,E,1,04,1.0,18.374,M,0.000,M,0.0,*44
$GPGSA,A,3,26,28,29,32,,,,,,,,,4.9,2.6,4.2,1*24
$GPGSV,1,1,04,26,69,240,42,28,47,011,40,29,22,079,41,32,60,090,45,1*69
$GPRMC,024358.79,A,2218.2773962,N,11410.7839034,E,0.51,13.45,271224,0.0,E,A*06
$GPGGA,024358.79,2218.2773962,N,11410.7839034,E,1,04,1.0,20.768,M,0.000,M,0.0,*48
$GPGSA,A,3,26,28,29,32,,,,,,,,,4.9,2.6,4.2,1*24
$GPGSV,1,1,04,26,69,240,42,28,47,011,40,29,22,079,41,32,60,090,45,1*69
$GPRMC,024358.89,A,2218.2770590,N,11410.7819808,E,1.13,13.45,271224,0.0,E,A*09
$GPGGA,024358.89,2218.2770590,N,11410.7819808,E,1,04,1.0,21.224,M,0.000,M,0.0,*4C
$GPGSA,A,3,26,28,29,32,,,,,,,,,4.9,2.6,4.2,1*24
$GPGSV,1,1,04,26,69,240,43,28,47,011,40,29,22,079,41,32,60,090,45,1*68
$GPRMC,024358.99,A,2218.2798659,N,11410.7820771,E,2.28,230.05,271224,0.0,E,A*3F
$GPGGA,024358.99,2218.2798659,N,11410.7820771,E,1,04,1.0,30.886,M,0.000,M,0.0,*44
$GPGSA,A,3,26,28,29,32,,,,,,,,,4.9,2.6,4.2,1*24
$GPGSV,1,1,04,26,69,240,43,28,47,011,39,29,22,079,41,32,60,090,45,1*66
$GPRMC,024359.09,A,2218.2788603,N,11410.7835590,E,7.45,61.00,271224,0.0,E,A*0D
$GPGGA,024359.09,2218.2788603,N,11410.7835590,E,1,04,1.0,35.564,M,0.000,M,0.0,*4F
$GPGSA,A,3,26,28,29,32,,,,,,,,,4.9,2.6,4.2,1*24
$GPGSV,1,1,04,26,69,240,43,28,47,011,39,29,22,079,41,32,60,090,45,1*66
$GPRMC,024359.19,A,2218.2797969,N,11410.7828753,E,1.80,61.00,271224,0.0,E,A*0F
$GPGGA,024359.19,2218.2797969,N,11410.7828753,E,1,04,1.0,33.610,M,0.000,M,0.0,*44
$GPGSA,A,3,26,28,29,32,,,,,,,,,4.9,2.6,4.2,1*24
$GPGSV,1,1,04,26,69,240,43,28,47,011,40,29,22,079,42,32,60,090,45,1*6B
$GPRMC,024359.29,A,2218.2805932,N,11410.7825844,E,2.24,123.11,271224,0.0,E,A*38
$GPGGA,024359.29,2218.2805932,N,11410.7825844,E,1,04,1.0,35.063,M,0.000,M,0.0,*4D
$GPGSA,A,3,26,28,29,32,,,,,,,,,4.9,2.6,4.2,1*24
$GPGSV,1,1,04,26,69,240,43,28,47,011,40,29,22,079,41,32,60,090,45,1*68
$GPRMC,024359.39,A,2218.2785409,N,11410.7838598,E,6.16,156.32,271224,0.0,E,A*3D
$GPGGA,024359.39,2218.2785409,N,11410.7838598,E,1,04,1.0,37.274,M,0.000,M,0.0,*48
$GPGSA,A,3,26,28,29,32,,,,,,,,,4.9,2.6,4.2,1*24
$GPGSV,1,1,04,26,69,240,43,28,47,011,40,29,22,079,41,32,60,090,45,1*68
$GPRMC,024359.49,A,2218.2799599,N,11410.7830741,E,4.19,264.43,271224,0.0,E,A*38
$GPGGA,024359.49,2218.2799599,N,11410.7830741,E,1,04,1.0,39.615,M,0.000,M,0.0,*49
$GPGSA,A,3,26,28,29,32,,,,,,,,,4.9,2.6,4.2,1*24
$GPGSV,1,1,04,26,69,240,43,28,47,011,40,29,22,079,41,32,60,090,45,1*68
$GPRMC,024359.59,A,2218.2789370,N,11410.7809077,E,10.35,65.78,271224,0.0,E,A*31
$GPGGA,024359.59,2218.2789370,N,11410.7809077,E,1,04,1.0,32.754,M,0.000,M,0.0,*4F
$GPGSA,A,3,26,28,29,32,,,,,,,,,4.9,2.6,4.2,1*24
$GPGSV,1,1,04,26,69,240,43,28,47,011,40,29,22,079,41,32,60,090,45,1*68
$GPRMC,024359.69,A,2218.2811810,N,11410.7815549,E,4.90,351.21,271224,0.0,E,A*36
$GPGGA,024359.69,2218.2811810,N,11410.7815549,E,1,04,1.0,39.404,M,0.000,M,0.0,*47
$GPGSA,A,3,26,28,29,32,,,,,,,,,4.9,2.6,4.2,1*24
$GPGSV,1,1,04,26,69,240,43,28,47,011,40,29,22,079,41,32,60,090,45,1*68
$GPRMC,024359.79,A,2218.2806637,N,11410.7829808,E,4.98,2.70,271224,0.0,E,A*34
$GPGGA,024359.79,2218.2806637,N,11410.7829808,E,1,04,1.0,51.995,M,0.000,M,0.0,*47
$GPGSA,A,3,26,28,29,32,,,,,,,,,4.9,2.6,4.2,1*24
$GPGSV,1,1,04,26,69,240,43,28,47,011,40,29,22,079,41,32,60,090,45,1*68
$GPRMC,024359.89,A,2218.2789960,N,11410.7868486,E,3.93,67.52,271224,0.0,E,A*0E
$GPGGA,024359.89,2218.2789960,N,11410.7868486,E,1,04,1.0,45.238,M,0.000,M,0.0,*4B
$GPGSA,A,3,26,28,29,32,,,,,,,,,4.9,2.6,4.2,1*24
$GPGSV,1,1,04,26,69,240,43,28,47,011,40,29,22,079,41,32,60,090,45,1*68
$GPRMC,024359.99,A,2218.2776198,N,11410.7874770,E,5.18,203.51,271224,0.0,E,A*31
$GPGGA,024359.99,2218.2776198,N,11410.7874770,E,1,04,1.0,48.114,M,0.000,M,0.0,*42
$GPGSA,A,3,26,28,29,32,,,,,,,,,4.9,2.6,4.2,1*24
$GPGSV,1,1,04,26,69,240,43,28,47,011,40,29,22,079,41,32,60,090,45,1*68
$GPRMC,024400.09,A,2218.2754335,N,11410.7849390,E,4.71,323.06,271224,0.0,E,A*3D
$GPGGA,024400.09,2218.2754335,N,11410.7849390,E,1,04,1.0,47.301,M,0.000,M,0.0,*48
$GPGSA,A,3,26,28,29,32,,,,,,,,,4.9,2.6,4.2,1*24
$GPGSV,1,1,04,26,69,240,43,28,47,011,40,29,22,079,41,32,60,090,45,1*68
$GPRMC,024400.19,A,2218.2809260,N,11410.7837187,E,1.84,323.06,271224,0.0,E,A*38
$GPGGA,024400.19,2218.2809260,N,11410.7837187,E,1,04,1.0,45.531,M,0.000,M,0.0,*45
$GPGSA,A,3,26,28,29,32,,,,,,,,,4.9,2.6,4.2,1*24
$GPGSV,1,1,04,26,69,240,43,28,47,011,40,29,22,079,42,32,60,090,45,1*6B
$GPRMC,024400.29,A,2218.2775613,N,11410.7853570,E,6.12,275.63,271224,0.0,E,A*38
$GPGGA,024400.29,2218.2775613,N,11410.7853570,E,1,04,1.0,41.465,M,0.000,M,0.0,*48
$GPGSA,A,3,26,28,29,32,,,,,,,,,4.9,2.6,4.2,1*24
$GPGSV,1,1,04,26,69,240,43,28,47,011,40,29,22,079,42,32,60,090,45,1*6B
$GPRMC,024400.39,A,2218.2800255,N,11410.7835056,E,8.69,315.38,271224,0.0,E,A*38
$GPGGA,024400.39,2218.2800255,N,11410.7835056,E,1,04,1.0,38.863,M,0.000,M,0.0,*47
$GPGSA,A,3,26,28,29,32,,,,,,,,,4.9,2.6,4.2,1*24
$GPGSV,1,1,04,26,69,240,43,28,47,011,40,29,22,079,42,32,60,090,45,1*6B
$GPRMC,024400.49,A,2218.2851956,N,11410.7802055,E,3.80,119.91,271224,0.0,E,A*35
$GPGGA,024400.49,2218.2851956,N,11410.7802055,E,1,04,1.0,37.321,M,0.000,M,0.0,*49
$GPGSA,A,3,26,28,29,32,,,,,,,,,4.9,2.6,4.2,1*24
$GPGSV,1,1,04,26,69,240,43,28,47,011,40,29,22,079,42,32,60,090,45,1*6B
$GPRMC,024400.59,A,2218.2810932,N,11410.7828521,E,1.87,119.91,271224,0.0,E,A*38
$GPGGA,024400.59,2218.2810932,N,11410.7828521,E,1,04,1.0,38.316,M,0.000,M,0.0,*4A
$GPGSA,A,3,26,28,29,32,,,,,,,,,4.9,2.6,4.2,1*24
$GPGSV,1,1,04,26,69,240,43,28,47,011,40,29,22,079,42,32,60,090,45,1*6B
$GPRMC,024400.69,A,2218.2818026,N,11410.7840208,E,11.35,67.12,271224,0.0,E,A*36
$GPGGA,024400.69,2218.2818026,N,11410.7840208,E,1,04,1.0,44.388,M,0.000,M,0.0,*43
$GPGSA,A,3,26,28,29,32,,,,,,,,,4.9,2.6,4.2,1*24
$GPGSV,1,1,04,26,69,240,42,28,47,011,40,29,22,079,42,32,60,090,46,1*69
$GPRMC,024400.79,A,2218.2777351,N,11410.7819496,E,4.03,3.49,271224,0.0,E,A*32
$GPGGA,024400.79,2218.2777351,N,11410.7819496,E,1,04,1.0,38.560,M,0.000,M,0.0,*41
$GPGSA,A,3,26,28,29,32,,,,,,,,,4.9,2.6,4.2,1*24
$GPGSV,1,1,04,26,69,240,42,28,47,011,40,29,22,079,42,32,60,090,45,1*6A
$GPRMC,024400.89,A,2218.2796217,N,11410.7825669,E,9.32,77.98,271224,0.0,E,A*0C
$GPGGA,024400.89,2218.2796217,N,11410.7825669,E,1,04,1.0,44.934,M,0.000,M,0.0,*49
$GPGSA,A,3,26,28,29,32,,,,,,,,,4.9,2.6,4.2,1*24
$GPGSV,1,1,04,26,69,240,42,28,47,011,40,29,22,079,42,32,60,090,45,1*6A
$GPRMC,024400.99,A,2218.2829400,N,11410.7825704,E,2.54,77.81,271224,0.0,E,A*0F
$GPGGA,024400.99,2218.2829400,N,11410.7825704,E,1,04,1.0,54.693,M,0.000,M,0.0,*4A
$GPGSA,A,3,26,28,29,32,,,,,,,,,4.9,2.6,4.2,1*24
$GPGSV,1,1,04,26,69,240,43,28,47,011,40,29,22,079,42,32,60,090,45,1*6B
$GPRMC,024401.09,A,2218.2858968,N,11410.7812144,E,5.55,222.51,271224,0.0,E,A*3D
$GPGGA,024401.09,2218.2858968,N,11410.7812144,E,1,04,1.0,52.334,M,0.000,M,0.0,*4F
$GPGSA,A,3,26,28,29,32,,,,,,,,,4.9,2.6,4.2,1*24
$GPGSV,1,1,04,26,69,240,42,28,47,011,40,29,22,079,42,32,60,090,45,1*6A
$GPRMC,024401.19,A,2218.2839470,N,11410.7807966,E,1.62,222.51,271224,0.0,E,A*33
$GPGGA,024401.19,2218.2839470,N,11410.7807966,E,1,04,1.0,37.610,M,0.000,M,0.0,*41
$GPGSA,A,3,26,28,29,32,,,,,,,,,4.9,2.6,4.2,1*24
$GPGSV,1,1,04,26,69,240,42,28,47,011,40,29,22,079,42,32,60,090,45,1*6A
$GPRMC,024401.29,A,2218.2844600,N,11410.7824742,E,1.51,222.51,271224,0.0,E,A*36
$GPGGA,024401.29,2218.2844600,N,11410.7824742,E,1,04,1.0,41.427,M,0.000,M,0.0,*43
$GPGSA,A,3,26,28,29,32,,,,,,,,,4.9,2.6,4.2,1*24
$GPGSV,1,1,04,26,69,240,42,28,47,011,40,29,22,079,42,32,60,090,45,1*6A
$GPRMC,024401.39,A,2218.2805295,N,11410.7823652,E,1.76,222.51,271224,0.0,E,A*38
$GPGGA,024401.39,2218.2805295,N,11410.7823652,E,1,04,1.0,28.996,M,0.000,M,0.0,*40
$GPGSA,A,3,26,28,29,32,,,,,,,,,4.9,2.6,4.2,1*24
$GPGSV,1,1,04,26,69,240,42,28,47,011,40,29,22,079,42,32,60,090,45,1*6A
$GPRMC,024401.49,A,2218.2808974,N,11410.7841582,E,1.59,222.51,271224,0.0,E,A*31
$GPGGA,024401.49,2218.2808974,N,11410.7841582,E,1,04,1.0,48.198,M,0.000,M,0.0,*44
$GPGSA,A,3,26,28,29,32,,,,,,,,,4.9,2.6,4.2,1*24
$GPGSV,1,1,04,26,69,240,42,28,47,011,40,29,22,079,42,32,60,090,45,1*6A
$GPRMC,024401.59,A,2218.2819130,N,11410.7820041,E,1.46,222.51,271224,0.0,E,A*3B
$GPGGA,024401.59,2218.2819130,N,11410.7820041,E,1,04,1.0,39.757,M,0.000,M,0.0,*43
$GPGSA,A,3,26,28,29,32,,,,,,,,,4.9,2.6,4.2,1*24
$GPGSV,1,1,04,26,69,240,42,28,47,011,40,29,22,079,42,32,60,090,45,1*6A
$GPRMC,024401.69,A,2218.2799049,N,11410.7808189,E,5.88,251.50,271224,0.0,E,A*3C
$GPGGA,024401.69,2218.2799049,N,11410.7808189,E,1,04,1.0,36.990,M,0.000,M,0.0,*4D
$GPGSA,A,3,26,28,29,32,,,,,,,,,4.9,2.6,4.2,1*24
$GPGSV,1,1,04,26,69,240,42,28,47,011,40,29,22,079,42,32,60,090,45,1*6A
$GPRMC,024401.79,A,2218.2791751,N,11410.7821187,E,7.58,18.58,271224,0.0,E,A*06
$GPGGA,024401.79,2218.2791751,N,11410.7821187,E,1,04,1.0,40.350,M,0.000,M,0.0,*48
$GPGSA,A,3,26,28,29,32,,,,,,,,,4.9,2.6,4.2,1*24
$GPGSV,1,1,04,26,69,240,42,28,47,011,40,29,22,079,43,32,60,090,45,1*6B
$GPRMC,024401.89,A,2218.2805571,N,11410.7816619,E,1.70,18.58,271224,0.0,E,A*03
$GPGGA,024401.89,2218.2805571,N,11410.7816619,E,1,04,1.0,43.576,M,0.000,M,0.0,*40
$GPGSA,A,3,26,28,29,32,,,,,,,,,4.9,2.6,4.2,1*24
$GPGSV,1,1,04,26,69,240,42,28,47,011,40,29,22,079,43,32,60,090,45,1*6B
$GPRMC,024401.99,A,2218.2800090,N,11410.7831293,E,3.59,316.06,271224,0.0,E,A*31
$GPGGA,024401.99,2218.2800090,N,11410.7831293,E,1,04,1.0,40.563,M,0.000,M,0.0,*4A
$GPGSA,A,3,26,28,29,32,,,,,,,,,4.9,2.6,4.2,1*24
$GPGSV,1,1,04,26,69,240,42,28,47,011,40,29,22,079,43,32,60,090,45,1*6B
$GPRMC,024402.09,A,2218.2850908,N,11410.7835644,E,6.78,19.26,271224,0.0,E,A*04
$GPGGA,024402.09,2218.2850908,N,11410.7835644,E,1,04,1.0,49.355,M,0.000,M,0.0,*4D
$GPGSA,A,3,26,28,29,32,,,,,,,,,4.9,2.6,4.2,1*24
$GPGSV,1,1,04,26,69,240,42,28,47,011,40,29,22,079,43,32,60,090,46,1*68
$GPRMC,024402.19,A,2218.2834866,N,11410.7823125,E,9.23,122.50,271224,0.0,E,A*30
$GPGGA,024402.19,2218.2834866,N,11410.7823125,E,1,04,1.0,49.254,M,0.000,M,0.0,*40
$GPGSA,A,3,26,28,29,32,,,,,,,,,4.9,2.6,4.2,1*24
$GPGSV,1,1,04,26,69,240,42,28,47,011,40,29,22,079,43,32,60,090,46,1*68
$GPRMC,024402.29,A,2218.2811545,N,11410.7818176,E,4.96,317.16,271224,0.0,E,A*33
$GPGGA,024402.29,2218.2811545,N,11410.7818176,E,1,04,1.0,48.717,M,0.000,M,0.0,*45
$GPGSA,A,3,26,28,29,32,,,,,,,,,4.9,2.6,4.2,1*24
$GPGSV,1,1,04,26,69,240,42,28,47,011,40,29,22,079,43,32,60,090,45,1*6B
$GPRMC,024402.39,A,2218.2788092,N,11410.7825974,E,1.87,317.16,271224,0.0,E,A*33
$GPGGA,024402.39,2218.2788092,N,11410.7825974,E,1,04,1.0,41.428,M,0.000,M,0.0,*46
$GPGSA,A,3,26,28,29,32,,,,,,,,,4.9,2.6,4.2,1*24
$GPGSV,1,1,04,26,69,240,42,28,47,011,40,29,22,079,43,32,60,090,45,1*6B
$GPRMC,024402.49,A,2218.2813551,N,11410.7821424,E,3.79,12.85,271224,0.0,E,A*00
$GPGGA,024402.49,2218.2813551,N,11410.7821424,E,1,04,1.0,41.803,M,0.000,M,0.0,*4F
$GPGSA,A,3,26,28,29,32,,,,,,,,,4.9,2.6,4.2,1*24
$GPGSV,1,1,04,26,69,240,43,28,47,011,40,29,22,079,43,32,60,090,46,1*69
$GPRMC,024402.59,A,2218.2845564,N,11410.7843704,E,4.03,341.35,271224,0.0,E,A*35
$GPGGA,024402.59,2218.2845564,N,11410.7843704,E,1,04,1.0,53.322,M,0.000,M,0.0,*45
$GPGSA,A,3,26,28,29,32,,,,,,,,,4.9,2.6,4.2,1*24
$GPGSV,1,1,04,26,69,240,43,28,47,011,40,29,22,079,43,32,60,090,46,1*69
$GPRMC,024402.69,A,2218.2810595,N,11410.7848737,E,9.05,93.69,271224,0.0,E,A*0D
$GPGGA,024402.69,2218.2810595,N,11410.7848737,E,1,04,1.0,49.149,M,0.000,M,0.0,*47
$GPGSA,A,3,26,28,29,32,,,,,,,,,4.9,2.6,4.2,1*24
$GPGSV,1,1,04,26,69,240,43,28,47,011,40,29,22,079,43,32,60,090,46,1*69
$GPRMC,024402.79,A,2218.2828362,N,11410.7829796,E,4.34,91.26,271224,0.0,E,A*03
$GPGGA,024402.79,2218.2828362,N,11410.7829796,E,1,04,1.0,55.594,M,0.000,M,0.0,*46
$GPGSA,A,3,26,28,29,32,,,,,,,,,4.9,2.6,4.2,1*24
$GPGSV,1,1,04,26,69,240,43,28,47,011,40,29,22,079,43,32,60,090,46,1*69
$GPRMC,024402.89,A,2218.2810582,N,11410.7789056,E,6.39,184.60,271224,0.0,E,A*39
$GPGGA,024402.89,2218.2810582,N,11410.7789056,E,1,04,1.0,47.541,M,0.000,M,0.0,*4F
$GPGSA,A,3,26,28,29,32,,,,,,,,,4.9,2.6,4.2,1*24
$GPGSV,1,1,04,26,69,240,43,28,47,011,40,29,22,079,43,32,60,090,46,1*69
$GPRMC,024402.99,A,2218.2815546,N,11410.7825549,E,2.48,345.80,271224,0.0,E,A*34
$GPGGA,024402.99,2218.2815546,N,11410.7825549,E,1,04,1.0,53.501,M,0.000,M,0.0,*40
$GPGSA,A,3,26,28,29,32,,,,,,,,,4.9,2.6,4.2,1*24
$GPGSV,1,1,04,26,69,240,43,28,47,011,40,29,22,079,43,32,60,090,45,1*6A
$GPRMC,024403.09,A,2218.2800495,N,11410.7831239,E,6.97,140.97,271224,0.0,E,A*35
$GPGGA,024403.09,2218.2800495,N,11410.7831239,E,1,04,1.0,54.244,M,0.000,M,0.0,*47
$GPGSA,A,3,26,28,29,32,,,,,,,,,4.9,2.6,4.2,1*24
$GPGSV,1,1,04,26,69,240,42,28,47,011,40,29,22,079,43,32,60,090,46,1*68
$GPRMC,024403.19,A,2218.2816110,N,11410.7835737,E,1.05,140.97,271224,0.0,E,A*38
$GPGGA,024403.19,2218.2816110,N,11410.7835737,E,1,04,1.0,53.828,M,0.000,M,0.0,*41
$GPGSA,A,3,26,28,29,32,,,,,,,,,4.9,2.6,4.2,1*24
$GPGSV,1,1,04,26,69,240,42,28,47,011,40,29,22,079,43,32,60,090,45,1*6B
$GPRMC,024403.29,A,2218.2838965,N,11410.7851063,E,4.00,352.91,271224,0.0,E,A*3E
$GPGGA,024403.29,2218.2838965,N,11410.7851063,E,1,04,1.0,57.913,M,0.000,M,0.0,*4D
$GPGSA,A,3,26,28,29,32,,,,,,,,,4.9,2.6,4.2,1*24
$GPGSV,1,1,04,26,69,240,42,28,47,011,40,29,22,079,43,32,60,090,45,1*6B
$GPRMC,024403.39,A,2218.2849699,N,11410.7816573,E,3.10,316.98,271224,0.0,E,A*3D
$GPGGA,024403.39,2218.2849699,N,11410.7816573,E,1,04,1.0,55.788,M,0.000,M,0.0,*4F
$GPGSA,A,3,26,28,29,32,,,,,,,,,4.9,2.6,4.2,1*24
$GPGSV,1,1,04,26,69,240,42,28,47,011,40,29,22,079,43,32,60,090,46,1*68
$GPRMC,024403.49,A,2218.2848799,N,11410.7830914,E,4.20,313.28,271224,0.0,E,A*39
$GPGGA,024403.49,2218.2848799,N,11410.7830914,E,1,04,1.0,54.799,M,0.000,M,0.0,*40
$GPGSA,A,3,26,28,29,32,,,,,,,,,4.9,2.6,4.2,1*24
$GPGSV,1,1,04,26,69,240,42,28,47,011,39,29,22,079,43,32,60,090,46,1*66
$GPRMC,024403.59,A,2218.2859352,N,11410.7866768,E,3.85,139.80,271224,0.0,E,A*3D
$GPGGA,024403.59,2218.2859352,N,11410.7866768,E,1,04,1.0,55.243,M,0.000,M,0.0,*47
$GPGSA,A,3,26,28,29,32,,,,,,,,,4.9,2.6,4.2,1*24
$GPGSV,1,1,04,26,69,240,42,28,47,011,39,29,22,079,43,32,60,090,46,1*66
$GPRMC,024403.69,A,2218.2823913,N,11410.7853969,E,6.50,230.55,271224,0.0,E,A*3A
$GPGGA,024403.69,2218.2823913,N,11410.7853969,E,1,04,1.0,52.298,M,0.000,M,0.0,*4E
$GPGSA,A,3,26,28,29,32,,,,,,,,,4.9,2.6,4.2,1*24
$GPGSV,1,1,04,26,69,240,42,28,47,011,39,29,22,079,43,32,60,090,46,1*66
$GPRMC,024403.79,A,2218.2849479,N,11410.7854416,E,6.18,145.05,271224,0.0,E,A*3C
$GPGGA,024403.79,2218.2849479,N,11410.7854416,E,1,04,1.0,60.644,M,0.000,M,0.0,*44
$GPGSA,A,3,26,28,29,32,,,,,,,,,4.9,2.6,4.2,1*24
$GPGSV,1,1,04,26,69,240,42,28,47,011,39,29,22,079,43,32,60,090,46,1*66
$GPRMC,024403.89,A,2218.2845586,N,11410.7826569,E,4.98,9.37,271224,0.0,E,A*30
$GPGGA,024403.89,2218.2845586,N,11410.7826569,E,1,04,1.0,58.405,M,0.000,M,0.0,*46
$GPGSA,A,3,26,28,29,32,,,,,,,,,4.9,2.6,4.2,1*24
$GPGSV,1,1,04,26,69,240,42,28,47,011,39,29,22,079,43,32,60,090,46,1*66
$GPRMC,024403.99,A,2218.2836623,N,11410.7840522,E,3.51,169.19,271224,0.0,E,A*3F
$GPGGA,024403.99,2218.2836623,N,11410.7840522,E,1,04,1.0,53.750,M,0.000,M,0.0,*48
$GPGSA,A,3,26,28,29,32,,,,,,,,,4.9,2.6,4.2,1*24
$GPGSV,1,1,04,26,69,240,42,28,47,011,39,29,22,079,43,32,60,090,46,1*66
$GPRMC,024404.09,A,2218.2794868,N,11410.7854300,E,9.19,28.34,271224,0.0,E,A*09
$GPGGA,024404.09,2218.2794868,N,11410.7854300,E,1,04,1.0,56.610,M,0.000,M,0.0,*43
$GPGSA,A,3,26,28,29,32,,,,,,,,,4.9,2.6,4.2,1*24
$GPGSV,1,1,04,26,69,240,42,28,47,011,39,29,22,079,43,32,60,090,45,1*65
$GPRMC,024404.19,A,2218.2829468,N,11410.7842545,E,3.46,316.54,271224,0.0,E,A*35
$GPGGA,024404.19,2218.2829468,N,11410.7842545,E,1,04,1.0,63.177,M,0.000,M,0.0,*47
$GPGSA,A,3,26,28,29,32,,,,,,,,,4.9,2.6,4.2,1*24
$GPGSV,1,1,04,26,69,240,42,28,47,011,39,29,22,079,43,32,60,090,45,1*65
$GPRMC,024404.29,A,2218.2842106,N,11410.7818900,E,4.96,181.16,271224,0.0,E,A*34
$GPGGA,024404.29,2218.2842106,N,11410.7818900,E,1,04,1.0,63.647,M,0.000,M,0.0,*42
$GPGSA,A,3,26,28,29,32,,,,,,,,,4.9,2.6,4.2,1*24
$GPGSV,1,1,04,26,69,240,42,28,47,011,39,29,22,079,43,32,60,090,45,1*65
$GPRMC,024404.39,A,2218.2855950,N,11410.7793951,E,5.03,306.99,271224,0.0,E,A*37
$GPGGA,024404.39,2218.2855950,N,11410.7793951,E,1,04,1.0,59.338,M,0.000,M,0.0,*42
$GPGSA,A,3,26,28,29,32,,,,,,,,,4.9,2.6,4.2,1*24
$GPGSV,1,1,04,26,69,240,42,28,47,011,39,29,22,079,43,32,60,090,45,1*65
$GPRMC,024404.49,A,2218.2852076,N,11410.7813026,E,5.68,178.50,271224,0.0,E,A*37
$GPGGA,024404.49,2218.2852076,N,11410.7813026,E,1,04,1.0,53.693,M,0.000,M,0.0,*4F
$GPGSA,A,3,26,28,29,32,,,,,,,,,4.9,2.6,4.2,1*24
$GPGSV,1,1,04,26,69,240,42,28,47,011,39,29,22,079,43,32,60,090,45,1*65
$GPRMC,024404.59,A,2218.2842048,N,11410.7837445,E,5.02,151.95,271224,0.0,E,A*33
$GPGGA,024404.59,2218.2842048,N,11410.7837445,E,1,04,1.0,60.252,M,0.000,M,0.0,*4C
$GPGSA,A,3,26,28,29,32,,,,,,,,,4.9,2.6,4.2,1*24
$GPGSV,1,1,04,26,69,240,42,28,47,011,39,29,22,079,43,32,60,090,45,1*65
$GPRMC,024404.69,A,2218.2839926,N,11410.7839454,E,1.70,151.95,271224,0.0,E,A*32
$GPGGA,024404.69,2218.2839926,N,11410.7839454,E,1,04,1.0,58.342,M,0.000,M,0.0,*47
$GPGSA,A,3,26,28,29,32,,,,,,,,,4.9,2.6,4.2,1*24
$GPGSV,1,1,04,26,69,240,42,28,47,011,39,29,22,079,43,32,60,090,45,1*65
$GPRMC,024404.79,A,2218.2802071,N,11410.7846870,E,5.71,226.24,271224,0.0,E,A*3E
$GPGGA,024404.79,2218.2802071,N,11410.7846870,E,1,04,1.0,55.505,M,0.000,M,0.0,*4F
$GPGSA,A,3,26,28,29,32,,,,,,,,,4.9,2.6,4.2,1*24
$GPGSV,1,1,04,26,69,240,42,28,47,011,39,29,22,079,43,32,60,090,45,1*65
$GPRMC,024404.89,A,2218.2804570,N,11410.7828269,E,8.76,229.27,271224,0.0,E,A*3F
$GPGGA,024404.89,2218.2804570,N,11410.7828269,E,1,04,1.0,52.739,M,0.000,M,0.0,*42
$GPGSA,A,3,26,28,29,32,,,,,,,,,4.9,2.6,4.2,1*24
$GPGSV,1,1,04,26,69,240,42,28,47,011,40,29,22,079,43,32,60,090,45,1*6B
$GPRMC,024404.99,A,2218.2819790,N,11410.7807142,E,2.94,143.76,271224,0.0,E,A*34
$GPGGA,024404.99,2218.2819790,N,11410.7807142,E,1,04,1.0,53.634,M,0.000,M,0.0,*49
$GPGSA,A,3,26,28,29,32,,,,,,,,,4.9,2.6,4.2,1*24
$GPGSV,1,1,04,26,69,240,42,28,47,011,40,29,22,079,43,32,60,090,45,1*6B
$GPRMC,024405.09,A,2218.2844469,N,11410.7821777,E,1.53,143.76,271224,0.0,E,A*3D
$GPGGA,024405.09,2218.2844469,N,11410.7821777,E,1,04,1.0,60.566,M,0.000,M,0.0,*4C
$GPGSA,A,3,26,28,29,32,,,,,,,,,4.9,2.6,4.2,1*24
$GPGSV,1,1,04,26,69,240,42,28,47,011,40,29,22,079,43,32,60,090,44,1*6A
$GPRMC,024405.19,A,2218.2835639,N,11410.7849724,E,4.26,147.82,271224,0.0,E,A*3D
$GPGGA,024405.19,2218.2835639,N,11410.7849724,E,1,04,1.0,66.227,M,0.000,M,0.0,*40
$GPGSA,A,3,26,28,29,32,,,,,,,,,4.9,2.6,4.2,1*24
$GPGSV,1,1,04,26,69,240,42,28,47,011,40,29,22,079,42,32,60,090,44,1*6B
$GPRMC,024405.29,A,2218.2804211,N,11410.7838381,E,3.11,195.50,271224,0.0,E,A*3C
$GPGGA,024405.29,2218.2804211,N,11410.7838381,E,1,04,1.0,50.641,M,0.000,M,0.0,*43
$GPGSA,A,3,26,28,29,32,,,,,,,,,4.9,2.6,4.2,1*24
$GPGSV,1,1,04,26,69,240,42,28,47,011,39,29,22,079,42,32,60,090,45,1*64
$GPRMC,024405.39,A,2218.2789808,N,11410.7823941,E,9.18,36.60,271224,0.0,E,A*01
$GPGGA,024405.39,2218.2789808,N,11410.7823941,E,1,04,1.0,49.312,M,0.000,M,0.0,*4D
$GPGSA,A,3,26,28,29,32,,,,,,,,,4.9,2.6,4.2,1*24
$GPGSV,1,1,04,26,69,240,42,28,47,011,39,29,22,079,42,32,60,090,45,1*64
$GPRMC,024405.49,A,2218.2783183,N,11410.7780748,E,4.89,146.00,271224,0.0,E,A*32
$GPGGA,024405.49,2218.2783183,N,11410.7780748,E,1,04,1.0,41.019,M,0.000,M,0.0,*4B
$GPGSA,A,3,26,28,29,32,,,,,,,,,4.9,2.6,4.2,1*24
$GPGSV,1,1,04,26,69,240,42,28,47,011,40,29,22,079,43,32,60,090,45,1*6B
$GPRMC,024405.59,A,2218.2799124,N,11410.7812232,E,6.63,181.76,271224,0.0,E,A*35
$GPGGA,024405.59,2218.2799124,N,11410.7812232,E,1,04,1.0,45.458,M,0.000,M,0.0,*45
$GPGSA,A,3,26,28,29,32,,,,,,,,,4.9,2.6,4.2,1*24
$GPGSV,1,1,04,26,69,240,42,28,47,011,40,29,22,079,42,32,60,090,45,1*6A
$GPRMC,024405.69,A,2218.2836533,N,11410.7833666,E,10.98,56.12,271224,0.0,E,A*32
$GPGGA,024405.69,2218.2836533,N,11410.7833666,E,1,04,1.0,60.478,M,0.000,M,0.0,*4D
$GPGSA,A,3,26,28,29,32,,,,,,,,,4.9,2.6,4.2,1*24
$GPGSV,1,1,04,26,69,240,42,28,47,011,39,29,22,079,43,32,60,090,45,1*65
$GPRMC,024405.79,A,2218.2799616,N,11410.7842244,E,3.80,231.92,271224,0.0,E,A*3F
$GPGGA,024405.79,2218.2799616,N,11410.7842244,E,1,04,1.0,53.990,M,0.000,M,0.0,*4B
$GPGSA,A,3,26,28,29,32,,,,,,,,,4.9,2.6,4.2,1*24
$GPGSV,1,1,04,26,69,240,42,28,47,011,39,29,22,079,42,32,60,090,45,1*64
$GPRMC,024405.89,A,2218.2815134,N,11410.7828050,E,5.14,334.12,271224,0.0,E,A*30
$GPGGA,024405.89,2218.2815134,N,11410.7828050,E,1,04,1.0,52.538,M,0.000,M,0.0,*4C
$GPGSA,A,3,26,28,29,32,,,,,,,,,4.9,2.6,4.2,1*24
$GPGSV,1,1,04,26,69,240,42,28,47,011,39,29,22,079,42,32,60,090,45,1*64
$GPRMC,024405.99,A,2218.2851028,N,11410.7835719,E,7.09,252.41,271224,0.0,E,A*32
$GPGGA,024405.99,2218.2851028,N,11410.7835719,E,1,04,1.0,64.133,M,0.000,M,0.0,*4D
$GPGSA,A,3,26,28,29,32,,,,,,,,,4.9,2.6,4.2,1*24
$GPGSV,1,1,04,26,69,240,42,28,47,011,39,29,22,079,42,32,60,090,45,1*64
$GPRMC,024406.09,A,2218.2862656,N,11410.7786908,E,3.28,19.30,271224,0.0,E,A*02
$GPGGA,024406.09,2218.2862656,N,11410.7786908,E,1,04,1.0,53.630,M,0.000,M,0.0,*41
$GPGSA,A,3,26,28,29,32,,,,,,,,,4.9,2.6,4.2,1*24
$GPGSV,1,1,04,26,69,240,42,28,47,011,39,29,22,079,42,32,60,090,45,1*64
$GPRMC,024406.19,A,2218.2846190,N,11410.7811599,E,4.31,294.35,271224,0.0,E,A*30
$GPGGA,024406.19,2218.2846190,N,11410.7811599,E,1,04,1.0,57.480,M,0.000,M,0.0,*43
$GPGSA,A,3,26,28,29,32,,,,,,,,,4.9,2.6,4.2,1*24
$GPGSV,1,1,04,26,69,240,42,28,47,011,39,29,22,079,42,32,60,090,45,1*64
$GPRMC,024406.29,A,2218.2827386,N,11410.7831010,E,1.67,294.35,271224,0.0,E,A*31
$GPGGA,024406.29,2218.2827386,N,11410.7831010,E,1,04,1.0,52.737,M,0.000,M,0.0,*4E
$GPGSA,A,3,26,28,29,32,,,,,,,,,4.9,2.6,4.2,1*24
$GPGSV,1,1,04,26,69,240,42,28,47,011,39,29,22,079,42,32,60,090,45,1*64
$GPRMC,024406.39,A,2218.2816413,N,11410.7855028,E,4.91,258.97,271224,0.0,E,A*34
$GPGGA,024406.39,2218.2816413,N,11410.7855028,E,1,04,1.0,56.020,M,0.000,M,0.0,*4A
$GPGSA,A,3,26,28,29,32,,,,,,,,,4.9,2.6,4.2,1*24
$GPGSV,1,1,04,26,69,240,42,28,47,011,39,29,22,079,42,32,60,090,45,1*64
$GPRMC,024406.49,A,2218.2804276,N,11410.7824404,E,1.09,258.97,271224,0.0,E,A*3D
$GPGGA,024406.49,2218.2804276,N,11410.7824404,E,1,04,1.0,47.145,M,0.000,M,0.0,*45
$GPGSA,A,3,26,28,29,32,,,,,,,,,4.9,2.6,4.2,1*24
$GPGSV,1,1,04,26,69,240,42,28,47,011,39,29,22,079,42,32,60,090,45,1*64
$GPRMC,024406.59,A,2218.2801505,N,11410.7806671,E,5.23,235.94,271224,0.0,E,A*3E
$GPGGA,024406.59,2218.2801505,N,11410.7806671,E,1,04,1.0,39.083,M,0.000,M,0.0,*40
$GPGSA,A,3,26,28,29,32,,,,,,,,,4.9,2.6,4.2,1*24
$GPGSV,1,1,04,26,69,240,42,28,47,011,39,29,22,079,42,32,60,090,45,1*64
$GPRMC,024406.69,A,2218.2828892,N,11410.7816359,E,11.64,119.83,271224,0.0,E,A*06
$GPGGA,024406.69,2218.2828892,N,11410.7816359,E,1,04,1.0,50.951,M,0.000,M,0.0,*4C
$GPGSA,A,3,26,28,29,32,,,,,,,,,4.9,2.6,4.2,1*24
$GPGSV,1,1,04,26,69,240,42,28,47,011,39,29,22,079,42,32,60,090,45,1*64
$GPRMC,024406.79,A,2218.2850462,N,11410.7818380,E,6.50,23.65,271224,0.0,E,A*00
$GPGGA,024406.79,2218.2850462,N,11410.7818380,E,1,04,1.0,53.361,M,0.000,M,0.0,*41
$GPGSA,A,3,26,28,29,32,,,,,,,,,4.9,2.6,4.2,1*24
$GPGSV,1,1,04,26,69,240,42,28,47,011,39,29,22,079,42,32,60,090,45,1*64
$GPRMC,024406.89,A,2218.2827634,N,11410.7830669,E,3.61,219.15,271224,0.0,E,A*3D
$GPGGA,024406.89,2218.2827634,N,11410.7830669,E,1,04,1.0,52.319,M,0.000,M,0.0,*49
$GPGSA,A,3,26,28,29,32,,,,,,,,,4.9,2.6,4.2,1*24
$GPGSV,1,1,04,26,69,240,42,28,47,011,39,29,22,079,42,32,60,090,45,1*64
$GPRMC,024406.99,A,2218.2809960,N,11410.7845143,E,4.84,200.09,271224,0.0,E,A*3A
$GPGGA,024406.99,2218.2809960,N,11410.7845143,E,1,04,1.0,57.366,M,0.000,M,0.0,*4A
$GPGSA,A,3,26,28,29,32,,,,,,,,,4.9,2.6,4.2,1*24
$GPGSV,1,1,04,26,69,240,42,28,47,011,39,29,22,079,42,32,60,090,45,1*64
$GPRMC,024407.09,A,2218.2788897,N,11410.7850485,E,1.51,200.09,271224,0.0,E,A*3B
$GPGGA,024407.09,2218.2788897,N,11410.7850485,E,1,04,1.0,51.020,M,0.000,M,0.0,*41
$GPGSA,A,3,26,28,29,32,,,,,,,,,4.9,2.6,4.2,1*24
$GPGSV,1,1,04,26,69,240,42,28,47,011,39,29,22,079,42,32,60,090,45,1*64
$GPRMC,024407.19,A,2218.2758957,N,11410.7838492,E,6.84,129.95,271224,0.0,E,A*30
$GPGGA,024407.19,2218.2758957,N,11410.7838492,E,1,04,1.0,54.369,M,0.000,M,0.0,*43
$GPGSA,A,3,26,28,29,32,,,,,,,,,4.9,2.6,4.2,1*24
$GPGSV,1,1,04,26,69,240,42,28,47,011,39,29,22,079,42,32,60,090,45,1*64
$GPRMC,024407.29,A,2218.2801336,N,11410.7830017,E,5.26,212.07,271224,0.0,E,A*37
$GPGGA,024407.29,2218.2801336,N,11410.7830017,E,1,04,1.0,52.770,M,0.000,M,0.0,*45
$GPGSA,A,3,26,28,29,32,,,,,,,,,4.9,2.6,4.2,1*24
$GPGSV,1,1,04,26,69,240,42,28,47,011,39,29,22,079,42,32,60,090,45,1*64
$GPRMC,024407.39,A,2218.2816713,N,11410.7817067,E,4.42,245.75,271224,0.0,E,A*35
$GPGGA,024407.39,2218.2816713,N,11410.7817067,E,1,04,1.0,43.593,M,0.000,M,0.0,*4C
$GPGSA,A,3,26,28,29,32,,,,,,,,,4.9,2.6,4.2,1*24
$GPGSV,1,1,04,26,69,240,42,28,47,011,39,29,22,079,42,32,60,090,45,1*64
$GPRMC,024407.49,A,2218.2839756,N,11410.7829432,E,2.28,274.07,271224,0.0,E,A*3A
$GPGGA,024407.49,2218.2839756,N,11410.7829432,E,1,04,1.0,54.003,M,0.000,M,0.0,*44
$GPGSA,A,3,26,28,29,32,,,,,,,,,4.9,2.6,4.2,1*24
$GPGSV,1,1,04,26,69,240,42,28,47,011,40,29,22,079,42,32,60,090,45,1*6A
$GPRMC,024407.59,A,2218.2847971,N,11410.7860120,E,10.76,60.56,271224,0.0,E,A*39
$GPGGA,024407.59,2218.2847971,N,11410.7860120,E,1,04,1.0,64.805,M,0.000,M,0.0,*41
$GPGSA,A,3,26,28,29,32,,,,,,,,,4.9,2.6,4.2,1*24
$GPGSV,1,1,04,26,69,240,42,28,47,011,40,29,22,079,42,32,60,090,45,1*6A
$GPRMC,024407.69,A,2218.2846478,N,11410.7854887,E,7.15,244.34,271224,0.0,E,A*3F
$GPGGA,024407.69,2218.2846478,N,11410.7854887,E,1,04,1.0,61.526,M,0.000,M,0.0,*4D
$GPGSA,A,3,26,28,29,32,,,,,,,,,4.9,2.6,4.2,1*24
$GPGSV,1,1,04,26,69,240,42,28,47,011,39,29,22,079,42,32,60,090,45,1*64
$GPRMC,024407.79,A,2218.2807341,N,11410.7846226,E,3.53,211.48,271224,0.0,E,A*39
$GPGGA,024407.79,2218.2807341,N,11410.7846226,E,1,04,1.0,57.573,M,0.000,M,0.0,*43
$GPGSA,A,3,26,28,29,32,,,,,,,,,4.9,2.6,4.2,1*24
$GPGSV,1,1,04,26,69,240,42,28,47,011,39,29,22,079,42,32,60,090,45,1*64
$GPRMC,024407.89,A,2218.2810046,N,11410.7807913,E,4.18,8.14,271224,0.0,E,A*37
$GPGGA,024407.89,2218.2810046,N,11410.7807913,E,1,04,1.0,50.888,M,0.000,M,0.0,*48
$GPGSA,A,3,26,28,29,32,,,,,,,,,4.9,2.6,4.2,1*24
$GPGSV,1,1,04,26,69,240,42,28,47,011,39,29,22,079,42,32,60,090,45,1*64
$GPRMC,024407.99,A,2218.2802814,N,11410.7813661,E,1.62,8.14,271224,0.0,E,A*3D
$GPGGA,024407.99,2218.2802814,N,11410.7813661,E,1,04,1.0,47.905,M,0.000,M,0.0,*48
$GPGSA,A,3,26,28,29,32,,,,,,,,,4.9,2.6,4.2,1*24
$GPGSV,1,1,04,26,69,240,42,28,47,011,39,29,22,079,42,32,60,090,45,1*64
$GPRMC,024408.09,A,2218.2770997,N,11410.7809466,E,10.75,199.25,271224,0.0,E,A*08
$GPGGA,024408.09,2218.2770997,N,11410.7809466,E,1,04,1.0,40.987,M,0.000,M,0.0,*4D
$GPGSA,A,3,26,28,29,32,,,,,,,,,4.9,2.6,4.2,1*24
$GPGSV,1,1,04,26,69,240,42,28,47,011,39,29,22,079,42,32,60,090,45,1*64
$GPRMC,024408.19,A,2218.2755123,N,11410.7819675,E,7.73,41.97,271224,0.0,E,A*05
$GPGGA,024408.19,2218.2755123,N,11410.7819675,E,1,04,1.0,29.236,M,0.000,M,0.0,*43
$GPGSA,A,3,26,28,29,32,,,,,,,,,4.9,2.6,4.2,1*24
$GPGSV,1,1,04,26,69,240,42,28,47,011,39,29,22,079,42,32,60,090,45,1*64
$GPRMC,024408.29,A,2218.2793175,N,11410.7805852,E,5.80,246.53,271224,0.0,E,A*3A
$GPGGA,024408.29,2218.2793175,N,11410.7805852,E,1,04,1.0,41.793,M,0.000,M,0.0,*4B
$GPGSA,A,3,26,28,29,32,,,,,,,,,4.9,2.6,4.2,1*24
$GPGSV,1,1,04,26,69,240,42,28,47,011,39,29,22,079,42,32,60,090,45,1*64
$GPRMC,024408.39,A,2218.2809400,N,11410.7817197,E,1.53,246.53,271224,0.0,E,A*39
$GPGGA,024408.39,2218.2809400,N,11410.7817197,E,1,04,1.0,40.521,M,0.000,M,0.0,*48
$GPGSA,A,3,26,28,29,32,,,,,,,,,4.9,2.6,4.2,1*24
$GPGSV,1,1,04,26,69,240,42,28,47,011,40,29,22,079,42,32,60,090,45,1*6A
$GPRMC,024408.49,A,2218.2815198,N,11410.7814138,E,6.31,11.87,271224,0.0,E,A*0B
$GPGGA,024408.49,2218.2815198,N,11410.7814138,E,1,04,1.0,39.088,M,0.000,M,0.0,*48
$GPGSA,A,3,26,28,29,32,,,,,,,,,4.9,2.6,4.2,1*24
$GPGSV,1,1,04,26,69,240,42,28,47,011,39,29,22,079,42,32,60,090,45,1*64
$GPRMC,024408.59,A,2218.2806490,N,11410.7806623,E,8.78,253.76,271224,0.0,E,A*32
$GPGGA,024408.59,2218.2806490,N,11410.7806623,E,1,04,1.0,36.375,M,0.000,M,0.0,*46
$GPGSA,A,3,26,28,29,32,,,,,,,,,4.9,2.6,4.2,1*24
$GPGSV,1,1,04,26,69,240,42,28,47,011,39,29,22,079,42,32,60,090,46,1*67
$GPRMC,024408.69,A,2218.2791720,N,11410.7814788,E,3.32,345.03,271224,0.0,E,A*3A
$GPGGA,024408.69,2218.2791720,N,11410.7814788,E,1,04,1.0,38.743,M,0.000,M,0.0,*40
$GPGSA,A,3,26,28,29,32,,,,,,,,,4.9,2.6,4.2,1*24
$GPGSV,1,1,04,26,69,240,42,28,47,011,39,29,22,079,42,32,60,090,46,1*67
$GPRMC,024408.79,A,2218.2781590,N,11410.7848823,E,7.49,188.16,271224,0.0,E,A*3B
$GPGGA,024408.79,2218.2781590,N,11410.7848823,E,1,04,1.0,40.911,M,0.000,M,0.0,*48
$GPGSA,A,3,26,28,29,32,,,,,,,,,4.9,2.6,4.2,1*24
$GPGSV,1,1,04,26,69,240,42,28,47,011,39,29,22,079,42,32,60,090,45,1*64
$GPRMC,024408.89,A,2218.2807824,N,11410.7846290,E,3.88,308.87,271224,0.0,E,A*30
$GPGGA,024408.89,2218.2807824,N,11410.7846290,E,1,04,1.0,45.077,M,0.000,M,0.0,*44
$GPGSA,A,3,26,28,29,32,,,,,,,,,4.9,2.6,4.2,1*24
$GPGSV,1,1,04,26,69,240,42,28,47,011,40,29,22,079,42,32,60,090,45,1*6A
$GPRMC,024408.99,A,2218.2815144,N,11410.7828422,E,1.55,308.87,271224,0.0,E,A*38
$GPGGA,024408.99,2218.2815144,N,11410.7828422,E,1,04,1.0,34.764,M,0.000,M,0.0,*4D
$GPGSA,A,3,26,28,29,32,,,,,,,,,4.9,2.6,4.2,1*24
$GPGSV,1,1,04,26,69,240,42,28,47,011,39,29,22,079,42,32,60,090,46,1*67
$GPRMC,024409.09,A,2218.2825738,N,11410.7829038,E,1.82,308.87,271224,0.0,E,A*3A
$GPGGA,024409.09,2218.2825738,N,11410.7829038,E,1,04,1.0,32.369,M,0.000,M,0.0,*4A
$GPGSA,A,3,26,28,29,32,,,,,,,,,4.9,2.6,4.2,1*24
$GPGSV,1,1,04,26,69,240,42,28,47,011,39,29,22,079,42,32,60,090,46,1*67
$GPRMC,024409.19,A,2218.2839304,N,11410.7817946,E,3.54,242.00,271224,0.0,E,A*39
$GPGGA,024409.19,2218.2839304,N,11410.7817946,E,1,04,1.0,34.531,M,0.000,M,0.0,*4D
$GPGSA,A,3,26,28,29,32,,,,,,,,,4.9,2.6,4.2,1*24
$GPGSV,1,1,04,26,69,240,42,28,47,011,39,29,22,079,41,32,60,090,46,1*64
$GPRMC,024409.29,A,2218.2788058,N,11410.7853607,E,4.10,51.68,271224,0.0,E,A*06
$GPGGA,024409.29,2218.2788058,N,11410.7853607,E,1,04,1.0,38.617,M,0.000,M,0.0,*40
$GPGSA,A,3,26,28,29,32,,,,,,,,,4.9,2.6,4.2,1*24
$GPGSV,1,1,04,26,69,240,42,28,47,011,39,29,22,079,42,32,60,090,46,1*67
$GPRMC,024409.39,A,2218.2742541,N,11410.7833140,E,1.32,51.68,271224,0.0,E,A*0B
$GPGGA,024409.39,2218.2742541,N,11410.7833140,E,1,04,1.0,34.557,M,0.000,M,0.0,*43
$GPGSA,A,3,26,28,29,32,,,,,,,,,4.9,2.6,4.2,1*24
